[
 {
  "name": "행운복권",
  "address": "서울 강북구 솔샘로 212 신영빌딩 1층",
  "combination": "자동",
  "lat": 37.619926,
  "lng": 127.01622
 },
 {
  "name": "복권백화점",
  "address": "서울 은평구 연서로29길 7-2 1층",
  "combination": "자동",
  "lat": 37.618702,
  "lng": 126.919136
 },
 {
  "name": "빅세일복권방",
  "address": "부산 부산진구 서면문화로 6",
  "combination": "자동",
  "lat": 35.158302,
  "lng": 129.05809
 },
 {
  "name": "복권명당(동아스포츠점)",
  "address": "대구 수성구 지범로 91 1층",
  "combination": "자동",
  "lat": 35.825844,
  "lng": 128.63191
 },
 {
  "name": "최강복권\u0026아이스크림",
  "address": "경기 고양시 덕양구 삼송로 176-1",
  "combination": "수동",
  "lat": 37.6531,
  "lng": 126.89353
 },
 {
  "name": "최강복권\u0026아이스크림",
  "address": "경기 고양시 덕양구 삼송로 176-1",
  "combination": "수동",
  "lat": 37.6531,
  "lng": 126.89353
 },
 {
  "name": "대박복권방",
  "address": "경기 남양주시 맷돌로 118 중흥프라자101호",
  "combination": "자동",
  "lat": 37.657288,
  "lng": 127.30326
 },
 {
  "name": "월산리주고받는로또",
  "address": "경기 남양주시 경춘로 2244 1층 CU내",
  "combination": "자동",
  "lat": 37.65575,
  "lng": 127.33679
 },
 {
  "name": "소망로또",
  "address": "경기 의정부시 평화로 176",
  "combination": "자동",
  "lat": 37.707417,
  "lng": 127.04841
 },
 {
  "name": "법원로또",
  "address": "강원 원주시 무실로 300 원주무실8단지엘에이치아파트 상가 101호",
  "combination": "자동",
  "lat": 37.33498,
  "lng": 127.93267
 },
 {
  "name": "영화유통",
  "address": "경북 포항시 북구 양학천로 15",
  "combination": "자동",
  "lat": 36.023766,
  "lng": 129.35393
 },
 {
  "name": "진양호",
  "address": "경남 진주시 남강로 58 1층",
  "combination": "자동",
  "lat": 35.162823,
  "lng": 128.03957
 }
]