[
 {
  "name": "투데이",
  "address": "서울 동대문구 천호대로 67 1층",
  "combination": "수동",
  "lat": 37.574116,
  "lng": 127.03101
 },
 {
  "name": "그린마트",
  "address": "서울 송파구 백제고분로19길 26 1층",
  "combination": "자동",
  "lat": 37.506878,
  "lng": 127.08749
 },
 {
  "name": "진우복권",
  "address": "부산 연제구 월드컵대로 119 204호(연산동)",
  "combination": "자동",
  "lat": 35.184826,
  "lng": 129.08208
 },
 {
  "name": "복권방",
  "address": "인천 남동구 백범로 123 cu편의점",
  "combination": "자동",
  "lat": 37.454597,
  "lng": 126.73312
 },
 {
  "name": "복권판매점",
  "address": "경기 성남시 수정구 남문로77번길 13-1  1층",
  "combination": "수동",
  "lat": 37.4475,
  "lng": 127.13477
 },
 {
  "name": "에이데이마트",
  "address": "전남 목포시 백년대로375번길 42 에이데이마트",
  "combination": "자동",
  "lat": 34.810516,
  "lng": 126.42563
 },
 {
  "name": "동일설비 명성복권",
  "address": "경북 안동시 경동로 913",
  "combination": "자동",
  "lat": 36.55692,
  "lng": 128.75537
 },
 {
  "name": "행복충전",
  "address": "경북 포항시 북구 삼흥로 441 3호",
  "combination": "수동",
  "lat": 36.097492,
  "lng": 129.37115
 }
]