[
 {
  "name": "가로판매대",
  "address": "서울 강동구 올림픽로 648 천호역 3번 출구 앞(가판점)",
  "combination": "자동",
  "lat": 37.538975,
  "lng": 127.12444
 },
 {
  "name": "노다지복권방",
  "address": "서울 동대문구 한빛로 1-1,(신설동)",
  "combination": "자동",
  "lat": 37.57634,
  "lng": 127.02392
 },
 {
  "name": "버스매표소",
  "address": "인천 부평구 부평대로 3 가판",
  "combination": "자동",
  "lat": 37.49181,
  "lng": 126.722725
 },
 {
  "name": "노다지복권방",
  "address": "인천 연수구 앵고개로 256",
  "combination": "수동",
  "lat": 37.407825,
  "lng": 126.67202
 },
 {
  "name": "천복권방",
  "address": "대전 대덕구 한밭대로1043번길 2",
  "combination": "자동",
  "lat": 36.358776,
  "lng": 127.41447
 },
 {
  "name": "주엽역 로또판매점",
  "address": "경기 고양시 일산서구 중앙로 1437 화성프라자 도로",
  "combination": "자동",
  "lat": 37.670036,
  "lng": 126.76048
 },
 {
  "name": "해뜰날",
  "address": "경기 동두천시 중앙로 134-30",
  "combination": "수동",
  "lat": 37.89315,
  "lng": 127.0543
 },
 {
  "name": "해뜰날",
  "address": "경기 동두천시 중앙로 134-30",
  "combination": "수동",
  "lat": 37.89315,
  "lng": 127.0543
 },
 {
  "name": "해뜰날",
  "address": "경기 동두천시 중앙로 134-30",
  "combination": "수동",
  "lat": 37.89315,
  "lng": 127.0543
 },
 {
  "name": "해뜰날",
  "address": "경기 동두천시 중앙로 134-30",
  "combination": "수동",
  "lat": 37.89315,
  "lng": 127.0543
 },
 {
  "name": "해뜰날",
  "address": "경기 동두천시 중앙로 134-30",
  "combination": "수동",
  "lat": 37.89315,
  "lng": 127.0543
 },
 {
  "name": "오이도직판장마트",
  "address": "경기 시흥시 오이도로 167 오이도이주단지B",
  "combination": "자동",
  "lat": 37.345856,
  "lng": 126.68821
 },
 {
  "name": "떳다복권방",
  "address": "전북 군산시 조촌로 90",
  "combination": "자동",
  "lat": 35.97195,
  "lng": 126.73802
 },
 {
  "name": "로또복권판매",
  "address": "제주 서귀포시 표선동서로 230",
  "combination": "자동",
  "lat": 33.324867,
  "lng": 126.83256
 }
]