[
 {
  "name": "금손복권",
  "address": "서울 마포구 새창로 22 1층(도화동)",
  "combination": "자동",
  "lat": 37.541885,
  "lng": 126.9523
 },
 {
  "name": "교통카드",
  "address": "서울 서초구 강남대로 517",
  "combination": "자동",
  "lat": 37.5081,
  "lng": 127.022255
 },
 {
  "name": "G마트",
  "address": "서울 영등포구 디지털로 387",
  "combination": "자동",
  "lat": 37.491634,
  "lng": 126.902115
 },
 {
  "name": "만복래",
  "address": "인천 부평구 주부토로 20-2 1층",
  "combination": "자동",
  "lat": 37.496822,
  "lng": 126.72482
 },
 {
  "name": "잉크와복권",
  "address": "경기 광명시 시청로 69,(철산동)",
  "combination": "자동",
  "lat": 37.48272,
  "lng": 126.865616
 },
 {
  "name": "대박로또",
  "address": "충남 당진시 서해로 6869",
  "combination": "자동",
  "lat": 36.8866,
  "lng": 126.74026
 },
 {
  "name": "천하명당복권방",
  "address": "충남 홍성군 조양로 180",
  "combination": "자동",
  "lat": 36.60072,
  "lng": 126.66951
 },
 {
  "name": "포시즌마트 빛가람희망로또",
  "address": "전남 나주시 그린로 351 110호 포시즌마트",
  "combination": "자동",
  "lat": 35.017883,
  "lng": 126.793915
 },
 {
  "name": "로또야놀자",
  "address": "경북 경주시 양정로 211,(동천동)",
  "combination": "자동",
  "lat": 35.85151,
  "lng": 129.22398
 },
 {
  "name": "로또월드",
  "address": "경북 성주군 성주순환로 113 1층 창민전기",
  "combination": "수동",
  "lat": 35.926235,
  "lng": 128.2815
 }
]