[
 {
  "name": "스파",
  "address": "서울 노원구 동일로 1493 상계주공아파트(10단지) 주공10단지종합상가111",
  "combination": "자동",
  "lat": 37.66166,
  "lng": 127.05787
 },
 {
  "name": "부일카서비스",
  "address": "부산 동구 자성로133번길 35",
  "combination": "자동",
  "lat": 35.140015,
  "lng": 129.06306
 },
 {
  "name": "대박신화로또판매점",
  "address": "인천 미추홀구 인하로 267 1층",
  "combination": "자동",
  "lat": 37.44831,
  "lng": 126.677795
 },
 {
  "name": "드림마트",
  "address": "인천 서구 검단로 490",
  "combination": "수동",
  "lat": 37.60223,
  "lng": 126.65863
 },
 {
  "name": "영화복권(버들점)",
  "address": "광주 서구 상무버들로 32",
  "combination": "자동",
  "lat": 35.164616,
  "lng": 126.86002
 },
 {
  "name": "이전유통",
  "address": "경기 고양시 일산동구 호수로446번길 54 1층",
  "combination": "자동",
  "lat": 37.645763,
  "lng": 126.780205
 },
 {
  "name": "마리오슈퍼",
  "address": "경기 부천시 송내대로265번길 85 뱅뱅프라자 1층 118호",
  "combination": "반자동",
  "lat": 37.50734,
  "lng": 126.753876
 },
 {
  "name": "남문시장",
  "address": "경기 수원시 팔달구 수원천로255번길 6 영동시장 영동시장 101호",
  "combination": "수동",
  "lat": 37.277145,
  "lng": 127.01858
 },
 {
  "name": "용꿈돼지꿈복권방",
  "address": "경기 시흥시 하중로 235 법조타운103호",
  "combination": "수동",
  "lat": 37.390877,
  "lng": 126.806526
 },
 {
  "name": "도깨비복권방",
  "address": "전북 군산시 문화로 29",
  "combination": "자동",
  "lat": 35.969982,
  "lng": 126.70906
 },
 {
  "name": "복권명당",
  "address": "경북 경주시 동문로 46",
  "combination": "자동",
  "lat": 35.848606,
  "lng": 129.2142
 },
 {
  "name": "천하명당복권방",
  "address": "경남 거제시 옥포성안로 60",
  "combination": "수동",
  "lat": 34.891693,
  "lng": 128.69492
 }
]