[
 {
  "name": "소울로또",
  "address": "서울 강동구 진황도로 119",
  "combination": "수동",
  "lat": 37.534897,
  "lng": 127.13954
 },
 {
  "name": "인터넷 복권판매사이트",
  "address": "동행복권(dhlottery.co.kr)",
  "combination": "자동",
  "lat": 37.482063,
  "lng": 127.015785
 },
 {
  "name": "뉴빅마트",
  "address": "부산 기장군 정관중앙로 48 106호",
  "combination": "자동",
  "lat": 35.321114,
  "lng": 129.17929
 },
 {
  "name": "로또나라",
  "address": "부산 북구 팽나무로 1",
  "combination": "자동",
  "lat": 35.20504,
  "lng": 129.00464
 },
 {
  "name": "복권명당",
  "address": "대구 수성구 천을로 180 동서1차아파트상가108-112호",
  "combination": "반자동",
  "lat": 35.842495,
  "lng": 128.71007
 },
 {
  "name": "로또명당 이천쌀유통",
  "address": "인천 부평구 광장로 34 1층",
  "combination": "자동",
  "lat": 37.490963,
  "lng": 126.72445
 },
 {
  "name": "주엽역 로또판매점",
  "address": "경기 고양시 일산서구 중앙로 1437 화성프라자 도로",
  "combination": "자동",
  "lat": 37.670036,
  "lng": 126.76048
 },
 {
  "name": "거진터미널로또복권판매점",
  "address": "강원 고성군 거진읍 거진길 21-2 거진터미널",
  "combination": "수동",
  "lat": 38.44631,
  "lng": 128.45374
 },
 {
  "name": "로또명당인주점",
  "address": "충남 아산시 서해로 519-2",
  "combination": "자동",
  "lat": 36.87784,
  "lng": 126.89828
 }
]