[
 {
  "name": "포이로또방",
  "address": "서울 강남구 개포로22길 19 1층",
  "combination": "수동",
  "lat": 37.477764,
  "lng": 127.04852
 },
 {
  "name": "인터넷 복권판매사이트",
  "address": "동행복권(dhlottery.co.kr)",
  "combination": "자동",
  "lat": 37.482063,
  "lng": 127.015785
 },
 {
  "name": "어머화장품",
  "address": "서울 송파구 가락로11길 19",
  "combination": "자동",
  "lat": 37.502045,
  "lng": 127.10405
 },
 {
  "name": "현대슈퍼",
  "address": "서울 중랑구 봉우재로 203-1,(망우동)",
  "combination": "자동",
  "lat": 37.5948,
  "lng": 127.095276
 },
 {
  "name": "삼각R복권방",
  "address": "대구 남구 현충로 221 솔내음발연구소 내",
  "combination": "수동",
  "lat": 35.85148,
  "lng": 128.58163
 },
 {
  "name": "삼각R복권방",
  "address": "대구 남구 현충로 221 솔내음발연구소 내",
  "combination": "수동",
  "lat": 35.85148,
  "lng": 128.58163
 },
 {
  "name": "드림월드복권",
  "address": "인천 남동구 만수로27번길 3",
  "combination": "자동",
  "lat": 37.45943,
  "lng": 126.73148
 },
 {
  "name": "로또대박",
  "address": "세종  장척로 571",
  "combination": "자동",
  "lat": 37.499294,
  "lng": 127.22131
 },
 {
  "name": "현대25시편의점",
  "address": "경기 고양시 일산서구 경의로 914",
  "combination": "자동",
  "lat": 37.69899,
  "lng": 126.75953
 },
 {
  "name": "대박찬스",
  "address": "충북 청주시 흥덕구 가경로161번길 3",
  "combination": "자동",
  "lat": 36.628975,
  "lng": 127.43644
 },
 {
  "name": "노형로또마트",
  "address": "제주 제주시 수덕로 6",
  "combination": "자동",
  "lat": 33.488564,
  "lng": 126.47531
 }
]