[
 {
  "name": "명동역5번출구가판",
  "address": "서울 중구 퇴계로 115",
  "combination": "자동",
  "lat": 37.561043,
  "lng": 126.9845
 },
 {
  "name": "토스터리 아리울",
  "address": "부산 동구 중앙대로286번길 3-1",
  "combination": "자동",
  "lat": 35.12209,
  "lng": 129.04404
 },
 {
  "name": "행운복권방",
  "address": "부산 부산진구 냉정로 273",
  "combination": "수동",
  "lat": 35.15128,
  "lng": 129.02971
 },
 {
  "name": "대원슈퍼마켓",
  "address": "부산 수영구 수영로 524",
  "combination": "자동",
  "lat": 35.152473,
  "lng": 129.112
 },
 {
  "name": "금강복권",
  "address": "경기 김포시 율생로 3",
  "combination": "자동",
  "lat": 37.652786,
  "lng": 126.59066
 },
 {
  "name": "일등복권",
  "address": "경기 성남시 분당구 성남대로331번길 3-3 110호 (정자동, 젤존타워3)",
  "combination": "수동",
  "lat": 37.365532,
  "lng": 127.107735
 },
 {
  "name": "비나리",
  "address": "경기 수원시 권선구 금호로 67 (금곡동)",
  "combination": "자동",
  "lat": 37.2703,
  "lng": 126.95861
 },
 {
  "name": "서부역지점",
  "address": "경기 평택시 원평로 55 1층",
  "combination": "자동",
  "lat": 36.990517,
  "lng": 127.08355
 },
 {
  "name": "향남복권",
  "address": "경기 화성시 행정서로1길 30",
  "combination": "수동",
  "lat": 37.127228,
  "lng": 126.91468
 },
 {
  "name": "거두리복권방",
  "address": "강원 춘천시 거두택지길 25 부영아파트 부영아파트제상가1-102호",
  "combination": "자동",
  "lat": 37.854225,
  "lng": 127.753395
 },
 {
  "name": "황금손복권판매점",
  "address": "전북 전주시 완산구 어은로 9 1층",
  "combination": "자동",
  "lat": 35.816734,
  "lng": 127.124146
 },
 {
  "name": "파워할인마트",
  "address": "경북 김천시 자산로 44-2 1층 파워할인마트내",
  "combination": "자동",
  "lat": 36.119797,
  "lng": 128.12686
 },
 {
  "name": "삼정상회",
  "address": "경남 김해시 활천로 23 가동 109호 복권판매점",
  "combination": "수동",
  "lat": 35.22994,
  "lng": 128.89351
 },
 {
  "name": "부강 돈벼락",
  "address": "경남 양산시 물금로 41 양산물금양우내안애5차리버파크 상가108호 양우대산부동산 내",
  "combination": "수동",
  "lat": 35.309055,
  "lng": 128.9885
 },
 {
  "name": "제주대림점",
  "address": "제주 제주시 과원북2길 48",
  "combination": "자동",
  "lat": 33.478714,
  "lng": 126.487656
 }
]