[
 {
  "name": "인터넷 복권판매사이트",
  "address": "동행복권(dhlottery.co.kr)",
  "combination": "자동",
  "lat": 37.482063,
  "lng": 127.015785
 },
 {
  "name": "지에스25 신매태왕점로또",
  "address": "대구 수성구 욱수천로 70 편의점_GS25",
  "combination": "자동",
  "lat": 35.83531,
  "lng": 128.7119
 },
 {
  "name": "한꿈복권방",
  "address": "울산 중구 번영로 586",
  "combination": "자동",
  "lat": 35.568794,
  "lng": 129.34589
 },
 {
  "name": "복권 판매점",
  "address": "경기 구리시 안골로 103",
  "combination": "자동",
  "lat": 37.59766,
  "lng": 127.14259
 },
 {
  "name": "로또25시",
  "address": "경기 수원시 권선구 금곡로102번길 15 비즈웍스 비즈웍스 111호",
  "combination": "수동",
  "lat": 37.27328,
  "lng": 126.94183
 },
 {
  "name": "춘향로또",
  "address": "전북 남원시 동림로 102-1",
  "combination": "수동",
  "lat": 35.41707,
  "lng": 127.384926
 },
 {
  "name": "대박복권방",
  "address": "경북 구미시 인동36길 34",
  "combination": "자동",
  "lat": 36.091812,
  "lng": 128.43137
 },
 {
  "name": "억만금로또복권",
  "address": "경남 사천시 주공로 60 용강현대아파트 현대상가 1동 101호",
  "combination": "자동",
  "lat": 34.943863,
  "lng": 128.08817
 }
]