[
 {
  "name": "버스카드판매대",
  "address": "서울 관악구 신림로 145-2",
  "combination": "자동",
  "lat": 37.47187,
  "lng": 126.93328
 },
 {
  "name": "지에스(GS)25대전코젤점",
  "address": "대전 유성구 계백로 927 코젤병원 1층 GS25편의점",
  "combination": "자동",
  "lat": 36.301296,
  "lng": 127.3266
 },
 {
  "name": "복권나라",
  "address": "경기 수원시 장안구 장안로 288 수단란주점 1층",
  "combination": "수동",
  "lat": 37.307373,
  "lng": 126.9903
 },
 {
  "name": "오뚜기로또",
  "address": "경기 안산시 단원구 원초로 30 보성프라자 143호",
  "combination": "수동",
  "lat": 37.328346,
  "lng": 126.80174
 },
 {
  "name": "J마트",
  "address": "경기 안양시 만안구 안양로 145-1",
  "combination": "수동",
  "lat": 37.387325,
  "lng": 126.93058
 },
 {
  "name": "규암복권판매점",
  "address": "충남 부여군 자온로 61",
  "combination": "자동",
  "lat": 36.274117,
  "lng": 126.8867
 },
 {
  "name": "노다지복권방",
  "address": "충남 천안시 동남구 원성천1길 151 2호",
  "combination": "자동",
  "lat": 36.808594,
  "lng": 127.1619
 },
 {
  "name": "좋은사람들로또",
  "address": "전남 보성군 현충로 85",
  "combination": "수동",
  "lat": 34.76743,
  "lng": 127.081055
 },
 {
  "name": "돈벼락맞는곳",
  "address": "경남 김해시 김해대로 2793 복권판매점",
  "combination": "자동",
  "lat": 35.222202,
  "lng": 128.92828
 },
 {
  "name": "희망슈퍼",
  "address": "경남 창원시 의창구 원이대로279번길 17",
  "combination": "수동",
  "lat": 35.244057,
  "lng": 128.65157
 },
 {
  "name": "동홍코사마트",
  "address": "제주 서귀포시 동홍북로 10 동홍코사마트 동홍코사마트내",
  "combination": "자동",
  "lat": 33.259064,
  "lng": 126.569405
 }
]