[
 {
  "name": "복권천하",
  "address": "서울 강북구 월계로7나길 23,(미아동)",
  "combination": "자동",
  "lat": 37.61254,
  "lng": 127.0325
 },
 {
  "name": "노다지",
  "address": "서울 동대문구 한천로 55",
  "combination": "자동",
  "lat": 37.566845,
  "lng": 127.061806
 },
 {
  "name": "세계로생활가전",
  "address": "서울 동작구 보라매로 104 1층",
  "combination": "수동",
  "lat": 37.49841,
  "lng": 126.9283
 },
 {
  "name": "복권천국",
  "address": "서울 서초구 서초대로 97 1층",
  "combination": "자동",
  "lat": 37.48771,
  "lng": 126.99283
 },
 {
  "name": "인터넷 복권판매사이트",
  "address": "동행복권(dhlottery.co.kr)",
  "combination": "자동",
  "lat": 37.482063,
  "lng": 127.015785
 },
 {
  "name": "종국이두마리치킨불로점",
  "address": "대구 동구 팔공로30길 6",
  "combination": "자동",
  "lat": 35.91149,
  "lng": 128.6418
 },
 {
  "name": "이마트24 대구북구매천점",
  "address": "대구 북구 매전로4길 22 1층(매천동)",
  "combination": "자동",
  "lat": 36.90677,
  "lng": 128.5432
 },
 {
  "name": "명당로또",
  "address": "울산 남구 팔등로 65",
  "combination": "자동",
  "lat": 35.545662,
  "lng": 129.31345
 },
 {
  "name": "명당슈퍼",
  "address": "경기 수원시 영통구 중부대로 285 김환규산부인과",
  "combination": "자동",
  "lat": 37.273994,
  "lng": 127.047226
 },
 {
  "name": "천하명당",
  "address": "경기 평택시 탄현로 224",
  "combination": "자동",
  "lat": 37.07261,
  "lng": 127.05525
 },
 {
  "name": "복권명당",
  "address": "충남 공주시 번영1로 41",
  "combination": "자동",
  "lat": 36.471832,
  "lng": 127.13313
 },
 {
  "name": "차암일등로또",
  "address": "충남 천안시 서북구 밤개울1길 1-5",
  "combination": "자동",
  "lat": 36.840473,
  "lng": 127.10137
 },
 {
  "name": "로또복권판매점",
  "address": "전북 남원시 가방뜰길 57 금동휴먼시아 상가",
  "combination": "자동",
  "lat": 35.40019,
  "lng": 127.36926
 }
]