[
 {
  "name": "삼성마트",
  "address": "서울 강남구 선릉로 628",
  "combination": "자동",
  "lat": 37.512646,
  "lng": 127.043304
 },
 {
  "name": "스파",
  "address": "서울 노원구 동일로 1493 상계주공아파트(10단지) 주공10단지종합상가111",
  "combination": "자동",
  "lat": 37.66166,
  "lng": 127.05787
 },
 {
  "name": "가로가판대제57호(구)",
  "address": "서울 중구 세종대로14길 6-2",
  "combination": "자동",
  "lat": 37.562904,
  "lng": 126.97705
 },
 {
  "name": "부일카서비스",
  "address": "부산 동구 자성로133번길 35",
  "combination": "자동",
  "lat": 35.140015,
  "lng": 129.06306
 },
 {
  "name": "장원로또",
  "address": "경기 수원시 영통구 중부대로246번길 10 1층 3호",
  "combination": "자동",
  "lat": 37.27466,
  "lng": 127.04233
 }
]