[
 {
  "name": "서울구가-17가판",
  "address": "서울 구로구 구로동로 130-2 구로4동우체국앞가판",
  "combination": "자동",
  "lat": 37.490326,
  "lng": 126.88439
 },
 {
  "name": "가로판매점",
  "address": "서울 용산구 한강대로 114 신용산역 1번출구앞 가판",
  "combination": "수동",
  "lat": 37.530006,
  "lng": 126.96817
 },
 {
  "name": "갈렙분식한식",
  "address": "서울 중랑구 용마산로115길 92",
  "combination": "수동",
  "lat": 37.59823,
  "lng": 127.09528
 },
 {
  "name": "현대슈퍼",
  "address": "광주 서구 상무대로 871",
  "combination": "수동",
  "lat": 35.150524,
  "lng": 126.857315
 },
 {
  "name": "가판점",
  "address": "경기 부천시 부일로459번길 8 국민은행버스정류장 옆 가판",
  "combination": "자동",
  "lat": 37.48641,
  "lng": 126.78152
 },
 {
  "name": "금곡로",
  "address": "경기 수원시 권선구 금곡로197번길 18-23 해피라움블루 105호(금곡동, 해피라움블루)",
  "combination": "자동",
  "lat": 37.27511,
  "lng": 126.95279
 },
 {
  "name": "로또복권방",
  "address": "충남 천안시 서북구 쌍용대로 190 상가3호",
  "combination": "반자동",
  "lat": 36.8143,
  "lng": 127.13485
 },
 {
  "name": "행운플러스",
  "address": "전북 전주시 덕진구 송천로 1",
  "combination": "수동",
  "lat": 35.85346,
  "lng": 127.11937
 },
 {
  "name": "드림마트",
  "address": "경남 김해시 인제로170번길 15-6 씨스페이스편의점 내",
  "combination": "자동",
  "lat": 35.24405,
  "lng": 128.9058
 },
 {
  "name": "스마일",
  "address": "경남 양산시 북안남4길 2 복권판매점",
  "combination": "반자동",
  "lat": 35.34539,
  "lng": 129.0383
 }
]