[
 {
  "name": "오렌지데이편의점",
  "address": "부산 해운대구 좌동순환로249번길 11 르네상스오피스102호",
  "combination": "수동",
  "lat": 35.173973,
  "lng": 129.1815
 },
 {
  "name": "복권명당(영남점)",
  "address": "대구 달서구 월배로 122,(진천동)",
  "combination": "수동",
  "lat": 35.814716,
  "lng": 128.52782
 },
 {
  "name": "1등로또방",
  "address": "광주 동구 중앙로 249-2",
  "combination": "자동",
  "lat": 35.15431,
  "lng": 126.92017
 },
 {
  "name": "오천억복권방",
  "address": "광주 서구 상무대로 1087",
  "combination": "자동",
  "lat": 35.15296,
  "lng": 126.880745
 },
 {
  "name": "돈방석",
  "address": "경기 수원시 장안구 송정로 170 1층 101호(조원동)",
  "combination": "수동",
  "lat": 37.29805,
  "lng": 127.01531
 },
 {
  "name": "복권천국",
  "address": "전남 여수시 선소로 62 부영아파트상가4동1-2호",
  "combination": "수동",
  "lat": 34.75757,
  "lng": 127.667564
 },
 {
  "name": "큐마트학동점로또",
  "address": "전남 여수시 학동서5길 2 큐마트내",
  "combination": "수동",
  "lat": 34.761883,
  "lng": 127.65653
 },
 {
  "name": "부강 돈벼락",
  "address": "경남 양산시 물금로 41 양산물금양우내안애5차리버파크 상가108호 양우대산부동산 내",
  "combination": "자동",
  "lat": 35.309055,
  "lng": 128.9885
 }
]