[
 {
  "name": "미나식품(로또판매점)",
  "address": "서울 강서구 금낭화로 91-12",
  "combination": "수동",
  "lat": 37.5735,
  "lng": 126.81066
 },
 {
  "name": "장수복권",
  "address": "서울 관악구 난곡로 223 1층",
  "combination": "수동",
  "lat": 37.47412,
  "lng": 126.91699
 },
 {
  "name": "Today",
  "address": "서울 광진구 광나루로56길 85 테크노마트9층판매동24호",
  "combination": "수동",
  "lat": 37.53569,
  "lng": 127.09574
 },
 {
  "name": "종합가판점",
  "address": "서울 동대문구 왕산로40길 6 건물 앞쪽 가판점 청량리역 5번출구 앞쪽",
  "combination": "수동",
  "lat": 37.579697,
  "lng": 127.04497
 },
 {
  "name": "인터넷 복권판매사이트",
  "address": "동행복권(dhlottery.co.kr)",
  "combination": "수동",
  "lat": 37.482063,
  "lng": 127.015785
 },
 {
  "name": "인터넷 복권판매사이트",
  "address": "동행복권(dhlottery.co.kr)",
  "combination": "수동",
  "lat": 37.482063,
  "lng": 127.015785
 },
 {
  "name": "인터넷 복권판매사이트",
  "address": "동행복권(dhlottery.co.kr)",
  "combination": "수동",
  "lat": 37.482063,
  "lng": 127.015785
 },
 {
  "name": "인터넷 복권판매사이트",
  "address": "동행복권(dhlottery.co.kr)",
  "combination": "수동",
  "lat": 37.482063,
  "lng": 127.015785
 },
 {
  "name": "인터넷 복권판매사이트",
  "address": "동행복권(dhlottery.co.kr)",
  "combination": "수동",
  "lat": 37.482063,
  "lng": 127.015785
 },
 {
  "name": "인터넷 복권판매사이트",
  "address": "동행복권(dhlottery.co.kr)",
  "combination": "수동",
  "lat": 37.482063,
  "lng": 127.015785
 },
 {
  "name": "잠실매점",
  "address": "서울 송파구 올림픽로 269 잠실역 8번출구 앞 가판",
  "combination": "수동",
  "lat": 37.514446,
  "lng": 127.10071
 },
 {
  "name": "우리마트",
  "address": "서울 중구 창경궁로 11",
  "combination": "수동",
  "lat": 37.563187,
  "lng": 126.99816
 },
 {
  "name": "신간판",
  "address": "서울 중구 무교로 24",
  "combination": "수동",
  "lat": 37.568092,
  "lng": 126.979454
 },
 {
  "name": "빅세일복권방",
  "address": "부산 부산진구 서면문화로 6",
  "combination": "수동",
  "lat": 35.158302,
  "lng": 129.05809
 },
 {
  "name": "청솔서점",
  "address": "부산 사하구 하신번영로 195",
  "combination": "수동",
  "lat": 35.098824,
  "lng": 128.95897
 },
 {
  "name": "플러스로또",
  "address": "대구 달서구 월곡로45길 56,(상인동)",
  "combination": "수동",
  "lat": 35.81329,
  "lng": 128.53883
 },
 {
  "name": "로또명당",
  "address": "인천 남동구 호구포로 874",
  "combination": "반자동",
  "lat": 37.460365,
  "lng": 126.720314
 },
 {
  "name": "대박스타",
  "address": "인천 미추홀구 경인로 348 1층",
  "combination": "수동",
  "lat": 37.458347,
  "lng": 126.678635
 },
 {
  "name": "무판안경시청점",
  "address": "울산 남구 중앙로 210-1",
  "combination": "수동",
  "lat": 35.53983,
  "lng": 129.31253
 },
 {
  "name": "광명24시편의점",
  "address": "울산 동구 방어진순환도로 945",
  "combination": "반자동",
  "lat": 35.525547,
  "lng": 129.4329
 },
 {
  "name": "복권방",
  "address": "울산 울주군 덕남로 87",
  "combination": "자동",
  "lat": 35.454807,
  "lng": 129.28966
 },
 {
  "name": "경은 로또 판매점",
  "address": "울산 중구 태화로 37 1층",
  "combination": "수동",
  "lat": 35.554806,
  "lng": 129.2803
 },
 {
  "name": "다정로또복권",
  "address": "세종   다정중앙로 52",
  "combination": "자동",
  "lat": 36.49494,
  "lng": 127.24923
 },
 {
  "name": "대박복권판매점",
  "address": "경기 김포시 김포한강11로140번길 8-12 102호",
  "combination": "수동",
  "lat": 37.646435,
  "lng": 126.68178
 },
 {
  "name": "오남 로또택배",
  "address": "경기 남양주시 진건오남로 814 B동 1층 5호",
  "combination": "수동",
  "lat": 37.69933,
  "lng": 127.20243
 },
 {
  "name": "팡팡마트",
  "address": "경기 남양주시 진건오남로522번길 3 102호",
  "combination": "수동",
  "lat": 37.6803,
  "lng": 127.21044
 },
 {
  "name": "또와또복권",
  "address": "경기 성남시 수정구 수정로 215 왼쪽2호 (태평동)",
  "combination": "수동",
  "lat": 37.44476,
  "lng": 127.143394
 },
 {
  "name": "크로바쉼터",
  "address": "경기 성남시 수정구 대왕판교로 1289 1층 5호",
  "combination": "수동",
  "lat": 37.45513,
  "lng": 127.10651
 },
 {
  "name": "따따블 대박로또",
  "address": "경기 시흥시 서울대학로278번길 26 109호",
  "combination": "수동",
  "lat": 37.368885,
  "lng": 126.72809
 },
 {
  "name": "머니머니",
  "address": "경기 시흥시 월곶중앙로14번길 100",
  "combination": "자동",
  "lat": 37.394455,
  "lng": 126.739426
 },
 {
  "name": "로또복권",
  "address": "경기 오산시 성호새싹길 11",
  "combination": "수동",
  "lat": 37.14982,
  "lng": 127.06984
 },
 {
  "name": "대박로또",
  "address": "경기 용인시 기흥구 신갈로 32",
  "combination": "자동",
  "lat": 37.269398,
  "lng": 127.10585
 },
 {
  "name": "노다지복권방",
  "address": "경기 용인시 처인구 금령로 130",
  "combination": "자동",
  "lat": 37.23509,
  "lng": 127.2105
 },
 {
  "name": "행운복권방",
  "address": "경기 포천시 솔모루로 86-1",
  "combination": "수동",
  "lat": 37.8288,
  "lng": 127.14748
 },
 {
  "name": "서해로또방",
  "address": "경기 화성시 화성로 1471",
  "combination": "수동",
  "lat": 37.223217,
  "lng": 126.84257
 },
 {
  "name": "드림 복권방",
  "address": "경기 화성시 효행로 216 1층",
  "combination": "수동",
  "lat": 37.228382,
  "lng": 126.970924
 },
 {
  "name": "황금복권방",
  "address": "강원 인제군 인제로 232",
  "combination": "수동",
  "lat": 38.070526,
  "lng": 128.17557
 },
 {
  "name": "사내로또",
  "address": "강원 화천군 문화마을1길 113 1층",
  "combination": "수동",
  "lat": 38.06776,
  "lng": 127.52292
 },
 {
  "name": "행운복권방",
  "address": "충북 청주시 상당구 단재로 119,(영운동)",
  "combination": "수동",
  "lat": 36.618725,
  "lng": 127.49801
 },
 {
  "name": "행운복권방",
  "address": "충북 청주시 상당구 단재로 119,(영운동)",
  "combination": "수동",
  "lat": 36.618725,
  "lng": 127.49801
 },
 {
  "name": "로또매점",
  "address": "충남 당진시 송산로 723",
  "combination": "수동",
  "lat": 36.953873,
  "lng": 126.68932
 },
 {
  "name": "1등명당",
  "address": "충남 서천군 장항로 220",
  "combination": "수동",
  "lat": 36.00986,
  "lng": 126.70148
 },
 {
  "name": "1등명당",
  "address": "충남 서천군 장항로 220",
  "combination": "수동",
  "lat": 36.00986,
  "lng": 126.70148
 },
 {
  "name": "1등명당",
  "address": "충남 서천군 장항로 220",
  "combination": "수동",
  "lat": 36.00986,
  "lng": 126.70148
 },
 {
  "name": "남원복권방",
  "address": "전북 남원시 남문로 414",
  "combination": "자동",
  "lat": 35.406384,
  "lng": 127.37658
 },
 {
  "name": "대박찬스",
  "address": "전북 정읍시 관통로 59",
  "combination": "수동",
  "lat": 35.561882,
  "lng": 126.85863
 },
 {
  "name": "광양복권나라(로터리)",
  "address": "전남 광양시 백운로 1",
  "combination": "수동",
  "lat": 34.971252,
  "lng": 127.58985
 },
 {
  "name": "복받는날",
  "address": "경북 포항시 북구 삼흥로 64",
  "combination": "수동",
  "lat": 36.06761,
  "lng": 129.37898
 },
 {
  "name": "스마일",
  "address": "경남 양산시 북안남4길 2 복권판매점",
  "combination": "수동",
  "lat": 35.34539,
  "lng": 129.0383
 },
 {
  "name": "범어로또판매점",
  "address": "경남 양산시 목화로 52 좌측 복권판매점",
  "combination": "수동",
  "lat": 35.331547,
  "lng": 129.0016
 }
]