[
 {
  "name": "고덕로또복권",
  "address": "서울 강동구 상일로15길 18 1층",
  "combination": "자동",
  "lat": 37.557686,
  "lng": 127.17006
 },
 {
  "name": "오케이상사",
  "address": "서울 서초구 신반포로 176 센트럴시티내100호매점",
  "combination": "자동",
  "lat": 37.504353,
  "lng": 127.00359
 },
 {
  "name": "복권 아이스크림",
  "address": "서울 송파구 위례광장로 188 101호",
  "combination": "자동",
  "lat": 37.481083,
  "lng": 127.142365
 },
 {
  "name": "제이복권방",
  "address": "서울 종로구 종로 225-1 평창빌딩 1층 103호",
  "combination": "자동",
  "lat": 37.571293,
  "lng": 127.00283
 },
 {
  "name": "을지상회",
  "address": "서울 중구 장충단로13길 43 동화연쇄상가1층특3",
  "combination": "자동",
  "lat": 37.568165,
  "lng": 127.00592
 },
 {
  "name": "이마트24침산명성점",
  "address": "대구 북구 침산로 153 명성푸르지오 상가 103동 B2호",
  "combination": "자동",
  "lat": 35.889423,
  "lng": 128.59015
 },
 {
  "name": "충남상회",
  "address": "인천 미추홀구 석정로 78 10호",
  "combination": "자동",
  "lat": 37.466232,
  "lng": 126.64562
 },
 {
  "name": "진플러스안경",
  "address": "대전 중구 대종로 301-1",
  "combination": "자동",
  "lat": 36.3128,
  "lng": 127.43504
 },
 {
  "name": "행운대박복권방",
  "address": "경기 남양주시 광릉내로 17",
  "combination": "자동",
  "lat": 37.742252,
  "lng": 127.19782
 },
 {
  "name": "주택복권방",
  "address": "경기 안양시 동안구 흥안대로145번길 77 77",
  "combination": "자동",
  "lat": 37.374123,
  "lng": 126.95816
 },
 {
  "name": "포유25다농점",
  "address": "경기 오산시  운천로 80-5 거성그린프라자114호",
  "combination": "자동",
  "lat": 37.149662,
  "lng": 127.0754
 },
 {
  "name": "민속촌삼거리 행운복권방",
  "address": "경기 용인시 기흥구 용구대로 1869",
  "combination": "수동",
  "lat": 37.25497,
  "lng": 127.1047
 },
 {
  "name": "광포로또복권",
  "address": "경북 울진군 죽변북로 154",
  "combination": "자동",
  "lat": 37.06768,
  "lng": 129.41031
 }
]