[
 {
  "name": "황금대박점",
  "address": "서울 노원구 공릉로 328,(하계동)",
  "combination": "자동",
  "lat": 37.63598,
  "lng": 127.07099
 },
 {
  "name": "대만상사",
  "address": "서울 성북구 보국문로11길 30",
  "combination": "자동",
  "lat": 37.608795,
  "lng": 127.008354
 },
 {
  "name": "G마트",
  "address": "서울 영등포구 디지털로 387",
  "combination": "자동",
  "lat": 37.491634,
  "lng": 126.902115
 },
 {
  "name": "야단법석",
  "address": "대구 북구 호암로 20 123동112호(성광우방상가 내)",
  "combination": "자동",
  "lat": 35.88199,
  "lng": 128.59221
 },
 {
  "name": "유연마트",
  "address": "대전 동구 계족로 88",
  "combination": "자동",
  "lat": 36.32213,
  "lng": 127.4451
 },
 {
  "name": "대운복권",
  "address": "경기 성남시 중원구 성남대로 1149",
  "combination": "자동",
  "lat": 37.432377,
  "lng": 127.12866
 },
 {
  "name": "스타복권방",
  "address": "충남 논산시 안심로 72",
  "combination": "수동",
  "lat": 36.127453,
  "lng": 127.09938
 },
 {
  "name": "오복로또",
  "address": "충남 부여군 성흥로 178",
  "combination": "자동",
  "lat": 36.18377,
  "lng": 126.89627
 },
 {
  "name": "로또명당인주점",
  "address": "충남 아산시 서해로 519-2",
  "combination": "자동",
  "lat": 36.87784,
  "lng": 126.89828
 },
 {
  "name": "롯데마트",
  "address": "전북 군산시 하나운로 43",
  "combination": "자동",
  "lat": 35.963455,
  "lng": 126.69942
 },
 {
  "name": "불타는복권",
  "address": "경북 영주시 기주로 84",
  "combination": "자동",
  "lat": 36.86992,
  "lng": 128.52666
 },
 {
  "name": "목화휴게소",
  "address": "경남 사천시 사천대로 912",
  "combination": "자동",
  "lat": 35.0018,
  "lng": 128.05415
 }
]