[
 {
  "name": "오로라복권방",
  "address": "서울 광진구 뚝섬로 625 국민은행자양동지점 50m",
  "combination": "수동",
  "lat": 37.532303,
  "lng": 127.0791
 },
 {
  "name": "광장하이퍼",
  "address": "서울 구로구 경인로53길 15 중앙유통단지C-05",
  "combination": "자동",
  "lat": 37.500893,
  "lng": 126.874565
 },
 {
  "name": "아이마트",
  "address": "대전 서구 둔산로 230",
  "combination": "수동",
  "lat": 36.351067,
  "lng": 127.399605
 },
 {
  "name": "(I.A) 로또마트",
  "address": "경기 안산시 단원구 신길로 9-4",
  "combination": "자동",
  "lat": 37.33149,
  "lng": 126.78637
 },
 {
  "name": "협신복권방",
  "address": "경기 여주시 도예로 28 CU편의점내",
  "combination": "자동",
  "lat": 37.306477,
  "lng": 127.640015
 },
 {
  "name": "서해로또방",
  "address": "경기 화성시 화성로 1471",
  "combination": "자동",
  "lat": 37.223217,
  "lng": 126.84257
 },
 {
  "name": "운수대통복권방",
  "address": "충남 천안시 동남구 대흥로 122 중앙시장 입구",
  "combination": "자동",
  "lat": 36.80049,
  "lng": 127.14926
 },
 {
  "name": "복권판매점",
  "address": "전남 광양시 용강로 35",
  "combination": "반자동",
  "lat": 34.972713,
  "lng": 127.608406
 },
 {
  "name": "돈방석(로또)",
  "address": "경남 사천시 사천대로 1791",
  "combination": "자동",
  "lat": 35.07639,
  "lng": 128.08182
 }
]