[
 {
  "name": "로또 光복권",
  "address": "서울 구로구 개봉로23가길 37",
  "combination": "자동",
  "lat": 37.495296,
  "lng": 126.85847
 },
 {
  "name": "CU(남가좌현대점)",
  "address": "서울 서대문구 가재울로 46",
  "combination": "자동",
  "lat": 37.5752,
  "lng": 126.92181
 },
 {
  "name": "천하명당로또복권",
  "address": "서울 서대문구 세무서길 12",
  "combination": "수동",
  "lat": 37.588524,
  "lng": 126.94564
 },
 {
  "name": "제일복권",
  "address": "부산 서구 충무대로 35-1 1층 복권방",
  "combination": "자동",
  "lat": 35.078842,
  "lng": 129.01659
 },
 {
  "name": "대박명당",
  "address": "울산 남구 중앙로 154",
  "combination": "자동",
  "lat": 35.53496,
  "lng": 129.31442
 },
 {
  "name": "희망복권",
  "address": "경기 시흥시 월곶중앙로14번길 68 1동 104호",
  "combination": "자동",
  "lat": 37.392128,
  "lng": 126.74172
 },
 {
  "name": "열두보석복권방",
  "address": "경기 용인시 기흥구 구갈로 74 구갈스포츠센타 구갈스포츠센터106호",
  "combination": "자동",
  "lat": 37.281136,
  "lng": 127.11181
 },
 {
  "name": "CU노서점",
  "address": "경북 경주시 금성로259번길 38 1층 CU 노서점 내",
  "combination": "자동",
  "lat": 35.841015,
  "lng": 129.20303
 }
]