[
 {
  "name": "자양사거리가로매점",
  "address": "서울 광진구 자양로 95",
  "combination": "자동",
  "lat": 37.536224,
  "lng": 127.0832
 },
 {
  "name": "GS25궁동상지점",
  "address": "서울 구로구 부일로15길 29",
  "combination": "자동",
  "lat": 37.494125,
  "lng": 126.832985
 },
 {
  "name": "금정복권방",
  "address": "서울 도봉구 해등로 168 1층",
  "combination": "자동",
  "lat": 37.657394,
  "lng": 127.03796
 },
 {
  "name": "씨스페이스 범어사역점",
  "address": "부산 금정구 중앙대로 2097 1층",
  "combination": "자동",
  "lat": 35.27163,
  "lng": 129.09242
 },
 {
  "name": "수퍼복권대박",
  "address": "인천 연수구 용담로 60 1층",
  "combination": "자동",
  "lat": 37.418648,
  "lng": 126.67362
 },
 {
  "name": "운수대통",
  "address": "광주 광산구 어등대로 581-1 1층 운수대통",
  "combination": "자동",
  "lat": 35.15126,
  "lng": 126.786285
 },
 {
  "name": "서민",
  "address": "경기 광주시 무들로 211",
  "combination": "수동",
  "lat": 37.37987,
  "lng": 127.30572
 },
 {
  "name": "서민",
  "address": "경기 광주시 무들로 211",
  "combination": "수동",
  "lat": 37.37987,
  "lng": 127.30572
 },
 {
  "name": "지엘복권 및 위로마트",
  "address": "경기 김포시 김포한강4로 571 1층 110호",
  "combination": "자동",
  "lat": 37.644848,
  "lng": 126.62036
 },
 {
  "name": "천운",
  "address": "경기 의정부시 문충로  110 ,106호(고산동,백봉프라자)",
  "combination": "자동",
  "lat": 37.73013,
  "lng": 127.10641
 },
 {
  "name": "OK편의점",
  "address": "경기 이천시 중리천로 56",
  "combination": "자동",
  "lat": 37.279842,
  "lng": 127.44385
 },
 {
  "name": "복권하우스",
  "address": "경기 평택시 송탄로 369-1 1층",
  "combination": "자동",
  "lat": 37.07642,
  "lng": 127.05769
 },
 {
  "name": "삼팔로또",
  "address": "충남 서천군 서천읍 충절로 34",
  "combination": "자동",
  "lat": 36.075367,
  "lng": 126.68638
 },
 {
  "name": "태안로또복권방",
  "address": "충남 태안군 독샘로 57",
  "combination": "자동",
  "lat": 36.75318,
  "lng": 126.29935
 },
 {
  "name": "진빈레코드",
  "address": "경남 밀양시 북성로 7",
  "combination": "자동",
  "lat": 35.498558,
  "lng": 128.74329
 }
]