[
 {
  "name": "인터넷 복권판매사이트",
  "address": "동행복권(dhlottery.co.kr)",
  "combination": "수동",
  "lat": 37.482063,
  "lng": 127.015785
 },
 {
  "name": "골든티켓",
  "address": "인천 남동구 만수서로 23 101호",
  "combination": "자동",
  "lat": 37.46084,
  "lng": 126.72893
 },
 {
  "name": "행복충전소",
  "address": "경기 평택시 탄현로 332-2",
  "combination": "수동",
  "lat": 37.0818,
  "lng": 127.05637
 },
 {
  "name": "나눔로또판매점희망엄사점",
  "address": "충남 계룡시 엄사중앙로 11",
  "combination": "자동",
  "lat": 36.281937,
  "lng": 127.23905
 },
 {
  "name": "큰별복권판매점",
  "address": "충남 논산시 중앙로 318",
  "combination": "자동",
  "lat": 36.19416,
  "lng": 127.094696
 },
 {
  "name": "왕대박복권",
  "address": "충남 논산시 연산면 계백로 1853 편의점",
  "combination": "자동",
  "lat": 36.21237,
  "lng": 127.17872
 },
 {
  "name": "부안복권방",
  "address": "전북 부안군 부안읍 번영로 135",
  "combination": "자동",
  "lat": 35.72623,
  "lng": 126.73543
 },
 {
  "name": "팡팡복권마트.잡화슈퍼",
  "address": "전북 전주시 덕진구 가리내로 26",
  "combination": "자동",
  "lat": 35.834366,
  "lng": 127.13327
 },
 {
  "name": "로또명당",
  "address": "전남 해남군 우수영로 1",
  "combination": "자동",
  "lat": 34.596703,
  "lng": 126.31274
 },
 {
  "name": "럭키",
  "address": "경남 진주시 하대로 138 상가동 103호",
  "combination": "수동",
  "lat": 35.193367,
  "lng": 128.1268
 }
]