[
 {
  "name": "복권세계",
  "address": "서울 구로구 우마길 4",
  "combination": "자동",
  "lat": 37.48224,
  "lng": 126.887436
 },
 {
  "name": "오성할인마트",
  "address": "서울 도봉구 도봉로 505,(쌍문동)",
  "combination": "자동",
  "lat": 37.65071,
  "lng": 127.03558
 },
 {
  "name": "노다지복권방",
  "address": "서울 동대문구 한빛로 1-1,(신설동)",
  "combination": "자동",
  "lat": 37.57634,
  "lng": 127.02392
 },
 {
  "name": "인터넷 복권판매사이트",
  "address": "동행복권(dhlottery.co.kr)",
  "combination": "수동",
  "lat": 37.482063,
  "lng": 127.015785
 },
 {
  "name": "대지사",
  "address": "서울 성동구 왕십리로 362",
  "combination": "자동",
  "lat": 37.56434,
  "lng": 127.03028
 },
 {
  "name": "크로바쎄븐",
  "address": "서울 송파구 법원로11길 7 문정현대지식산업센터1-2 1층 128호",
  "combination": "자동",
  "lat": 37.485355,
  "lng": 127.119225
 },
 {
  "name": "더디씨 신월점",
  "address": "서울 양천구 남부순환로 516",
  "combination": "자동",
  "lat": 37.522324,
  "lng": 126.83646
 },
 {
  "name": "로또킹",
  "address": "서울 영등포구 영중로 2 1층(영등포동3가)",
  "combination": "자동",
  "lat": 37.516743,
  "lng": 126.906746
 },
 {
  "name": "GS25(명륜성대점)",
  "address": "서울 종로구 명륜길 2",
  "combination": "자동",
  "lat": 37.587887,
  "lng": 126.99655
 },
 {
  "name": "돈벼락맞는곳",
  "address": "부산 동구 조방로49번길 18-1",
  "combination": "자동",
  "lat": 35.139168,
  "lng": 129.05995
 },
 {
  "name": "루이방",
  "address": "경기 과천시 중앙로 135-1",
  "combination": "수동",
  "lat": 37.428352,
  "lng": 126.99161
 },
 {
  "name": "로또명당 대박복권방",
  "address": "경기 광명시 소하로 78 109호(소하동, 신성프라자)",
  "combination": "자동",
  "lat": 37.44792,
  "lng": 126.883354
 },
 {
  "name": "로또",
  "address": "경기 구리시 갈매순환로 96 102호(갈매동,오대타워)",
  "combination": "자동",
  "lat": 37.62838,
  "lng": 127.1196
 },
 {
  "name": "역곡역전로또",
  "address": "경기 부천시 경인로 506 가판대",
  "combination": "자동",
  "lat": 37.4839,
  "lng": 126.811646
 },
 {
  "name": "천하명당",
  "address": "경기 시흥시 신천3길 26-1 1층1호",
  "combination": "자동",
  "lat": 37.438892,
  "lng": 126.783295
 },
 {
  "name": "로또스테이션",
  "address": "경기 안산시 단원구 선부광장1로 81 주공15단지아파트 상가동 108호(선부동1080-2)",
  "combination": "자동",
  "lat": 37.33527,
  "lng": 126.81481
 },
 {
  "name": "열두보석복권방",
  "address": "경기 용인시 기흥구 구갈로 74 구갈스포츠센타 구갈스포츠센터106호",
  "combination": "자동",
  "lat": 37.281136,
  "lng": 127.11181
 },
 {
  "name": "한솔제지 오거리로또",
  "address": "충남 천안시 동남구 행정길 9 오리사냥",
  "combination": "자동",
  "lat": 36.68894,
  "lng": 127.15842
 },
 {
  "name": "천하명당",
  "address": "전남 여수시 망마로 107",
  "combination": "자동",
  "lat": 34.757214,
  "lng": 127.67405
 },
 {
  "name": "복권왕국",
  "address": "전남 여수시 화산로 134",
  "combination": "자동",
  "lat": 34.77723,
  "lng": 127.651146
 }
]