[
 {
  "name": "명당복권방",
  "address": "서울 동작구 상도로 281 1층",
  "combination": "수동",
  "lat": 37.50238,
  "lng": 126.94859
 },
 {
  "name": "용꿈돼지꿈",
  "address": "서울 마포구 마포대로 112-5",
  "combination": "자동",
  "lat": 37.544727,
  "lng": 126.95221
 },
 {
  "name": "인터넷 복권판매사이트",
  "address": "동행복권(dhlottery.co.kr)",
  "combination": "수동",
  "lat": 37.482063,
  "lng": 127.015785
 },
 {
  "name": "인터넷 복권판매사이트",
  "address": "동행복권(dhlottery.co.kr)",
  "combination": "수동",
  "lat": 37.482063,
  "lng": 127.015785
 },
 {
  "name": "교통카드판매대",
  "address": "서울 송파구 송파대로28길 27 송파성원쌍떼빌 공영주차장앞가판",
  "combination": "수동",
  "lat": 37.495056,
  "lng": 127.120415
 },
 {
  "name": "코사마트금강점",
  "address": "대구 달서구 용산로 204 1층 코사마트",
  "combination": "반자동",
  "lat": 35.855705,
  "lng": 128.53079
 },
 {
  "name": "대박복권방",
  "address": "대구 북구 옥산로 53,(노원동1가)",
  "combination": "수동",
  "lat": 35.88536,
  "lng": 128.58174
 },
 {
  "name": "복권전문점",
  "address": "인천 부평구 원적로 437",
  "combination": "수동",
  "lat": 37.50383,
  "lng": 126.7151
 },
 {
  "name": "인생로또",
  "address": "울산 북구 천곡남로 33 삼성코아루상가내",
  "combination": "수동",
  "lat": 35.63205,
  "lng": 129.33356
 },
 {
  "name": "복권사랑",
  "address": "경기 가평군 청평중앙로 24 1층 CU청평중앙로점",
  "combination": "자동",
  "lat": 37.736507,
  "lng": 127.41756
 },
 {
  "name": "대박",
  "address": "경기 구리시 안골로103번길 46",
  "combination": "수동",
  "lat": 37.599422,
  "lng": 127.14154
 },
 {
  "name": "로또맛집배은복",
  "address": "경기 김포시 풍무로 121 1층 6호",
  "combination": "반자동",
  "lat": 37.606407,
  "lng": 126.72207
 },
 {
  "name": "김포로또",
  "address": "경기 김포시 돌문로 48 한솔프라자101",
  "combination": "자동",
  "lat": 37.619404,
  "lng": 126.71802
 },
 {
  "name": "여수복권방",
  "address": "경기 성남시 중원구 성남대로997번길 25-9",
  "combination": "자동",
  "lat": 37.418343,
  "lng": 127.12638
 },
 {
  "name": "스피드세븐",
  "address": "경기 화성시 한절이길 15 101호",
  "combination": "자동",
  "lat": 37.11733,
  "lng": 126.91574
 },
 {
  "name": "돈벼락복권",
  "address": "강원 태백시 번영로 356",
  "combination": "자동",
  "lat": 37.171455,
  "lng": 128.99202
 },
 {
  "name": "천하명당",
  "address": "전남 여수시 망마로 107",
  "combination": "반자동",
  "lat": 34.757214,
  "lng": 127.67405
 },
 {
  "name": "일등복권",
  "address": "경북 칠곡군 동명면 금암중앙길 42,(금암리)",
  "combination": "자동",
  "lat": 35.982574,
  "lng": 128.55367
 },
 {
  "name": "동행복권 진해신항점",
  "address": "경남 창원시 진해구 신항4로 47-26 111호(마린타워)",
  "combination": "자동",
  "lat": 35.086884,
  "lng": 128.81435
 }
]