[
 {
  "name": "월드 복권방",
  "address": "서울 강서구 곰달래로53길 41 1층 102호(화곡동, 재룡빌딩)",
  "combination": "자동",
  "lat": 37.533516,
  "lng": 126.85879
 },
 {
  "name": "헬스프라자",
  "address": "서울 관악구 관악로 184 1층",
  "combination": "수동",
  "lat": 37.48153,
  "lng": 126.95316
 },
 {
  "name": "인터넷 복권판매사이트",
  "address": "동행복권(dhlottery.co.kr)",
  "combination": "자동",
  "lat": 37.482063,
  "lng": 127.015785
 },
 {
  "name": "행운복권방",
  "address": "서울 은평구 서오릉로 10,(녹번동)",
  "combination": "수동",
  "lat": 37.602295,
  "lng": 126.92678
 },
 {
  "name": "송천복권방",
  "address": "부산 해운대구 선수촌로 108",
  "combination": "자동",
  "lat": 35.169605,
  "lng": 129.17772
 },
 {
  "name": "복권왕국",
  "address": "인천 부평구 경인로 931",
  "combination": "자동",
  "lat": 37.487656,
  "lng": 126.72289
 },
 {
  "name": "복권천국",
  "address": "인천 부평구 평천로 306 양영빌딩1층",
  "combination": "자동",
  "lat": 37.51709,
  "lng": 126.72441
 },
 {
  "name": "성호복권방",
  "address": "대전 대덕구 신일동로 1",
  "combination": "자동",
  "lat": 36.444744,
  "lng": 127.40511
 },
 {
  "name": "대박로또복권",
  "address": "경기 김포시 통진읍 김포대로 2449",
  "combination": "자동",
  "lat": 37.696945,
  "lng": 126.577286
 },
 {
  "name": "대박행진 복권랜드",
  "address": "경기 파주시 금빛로 22 금촌프라자107호",
  "combination": "자동",
  "lat": 37.751614,
  "lng": 126.76691
 },
 {
  "name": "CU(제천고암점)",
  "address": "충북 제천시 고암로 69 1층 CU편의점",
  "combination": "자동",
  "lat": 37.157856,
  "lng": 128.21468
 },
 {
  "name": "세븐일레븐 천안메르디앙점",
  "address": "충남 천안시 서북구 성정공원5로 30 105호(세븐일레븐)",
  "combination": "수동",
  "lat": 36.82764,
  "lng": 127.140884
 },
 {
  "name": "포시즌",
  "address": "경남 김해시 내외중앙로 99 복권판매점",
  "combination": "수동",
  "lat": 35.238827,
  "lng": 128.86716
 }
]