[
 {
  "name": "부자랑",
  "address": "서울 성동구 둘레15길 23",
  "combination": "수동",
  "lat": 37.53688,
  "lng": 127.05523
 },
 {
  "name": "홈돌이로또복권",
  "address": "인천 남동구 경원대로 971 삼성홈플러스간석점2층내",
  "combination": "자동",
  "lat": 37.46954,
  "lng": 126.68899
 },
 {
  "name": "LG슈퍼",
  "address": "인천 연수구 함박로12번길 24 1층",
  "combination": "수동",
  "lat": 37.42538,
  "lng": 126.68007
 },
 {
  "name": "경준유통",
  "address": "인천 중구 화랑목로100번길 65 104호",
  "combination": "자동",
  "lat": 37.494152,
  "lng": 126.499054
 },
 {
  "name": "오천억복권방",
  "address": "광주 서구 상무대로 1087",
  "combination": "자동",
  "lat": 35.15296,
  "lng": 126.880745
 },
 {
  "name": "제우스테크",
  "address": "대전 서구 원도안로 30",
  "combination": "자동",
  "lat": 36.306774,
  "lng": 127.348656
 },
 {
  "name": "강경복권방",
  "address": "충남 논산시 강경읍 계백로 126-1,(대흥리)",
  "combination": "자동",
  "lat": 36.15601,
  "lng": 127.014854
 },
 {
  "name": "청룡마트",
  "address": "충남 천안시 동남구 풍세로 1010-31 현대아파트상가B-102호",
  "combination": "자동",
  "lat": 36.797386,
  "lng": 127.15389
 },
 {
  "name": "스타복권",
  "address": "전남 목포시 고하대로 688-1 1층",
  "combination": "자동",
  "lat": 34.808342,
  "lng": 126.37284
 }
]