[
 {
  "name": "인터넷 복권판매사이트",
  "address": "동행복권(dhlottery.co.kr)",
  "combination": "자동",
  "lat": 37.482063,
  "lng": 127.015785
 },
 {
  "name": "세원로또복권방",
  "address": "부산 수영구 수영로725번길 53 수영 엔스타Ⅱ 101호",
  "combination": "자동",
  "lat": 35.16832,
  "lng": 129.11609
 },
 {
  "name": "무량복권",
  "address": "대구 수성구 시지로 37 1층 동편상가",
  "combination": "자동",
  "lat": 35.84006,
  "lng": 128.69356
 },
 {
  "name": "동원인테리어",
  "address": "인천 미추홀구 경인로 213-4",
  "combination": "수동",
  "lat": 37.464996,
  "lng": 126.66633
 },
 {
  "name": "복권명당",
  "address": "인천 서구 봉오재3로 104 엔시티타워2차 1층 115호",
  "combination": "자동",
  "lat": 37.52718,
  "lng": 126.67166
 },
 {
  "name": "황금복권판매점",
  "address": "경기 성남시 중원구 산성대로582번길 2 1층일부 (은행동)",
  "combination": "자동",
  "lat": 37.46141,
  "lng": 127.16815
 },
 {
  "name": "로또명당가두판매점",
  "address": "경기 안양시 동안구 경수대로 848-2 동안구가로판매대2005-00065",
  "combination": "자동",
  "lat": 37.393017,
  "lng": 126.94313
 },
 {
  "name": "영월로또명당",
  "address": "강원 영월군 중앙로 44",
  "combination": "자동",
  "lat": 37.18335,
  "lng": 128.46846
 }
]