[
 {
  "name": "토큰박스",
  "address": "서울 동대문구 이문로 93 민족통일MJ캠퍼스외대 외대앞 버스정류장",
  "combination": "자동",
  "lat": 37.595364,
  "lng": 127.05922
 },
 {
  "name": "명지복권방",
  "address": "서울 송파구 거마로 55 101호",
  "combination": "자동",
  "lat": 37.497837,
  "lng": 127.14623
 },
 {
  "name": "하나복권(가로판매점)",
  "address": "서울 영등포구 여의나루로 42 가로판매점(여의도동)",
  "combination": "자동",
  "lat": 37.52147,
  "lng": 126.92497
 },
 {
  "name": "동양마트일곡점",
  "address": "광주 북구 일곡마을로 55 현대아파트 2차상가 102-2호",
  "combination": "자동",
  "lat": 35.20459,
  "lng": 126.895256
 },
 {
  "name": "용꿈돼지꿈복권방",
  "address": "경기 시흥시 하중로 235 법조타운103호",
  "combination": "수동",
  "lat": 37.390877,
  "lng": 126.806526
 },
 {
  "name": "로또",
  "address": "경기 포천시 죽엽산로196번길 4",
  "combination": "자동",
  "lat": 37.814644,
  "lng": 127.16044
 },
 {
  "name": "명성복권마트",
  "address": "충남 계룡시 장안로 66",
  "combination": "수동",
  "lat": 36.272293,
  "lng": 127.249504
 },
 {
  "name": "복권천국",
  "address": "전남 여수시 선소로 62 부영아파트상가4동1-2호",
  "combination": "수동",
  "lat": 34.75757,
  "lng": 127.667564
 },
 {
  "name": "비디오 채널4",
  "address": "경남 진주시 동진로 220",
  "combination": "수동",
  "lat": 35.179665,
  "lng": 128.11517
 }
]