[
 {
  "name": "인터넷 복권판매사이트",
  "address": "동행복권(dhlottery.co.kr)",
  "combination": "자동",
  "lat": 37.482063,
  "lng": 127.015785
 },
 {
  "name": "하나복권(가로판매점)",
  "address": "서울 영등포구 여의나루로 42 가로판매점(여의도동)",
  "combination": "자동",
  "lat": 37.52147,
  "lng": 126.92497
 },
 {
  "name": "황금로또",
  "address": "부산 동구 중앙대로251번길 42-1",
  "combination": "자동",
  "lat": 35.12021,
  "lng": 129.03966
 },
 {
  "name": "고려슈퍼마켓",
  "address": "경기 구리시 원수택로64번길 28 상가",
  "combination": "자동",
  "lat": 37.596237,
  "lng": 127.14344
 },
 {
  "name": "대한복권",
  "address": "경기 부천시 부천로 52",
  "combination": "자동",
  "lat": 37.489605,
  "lng": 126.7842
 },
 {
  "name": "그린마트",
  "address": "경기 성남시 분당구 대왕판교로 255 107호",
  "combination": "자동",
  "lat": 37.366467,
  "lng": 127.10083
 },
 {
  "name": "한아름복권방(매탄점)",
  "address": "경기 수원시 영통구 권선로 808",
  "combination": "수동",
  "lat": 37.255295,
  "lng": 127.03862
 },
 {
  "name": "종합복권슈퍼",
  "address": "경기 시흥시 마유로 336 정일빌딩104",
  "combination": "자동",
  "lat": 37.34572,
  "lng": 126.73561
 },
 {
  "name": "프랜드편의점",
  "address": "경기 화성시 3.1만세로 1100-2",
  "combination": "수동",
  "lat": 37.13201,
  "lng": 126.90798
 },
 {
  "name": "진평양행",
  "address": "강원 강릉시 임영로 107",
  "combination": "자동",
  "lat": 37.751263,
  "lng": 128.89407
 },
 {
  "name": "이마트24망상해변점",
  "address": "강원 동해시 동해대로 6270-20 1층 118호, 이마트24망상해변점",
  "combination": "자동",
  "lat": 37.592716,
  "lng": 129.09076
 },
 {
  "name": "NG24",
  "address": "경북 칠곡군 북중리3길 59",
  "combination": "수동",
  "lat": 36.079823,
  "lng": 128.41183
 },
 {
  "name": "천하명당(팔용점)",
  "address": "경남 창원시 의창구 사화로 26",
  "combination": "자동",
  "lat": 35.256348,
  "lng": 128.6103
 },
 {
  "name": "킹로또",
  "address": "제주 제주시 아란4길 85-5 1층",
  "combination": "수동",
  "lat": 33.47016,
  "lng": 126.54231
 },
 {
  "name": "행운복권방",
  "address": "제주 제주시 우정로11길 12",
  "combination": "수동",
  "lat": 33.48765,
  "lng": 126.4322
 }
]