[
 {
  "name": "복권마을",
  "address": "서울 구로구 구로동로 72",
  "combination": "반자동",
  "lat": 37.485348,
  "lng": 126.88605
 },
 {
  "name": "잠실매점",
  "address": "서울 송파구 올림픽로 269 잠실역 8번출구 앞 가판",
  "combination": "자동",
  "lat": 37.514446,
  "lng": 127.10071
 },
 {
  "name": "당첨로또",
  "address": "부산 동구 범일로90번길 6-1 1층",
  "combination": "자동",
  "lat": 35.13787,
  "lng": 129.06026
 },
 {
  "name": "위너로또",
  "address": "인천 남동구 구월남로 212  동원프라자 101호",
  "combination": "자동",
  "lat": 37.45245,
  "lng": 126.71311
 },
 {
  "name": "라이프마트",
  "address": "인천 중구 연안부두로53번길 36 5호",
  "combination": "자동",
  "lat": 37.45236,
  "lng": 126.60402
 },
 {
  "name": "알리바이",
  "address": "광주 광산구 수등로 253 1층 알리바이",
  "combination": "자동",
  "lat": 35.185387,
  "lng": 126.83668
 },
 {
  "name": "토큰박스",
  "address": "경기 남양주시 진건오남로 112-1 동양할인마트 앞 로또판매점",
  "combination": "자동",
  "lat": 37.660786,
  "lng": 127.179695
 },
 {
  "name": "은미복권방",
  "address": "경기 부천시 소사로794번길 6",
  "combination": "자동",
  "lat": 37.52689,
  "lng": 126.80513
 },
 {
  "name": "로또대박",
  "address": "경기 부천시 석천로177번길 11 제이클래스중동 1층 105호",
  "combination": "자동",
  "lat": 37.503178,
  "lng": 126.76193
 },
 {
  "name": "대박명당",
  "address": "경기 양주시 옥정동로5길 6",
  "combination": "자동",
  "lat": 37.81649,
  "lng": 127.098755
 },
 {
  "name": "행운복권방",
  "address": "충북 청주시 상당구 단재로 119,(영운동)",
  "combination": "자동",
  "lat": 36.618725,
  "lng": 127.49801
 },
 {
  "name": "신불당로또",
  "address": "충남 천안시 서북구 불당21로 40 501동 지1층 B143호",
  "combination": "자동",
  "lat": 36.812565,
  "lng": 127.10497
 },
 {
  "name": "현대장미슈퍼",
  "address": "전북 익산시 동서로61길 41 현대아파트1층108호",
  "combination": "자동",
  "lat": 35.95509,
  "lng": 126.98032
 },
 {
  "name": "알리바이(나주점)",
  "address": "전남 나주시 나주로 142 알리바이",
  "combination": "자동",
  "lat": 35.031338,
  "lng": 126.71719
 },
 {
  "name": "알리바이(나주점)",
  "address": "전남 나주시 나주로 142 알리바이",
  "combination": "자동",
  "lat": 35.031338,
  "lng": 126.71719
 },
 {
  "name": "복권방",
  "address": "제주 서귀포시 상모로 326",
  "combination": "자동",
  "lat": 33.222324,
  "lng": 126.25469
 }
]