[
 {
  "name": "소리창고",
  "address": "서울 강서구 강서로 306",
  "combination": "수동",
  "lat": 37.552868,
  "lng": 126.83675
 },
 {
  "name": "로그인편의점",
  "address": "서울 성동구 천호대로 430 103호 로그인편의점",
  "combination": "수동",
  "lat": 37.5608,
  "lng": 127.06653
 },
 {
  "name": "뉴빅마트",
  "address": "부산 기장군 정관중앙로 48 106호",
  "combination": "자동",
  "lat": 35.321114,
  "lng": 129.17929
 },
 {
  "name": "새상무복권",
  "address": "광주 서구 치평로 30 수암빌딩 1층 102호",
  "combination": "자동",
  "lat": 35.149944,
  "lng": 126.84769
 },
 {
  "name": "온천로또방",
  "address": "대전 유성구 계룡로 92 유성CJ나인파크 1층 101-3호",
  "combination": "자동",
  "lat": 36.353638,
  "lng": 127.34119
 },
 {
  "name": "행운복권",
  "address": "경기 군포시 대야1로 3 현대팰리스 1동",
  "combination": "자동",
  "lat": 37.32638,
  "lng": 126.91891
 },
 {
  "name": "드림복권방",
  "address": "경기 의정부시 청사로5번길 8-17 1층 112호(신곡동,센타프라자)",
  "combination": "자동",
  "lat": 37.74958,
  "lng": 127.070015
 }
]