[
 {
  "name": "스파",
  "address": "서울 노원구 동일로 1493 상계주공아파트(10단지) 주공10단지종합상가111",
  "combination": "자동",
  "lat": 37.66166,
  "lng": 127.05787
 },
 {
  "name": "인터넷 복권판매사이트",
  "address": "동행복권(dhlottery.co.kr)",
  "combination": "수동",
  "lat": 37.482063,
  "lng": 127.015785
 },
 {
  "name": "인터넷 복권판매사이트",
  "address": "동행복권(dhlottery.co.kr)",
  "combination": "수동",
  "lat": 37.482063,
  "lng": 127.015785
 },
 {
  "name": "꿈이현실로",
  "address": "서울 중구 청계천로 182",
  "combination": "수동",
  "lat": 37.568573,
  "lng": 126.99775
 },
 {
  "name": "행운편의점",
  "address": "광주 북구 면앙로 36,(문흥동)",
  "combination": "수동",
  "lat": 35.179317,
  "lng": 126.91617
 },
 {
  "name": "행운편의점",
  "address": "광주 북구 면앙로 36,(문흥동)",
  "combination": "수동",
  "lat": 35.179317,
  "lng": 126.91617
 },
 {
  "name": "행운편의점",
  "address": "광주 북구 면앙로 36,(문흥동)",
  "combination": "수동",
  "lat": 35.179317,
  "lng": 126.91617
 },
 {
  "name": "한꿈복권방",
  "address": "울산 중구 번영로 586",
  "combination": "자동",
  "lat": 35.568794,
  "lng": 129.34589
 },
 {
  "name": "CU행운로또 세종디펠리체점",
  "address": "세종   나성북1로 22 CU편의점",
  "combination": "수동",
  "lat": 36.489166,
  "lng": 127.25899
 },
 {
  "name": "다드림복권",
  "address": "경기 김포시 월하로 930 1층 101호",
  "combination": "수동",
  "lat": 37.70494,
  "lng": 126.656204
 },
 {
  "name": "다드림복권",
  "address": "경기 김포시 월하로 930 1층 101호",
  "combination": "수동",
  "lat": 37.70494,
  "lng": 126.656204
 },
 {
  "name": "로또도곡점",
  "address": "경기 남양주시 덕소로 277 1층 복권판매점",
  "combination": "수동",
  "lat": 37.577305,
  "lng": 127.2262
 },
 {
  "name": "1등복권방",
  "address": "경기 성남시 분당구 미금로 45 117호 (구미동, 진도훼미리프라자)",
  "combination": "수동",
  "lat": 37.33751,
  "lng": 127.11582
 },
 {
  "name": "와이케이복권방",
  "address": "경기 용인시 수지구 광교중앙로 297 디동 107호",
  "combination": "자동",
  "lat": 37.296703,
  "lng": 127.06859
 },
 {
  "name": "이충복권방",
  "address": "경기 평택시 송탄로 108 1층103호",
  "combination": "수동",
  "lat": 37.054466,
  "lng": 127.05607
 },
 {
  "name": "드림복권전문점",
  "address": "경기 평택시 평남로 651",
  "combination": "자동",
  "lat": 36.991936,
  "lng": 127.10693
 },
 {
  "name": "송산로또천하",
  "address": "경기 화성시 송산포도로 82 제A동 5호",
  "combination": "수동",
  "lat": 37.21372,
  "lng": 126.73997
 },
 {
  "name": "도계복권방",
  "address": "강원 삼척시 도계로 287-2",
  "combination": "수동",
  "lat": 37.23491,
  "lng": 129.04465
 },
 {
  "name": "대산슈퍼",
  "address": "충남 천안시 동남구 복구정3길 1",
  "combination": "자동",
  "lat": 36.76989,
  "lng": 127.250206
 },
 {
  "name": "순창복권방",
  "address": "전북 순창군 순창읍 장류로 369,(남계리)",
  "combination": "수동",
  "lat": 35.376488,
  "lng": 127.1428
 },
 {
  "name": "나눔로또봉평점",
  "address": "경남 통영시 도남로 81",
  "combination": "수동",
  "lat": 34.831635,
  "lng": 128.41365
 },
 {
  "name": "나눔로또봉평점",
  "address": "경남 통영시 도남로 81",
  "combination": "수동",
  "lat": 34.831635,
  "lng": 128.41365
 },
 {
  "name": "나눔로또봉평점",
  "address": "경남 통영시 도남로 81",
  "combination": "수동",
  "lat": 34.831635,
  "lng": 128.41365
 },
 {
  "name": "나눔로또봉평점",
  "address": "경남 통영시 도남로 81",
  "combination": "수동",
  "lat": 34.831635,
  "lng": 128.41365
 },
 {
  "name": "본스튜디오",
  "address": "제주 제주시 하귀로 111",
  "combination": "자동",
  "lat": 33.48359,
  "lng": 126.407875
 }
]