[
 {
  "name": "가로판매대",
  "address": "서울 강동구 올림픽로 648 천호역 3번 출구 앞(가판점)",
  "combination": "수동",
  "lat": 37.538975,
  "lng": 127.12444
 },
 {
  "name": "행운복권방",
  "address": "서울 도봉구 노해로63길 79 우림빌딩106",
  "combination": "자동",
  "lat": 37.653114,
  "lng": 127.04623
 },
 {
  "name": "행운복권마트",
  "address": "서울 종로구 지봉로 58",
  "combination": "수동",
  "lat": 37.575314,
  "lng": 127.015854
 },
 {
  "name": "오렌지데이편의점",
  "address": "부산 해운대구 좌동순환로249번길 11 르네상스오피스102호",
  "combination": "반자동",
  "lat": 35.173973,
  "lng": 129.1815
 },
 {
  "name": "복권판매점",
  "address": "인천 남동구 문화로 113 1층",
  "combination": "자동",
  "lat": 37.44924,
  "lng": 126.69932
 },
 {
  "name": "로또명당",
  "address": "인천 미추홀구 인주대로 423 101호",
  "combination": "자동",
  "lat": 37.45146,
  "lng": 126.6837
 },
 {
  "name": "백령로또",
  "address": "인천 옹진군 백령로278번길 18",
  "combination": "수동",
  "lat": 37.972107,
  "lng": 124.72062
 },
 {
  "name": "행복한사람들 (흥부네)",
  "address": "경기 광주시 경충대로 763",
  "combination": "자동",
  "lat": 37.355545,
  "lng": 127.325386
 },
 {
  "name": "간이매점",
  "address": "경기 시흥시 삼미시장4길 26",
  "combination": "수동",
  "lat": 37.44011,
  "lng": 126.782
 },
 {
  "name": "복권백화점",
  "address": "경기 파주시 평화로 70",
  "combination": "자동",
  "lat": 37.763588,
  "lng": 126.76989
 },
 {
  "name": "꿈로또복권전문점",
  "address": "강원 강릉시 옥천로 47",
  "combination": "자동",
  "lat": 37.759296,
  "lng": 128.90057
 },
 {
  "name": "그린로또",
  "address": "강원 양양군 양양로 71",
  "combination": "자동",
  "lat": 38.07482,
  "lng": 128.62141
 },
 {
  "name": "나눔로또편의점",
  "address": "전남 광양시 공영로 90",
  "combination": "수동",
  "lat": 34.935658,
  "lng": 127.699066
 },
 {
  "name": "중앙로또",
  "address": "경북 칠곡군 북삼로 41 복권판매점",
  "combination": "수동",
  "lat": 36.071457,
  "lng": 128.34279
 },
 {
  "name": "중앙로또",
  "address": "경북 칠곡군 북삼로 41 복권판매점",
  "combination": "수동",
  "lat": 36.071457,
  "lng": 128.34279
 },
 {
  "name": "중앙로또",
  "address": "경북 칠곡군 북삼로 41 복권판매점",
  "combination": "수동",
  "lat": 36.071457,
  "lng": 128.34279
 },
 {
  "name": "중앙로또",
  "address": "경북 칠곡군 북삼로 41 복권판매점",
  "combination": "수동",
  "lat": 36.071457,
  "lng": 128.34279
 },
 {
  "name": "중앙로또",
  "address": "경북 칠곡군 북삼로 41 복권판매점",
  "combination": "수동",
  "lat": 36.071457,
  "lng": 128.34279
 },
 {
  "name": "중앙로또",
  "address": "경북 칠곡군 북삼로 41 복권판매점",
  "combination": "수동",
  "lat": 36.071457,
  "lng": 128.34279
 },
 {
  "name": "중앙로또",
  "address": "경북 칠곡군 북삼로 41 복권판매점",
  "combination": "수동",
  "lat": 36.071457,
  "lng": 128.34279
 }
]