[
 {
  "name": "인터넷 복권판매사이트",
  "address": "동행복권(dhlottery.co.kr)",
  "combination": "수동",
  "lat": 37.482063,
  "lng": 127.015785
 },
 {
  "name": "방이로또",
  "address": "서울 송파구 가락로 245 1층",
  "combination": "자동",
  "lat": 37.51012,
  "lng": 127.11796
 },
 {
  "name": "묵동식품",
  "address": "서울 중랑구 동일로 919",
  "combination": "수동",
  "lat": 37.612457,
  "lng": 127.07704
 },
 {
  "name": "화신상사",
  "address": "부산 동래구 삼성대길 48",
  "combination": "자동",
  "lat": 35.205097,
  "lng": 129.08176
 },
 {
  "name": "희망복권방",
  "address": "인천 계양구 효서로 293",
  "combination": "자동",
  "lat": 37.52812,
  "lng": 126.728676
 },
 {
  "name": "세븐일레븐 인천효성점",
  "address": "인천 계양구 안남로 551",
  "combination": "자동",
  "lat": 37.532257,
  "lng": 126.71038
 },
 {
  "name": "대박명당",
  "address": "울산 남구 중앙로 154",
  "combination": "자동",
  "lat": 35.53496,
  "lng": 129.31442
 },
 {
  "name": "옥교대박점",
  "address": "울산 중구 옥교3길 94 (학산동)",
  "combination": "수동",
  "lat": 35.553345,
  "lng": 129.33134
 },
 {
  "name": "행복한사람들 (흥부네)",
  "address": "경기 광주시 경충대로 763",
  "combination": "자동",
  "lat": 37.355545,
  "lng": 127.325386
 },
 {
  "name": "로또명당",
  "address": "경기 시흥시 신현로 21-1 101호",
  "combination": "자동",
  "lat": 37.40707,
  "lng": 126.78708
 },
 {
  "name": "복권판매점(행복드림)",
  "address": "경기 양평군 강남로 1016 나동 4호",
  "combination": "수동",
  "lat": 37.48044,
  "lng": 127.48489
 },
 {
  "name": "한방복권방",
  "address": "경기 화성시 효행로763번길 23",
  "combination": "수동",
  "lat": 37.205154,
  "lng": 127.01395
 },
 {
  "name": "행복마트",
  "address": "경북 김천시 혁신로 185 메타폴리스 메타폴리스상가 120호",
  "combination": "자동",
  "lat": 36.117535,
  "lng": 128.18396
 },
 {
  "name": "신라슈퍼",
  "address": "경북 포항시 남구 일월로 112",
  "combination": "자동",
  "lat": 35.987953,
  "lng": 129.4453
 },
 {
  "name": "천하명당복권방",
  "address": "경남 거제시 옥포성안로 60",
  "combination": "자동",
  "lat": 34.891693,
  "lng": 128.69492
 },
 {
  "name": "진양호",
  "address": "경남 진주시 남강로 58 1층",
  "combination": "자동",
  "lat": 35.162823,
  "lng": 128.03957
 },
 {
  "name": "GS25(덕산제일점)",
  "address": "경남 창원시 진해구 충장로 505",
  "combination": "자동",
  "lat": 35.1442,
  "lng": 128.70134
 }
]