[
 {
  "name": "황금대박점",
  "address": "서울 노원구 공릉로 328,(하계동)",
  "combination": "자동",
  "lat": 37.63598,
  "lng": 127.07099
 },
 {
  "name": "역전휴게마트",
  "address": "광주 북구 무등로 240,(중흥동)",
  "combination": "자동",
  "lat": 35.163837,
  "lng": 126.90968
 },
 {
  "name": "복권판매점",
  "address": "대전 서구 계백로 1153 지산프리지엄빌딩111호",
  "combination": "자동",
  "lat": 36.305317,
  "lng": 127.35151
 },
 {
  "name": "초이스 로또",
  "address": "울산 남구 화합로125번길 9 CU달동초이스점내",
  "combination": "자동",
  "lat": 35.535034,
  "lng": 129.29362
 },
 {
  "name": "속초등대로또복권",
  "address": "강원 속초시 영금정로 23",
  "combination": "자동",
  "lat": 38.212677,
  "lng": 128.59906
 },
 {
  "name": "복권명당",
  "address": "충남 공주시 번영1로 41",
  "combination": "자동",
  "lat": 36.471832,
  "lng": 127.13313
 },
 {
  "name": "로또명당인주점",
  "address": "충남 아산시 서해로 519-2",
  "combination": "수동",
  "lat": 36.87784,
  "lng": 126.89828
 },
 {
  "name": "잉크와복권방",
  "address": "충남 천안시 동남구 차돌로 84",
  "combination": "수동",
  "lat": 36.802128,
  "lng": 127.139435
 }
]