[
 {
  "name": "복권소매",
  "address": "서울 금천구 가산로5길 77 1층",
  "combination": "수동",
  "lat": 37.473743,
  "lng": 126.89045
 },
 {
  "name": "벼락부자복권",
  "address": "대구 달서구 죽전길 149 1층 복권방",
  "combination": "자동",
  "lat": 35.85846,
  "lng": 128.54004
 },
 {
  "name": "아이러브마트복권방",
  "address": "울산 중구 유곡로 19-1",
  "combination": "자동",
  "lat": 35.55638,
  "lng": 129.30725
 },
 {
  "name": "세민",
  "address": "경기 부천시 중동로 147 1층",
  "combination": "수동",
  "lat": 37.49294,
  "lng": 126.76659
 },
 {
  "name": "교하로또판매점",
  "address": "경기 파주시 파주로 266 아이비타워108호",
  "combination": "자동",
  "lat": 37.7261,
  "lng": 126.71821
 },
 {
  "name": "동덕로또방",
  "address": "충남 아산시 시장남길 26",
  "combination": "자동",
  "lat": 36.782608,
  "lng": 127.00331
 },
 {
  "name": "로또명당인주점",
  "address": "충남 아산시 서해로 519-2",
  "combination": "자동",
  "lat": 36.87784,
  "lng": 126.89828
 },
 {
  "name": "로또판매점",
  "address": "경북 상주시 상서문로 59,(남성동)",
  "combination": "자동",
  "lat": 36.415222,
  "lng": 128.15585
 },
 {
  "name": "행운복권",
  "address": "경남 사천시 새시장길 12",
  "combination": "수동",
  "lat": 34.93144,
  "lng": 128.07866
 }
]