[
 {
  "name": "로또 光복권",
  "address": "서울 구로구 개봉로23가길 37",
  "combination": "자동",
  "lat": 37.495296,
  "lng": 126.85847
 },
 {
  "name": "나래전산",
  "address": "부산 부산진구 전포대로 294 101호",
  "combination": "수동",
  "lat": 35.162834,
  "lng": 129.0665
 },
 {
  "name": "상록로또",
  "address": "인천 계양구 장제로 718 상록메디컬센터",
  "combination": "자동",
  "lat": 37.531803,
  "lng": 126.734276
 },
 {
  "name": "광주도서유통",
  "address": "광주 남구 봉선1로 79 북소리",
  "combination": "자동",
  "lat": 35.128155,
  "lng": 126.91389
 },
 {
  "name": "중흥마트",
  "address": "광주 북구 문산로 30 중흥2차 아파트상가 1층",
  "combination": "자동",
  "lat": 35.18389,
  "lng": 126.92322
 },
 {
  "name": "씨유(CU)화목화성점",
  "address": "광주 서구 쌍촌로 29 CU편의점내",
  "combination": "수동",
  "lat": 35.147545,
  "lng": 126.864815
 },
 {
  "name": "로또복권명성",
  "address": "경기 구리시 검배로72번길 11-4 1층",
  "combination": "수동",
  "lat": 37.59531,
  "lng": 127.14607
 },
 {
  "name": "단비",
  "address": "경기 시흥시 다솜마을2길 1 상가101호",
  "combination": "자동",
  "lat": 37.350235,
  "lng": 126.73986
 },
 {
  "name": "로또휴게실",
  "address": "경기 용인시 기흥구 용구대로 1885",
  "combination": "자동",
  "lat": 37.256386,
  "lng": 127.10432
 },
 {
  "name": "금손로또방",
  "address": "경기 의정부시 시민로121번길 34-5 1층(의정부동)",
  "combination": "자동",
  "lat": 37.73986,
  "lng": 127.04965
 },
 {
  "name": "대박슈퍼",
  "address": "세종   행복10길 3 1층 101호",
  "combination": "수동",
  "lat": 36.603516,
  "lng": 127.29121
 },
 {
  "name": "삼례로또복권",
  "address": "전북 완주군 삼례읍 동학로 32",
  "combination": "자동",
  "lat": 35.91063,
  "lng": 127.074875
 },
 {
  "name": "운수대통복권샵",
  "address": "전북 전주시 완산구 중화산로 101",
  "combination": "자동",
  "lat": 35.819527,
  "lng": 127.11793
 },
 {
  "name": "금진슈퍼",
  "address": "전남 여수시 좌수영로 11",
  "combination": "자동",
  "lat": 34.741383,
  "lng": 127.72764
 },
 {
  "name": "구담쌀슈퍼",
  "address": "경북 안동시 경동로 908",
  "combination": "자동",
  "lat": 36.556965,
  "lng": 128.75449
 },
 {
  "name": "삼계복권전문점",
  "address": "경남 창원시 마산회원구 경남대로 915",
  "combination": "자동",
  "lat": 35.231876,
  "lng": 128.50462
 },
 {
  "name": "제주대림점",
  "address": "제주 제주시 과원북2길 48",
  "combination": "자동",
  "lat": 33.478714,
  "lng": 126.487656
 }
]