[
 {
  "name": "럭키마켓",
  "address": "서울 강동구 명일로 159 1층",
  "combination": "자동",
  "lat": 37.533146,
  "lng": 127.14422
 },
 {
  "name": "월드 복권방",
  "address": "서울 강서구 곰달래로53길 41 1층 102호(화곡동, 재룡빌딩)",
  "combination": "자동",
  "lat": 37.533516,
  "lng": 126.85879
 },
 {
  "name": "장보고복권방",
  "address": "서울 중랑구 면목로 288",
  "combination": "자동",
  "lat": 37.578384,
  "lng": 127.08619
 },
 {
  "name": "로또명당(북부점)",
  "address": "대구 서구 서대구로 318-1",
  "combination": "자동",
  "lat": 35.886024,
  "lng": 128.55782
 },
 {
  "name": "지에스25 신매태왕점로또",
  "address": "대구 수성구 욱수천로 70 편의점_GS25",
  "combination": "자동",
  "lat": 35.83531,
  "lng": 128.7119
 },
 {
  "name": "안전열쇠",
  "address": "인천 계양구 경명대로 1124 명인프라자102호",
  "combination": "자동",
  "lat": 37.54285,
  "lng": 126.731895
 },
 {
  "name": "노다지복권방",
  "address": "인천 미추홀구 한나루로 400 학익시장 외7필지125호",
  "combination": "자동",
  "lat": 37.443375,
  "lng": 126.66496
 },
 {
  "name": "수 로또 대박점",
  "address": "인천 서구 석남로 78 1층",
  "combination": "자동",
  "lat": 37.50099,
  "lng": 126.67034
 },
 {
  "name": "대선세무경영사무소",
  "address": "경기 안산시 상록구 석호로 170 1층",
  "combination": "자동",
  "lat": 37.296867,
  "lng": 126.85053
 },
 {
  "name": "세븐일레븐 홍익점",
  "address": "경기 안성시 종합운동장로 161",
  "combination": "자동",
  "lat": 37.012398,
  "lng": 12.238893
 },
 {
  "name": "진 복권방",
  "address": "경기 포천시 송우로 55-5 101호 성조빌딩",
  "combination": "자동",
  "lat": 37.828922,
  "lng": 127.14272
 },
 {
  "name": "불티나",
  "address": "강원 춘천시 후석로462번길 94-1 1층",
  "combination": "자동",
  "lat": 37.890953,
  "lng": 127.751976
 },
 {
  "name": "복앤돈복권방",
  "address": "충북 충주시 충원대로 1528 103호",
  "combination": "수동",
  "lat": 37.059822,
  "lng": 127.93047
 },
 {
  "name": "로또당진합덕원룸점",
  "address": "충남 당진시 미락5길 27-3 1층 101호",
  "combination": "자동",
  "lat": 36.80752,
  "lng": 126.768425
 },
 {
  "name": "로또복권맥",
  "address": "전남 여수시 여문1로 52",
  "combination": "자동",
  "lat": 34.753353,
  "lng": 127.70449
 },
 {
  "name": "진양상회",
  "address": "경북 영주시 선비로 68",
  "combination": "자동",
  "lat": 36.811275,
  "lng": 128.62402
 },
 {
  "name": "씨유 남해 현대점",
  "address": "경남 남해군 화전로 60",
  "combination": "자동",
  "lat": 34.83664,
  "lng": 127.89461
 },
 {
  "name": "합천우리복권방",
  "address": "경남 합천군 핫들2로 8 1층",
  "combination": "자동",
  "lat": 35.56843,
  "lng": 128.16539
 }
]