[
 {
  "name": "CU(수유대로점)",
  "address": "서울 강북구 노해로 121 두울빌딩",
  "combination": "수동",
  "lat": 37.64605,
  "lng": 127.0244
 },
 {
  "name": "로또방",
  "address": "서울 영등포구 영중로 12 에쉐르아이 시네마 쇼핑몰",
  "combination": "자동",
  "lat": 37.517628,
  "lng": 126.90648
 },
 {
  "name": "제일복권",
  "address": "부산 서구 충무대로255번길 9 충무쇼핑1층",
  "combination": "자동",
  "lat": 35.093067,
  "lng": 129.02328
 },
 {
  "name": "하프타임 과정로",
  "address": "부산 수영구 과정로 42,(망미동)",
  "combination": "자동",
  "lat": 35.17517,
  "lng": 129.10776
 },
 {
  "name": "장미유통",
  "address": "인천 계양구 아나지로 394",
  "combination": "수동",
  "lat": 37.525383,
  "lng": 126.73586
 },
 {
  "name": "프렌드24시",
  "address": "광주 광산구 첨단중앙로 164 빌리오네2  제1층 106호",
  "combination": "수동",
  "lat": 35.219975,
  "lng": 126.84232
 },
 {
  "name": "프렌드24시",
  "address": "광주 광산구 첨단중앙로 164 빌리오네2  제1층 106호",
  "combination": "수동",
  "lat": 35.219975,
  "lng": 126.84232
 },
 {
  "name": "프렌드24시",
  "address": "광주 광산구 첨단중앙로 164 빌리오네2  제1층 106호",
  "combination": "수동",
  "lat": 35.219975,
  "lng": 126.84232
 },
 {
  "name": "현대슈퍼",
  "address": "광주 서구 상무대로 871",
  "combination": "반자동",
  "lat": 35.150524,
  "lng": 126.857315
 },
 {
  "name": "복권방",
  "address": "대전 동구 대전로 799",
  "combination": "자동",
  "lat": 36.330765,
  "lng": 127.432526
 },
 {
  "name": "로또복권 하대점",
  "address": "경남 진주시 도동로 188",
  "combination": "자동",
  "lat": 35.18703,
  "lng": 128.12248
 }
]