[
 {
  "name": "잠실매점",
  "address": "서울 송파구 올림픽로 269 잠실역 8번출구 앞 가판",
  "combination": "자동",
  "lat": 37.514446,
  "lng": 127.10071
 },
 {
  "name": "뉴빅마트",
  "address": "부산 기장군 정관중앙로 48 106호",
  "combination": "자동",
  "lat": 35.321114,
  "lng": 129.17929
 },
 {
  "name": "노다지복권방",
  "address": "인천 부평구 이규보로 137-1 1층",
  "combination": "자동",
  "lat": 37.48421,
  "lng": 126.70732
 },
 {
  "name": "영화유통(1등복권방)",
  "address": "울산 남구 신정로 19 삼성아파트 상가 204-101",
  "combination": "자동",
  "lat": 35.533833,
  "lng": 129.32205
 },
 {
  "name": "한방복권방",
  "address": "경기 화성시 효행로763번길 23",
  "combination": "수동",
  "lat": 37.205154,
  "lng": 127.01395
 },
 {
  "name": "행운복권방",
  "address": "충북 청주시 상당구 상당로 186",
  "combination": "자동",
  "lat": 36.64496,
  "lng": 127.4897
 },
 {
  "name": "하당복권방",
  "address": "전남 목포시 옥암로 46",
  "combination": "자동",
  "lat": 34.803894,
  "lng": 126.429474
 },
 {
  "name": "다음정보텔레콤",
  "address": "경남 진주시 평거로9번길  18 1층 2호",
  "combination": "수동",
  "lat": 35.173115,
  "lng": 128.06183
 },
 {
  "name": "피터팬",
  "address": "경남 창원시 진해구 웅동로 76 1호 복권판매점",
  "combination": "자동",
  "lat": 35.12436,
  "lng": 128.78462
 }
]