[
 {
  "name": "일확천금복권방",
  "address": "서울 강남구 강남대로122길 10 영흥빌딩 101-2호",
  "combination": "자동",
  "lat": 37.506985,
  "lng": 127.02403
 },
 {
  "name": "NICE",
  "address": "서울 강동구 성내로6길  40 1층",
  "combination": "자동",
  "lat": 37.528206,
  "lng": 127.12198
 },
 {
  "name": "금강식품",
  "address": "서울 강서구 강서로 207 영신빌딩",
  "combination": "자동",
  "lat": 37.544373,
  "lng": 126.837364
 },
 {
  "name": "경복식품",
  "address": "서울 동대문구 무학로 189,(용두동)",
  "combination": "자동",
  "lat": 37.581264,
  "lng": 127.02953
 },
 {
  "name": "원흥로또앤호밀호두",
  "address": "경기 고양시 덕양구 삼송로 12 102호",
  "combination": "수동",
  "lat": 37.64967,
  "lng": 126.875336
 },
 {
  "name": "럭키로또카페",
  "address": "경기 광주시 회안대로 13 매산제일교회 건물 1층",
  "combination": "자동",
  "lat": 37.356575,
  "lng": 127.24592
 },
 {
  "name": "호돌이복권방",
  "address": "경기 김포시 황금로109번길 80 101호",
  "combination": "자동",
  "lat": 37.61496,
  "lng": 126.622765
 },
 {
  "name": "1등 터",
  "address": "경기 김포시 양곡2로30번길 7-7 3호",
  "combination": "자동",
  "lat": 37.65439,
  "lng": 126.62755
 },
 {
  "name": "버스표가판점",
  "address": "경기 안양시 동안구 흥안대로  498-2",
  "combination": "자동",
  "lat": 37.398514,
  "lng": 126.97752
 },
 {
  "name": "북부슈퍼",
  "address": "경기 의정부시 가능로125번길 22,(의정부동)",
  "combination": "반자동",
  "lat": 37.74797,
  "lng": 127.04477
 },
 {
  "name": "로또명당인주점",
  "address": "충남 아산시 서해로 519-2",
  "combination": "자동",
  "lat": 36.87784,
  "lng": 126.89828
 },
 {
  "name": "이마트24아산도고명당점",
  "address": "충남 아산시 온천대로 104",
  "combination": "자동",
  "lat": 36.746223,
  "lng": 126.86672
 },
 {
  "name": "왕대박복권",
  "address": "전북 전주시 덕진구 가련산로 17",
  "combination": "자동",
  "lat": 35.841637,
  "lng": 127.11063
 },
 {
  "name": "천하명당복권방제일점",
  "address": "경남 창원시 마산합포구 중앙북2길 8 1층",
  "combination": "수동",
  "lat": 35.198193,
  "lng": 128.56766
 }
]