[
 {
  "name": "제이복권방",
  "address": "서울 종로구 종로 225-1 평창빌딩 1층 103호",
  "combination": "자동",
  "lat": 37.571293,
  "lng": 127.00283
 },
 {
  "name": "돈벼락맞는곳",
  "address": "부산 동구 조방로49번길 18-1",
  "combination": "수동",
  "lat": 35.139168,
  "lng": 129.05995
 },
 {
  "name": "돈벼락맞는곳",
  "address": "부산 동구 조방로49번길 18-1",
  "combination": "자동",
  "lat": 35.139168,
  "lng": 129.05995
 },
 {
  "name": "복권왕국",
  "address": "인천 계양구 계산천동로 3,(계산동)",
  "combination": "자동",
  "lat": 37.539253,
  "lng": 126.723236
 },
 {
  "name": "대박천하마트",
  "address": "인천 부평구 굴포로 48",
  "combination": "자동",
  "lat": 37.51157,
  "lng": 126.72634
 },
 {
  "name": "행복복권",
  "address": "인천 서구 가정로 198 1층",
  "combination": "자동",
  "lat": 37.50239,
  "lng": 126.67229
 },
 {
  "name": "알리바이",
  "address": "광주 광산구 수등로 253 1층 알리바이",
  "combination": "자동",
  "lat": 35.185387,
  "lng": 126.83668
 },
 {
  "name": "가판점",
  "address": "경기 군포시 군포로 541-2 인도 앞 가판대",
  "combination": "자동",
  "lat": 37.354385,
  "lng": 126.9463
 },
 {
  "name": "북문복권방",
  "address": "경기 수원시 장안구 정조로 927-1",
  "combination": "자동",
  "lat": 37.29028,
  "lng": 127.01279
 },
 {
  "name": "종합복권슈퍼",
  "address": "경기 시흥시 마유로 336 정일빌딩104",
  "combination": "수동",
  "lat": 37.34572,
  "lng": 126.73561
 },
 {
  "name": "로또유통",
  "address": "경기 안산시 단원구 광덕2로 193-3 광장타운1층108호",
  "combination": "자동",
  "lat": 37.310028,
  "lng": 126.83184
 },
 {
  "name": "로또방 비손",
  "address": "경기 안성시 만세로 1374 이마트24편의점",
  "combination": "자동",
  "lat": 37.040066,
  "lng": 127.13183
 },
 {
  "name": "로또명당금왕점",
  "address": "충북 음성군 금왕읍 탑골길 55 세븐일레븐 금왕점",
  "combination": "수동",
  "lat": 36.990955,
  "lng": 127.58632
 },
 {
  "name": "대박복권방",
  "address": "충남 당진시 서해안고속도로 275 행담도휴게소 내",
  "combination": "수동",
  "lat": 36.891174,
  "lng": 126.625305
 },
 {
  "name": "로또 유",
  "address": "충남 서산시 시장3길 19 옷가게 내",
  "combination": "자동",
  "lat": 36.782333,
  "lng": 126.45702
 },
 {
  "name": "내인생의로또",
  "address": "전북 전주시 완산구 평화로 150",
  "combination": "자동",
  "lat": 35.789974,
  "lng": 127.135826
 },
 {
  "name": "탐나네",
  "address": "제주 제주시 노연로 138",
  "combination": "자동",
  "lat": 33.48555,
  "lng": 126.49506
 }
]