[
 {
  "name": "편의점사랑",
  "address": "서울 강서구 곰달래로25길 57 1층",
  "combination": "수동",
  "lat": 37.533108,
  "lng": 126.848274
 },
 {
  "name": "짱복권",
  "address": "서울 종로구 종로 269 삼신빌딩 1층",
  "combination": "수동",
  "lat": 37.571327,
  "lng": 127.0079
 },
 {
  "name": "행운복권방",
  "address": "서울 중랑구 봉우재로 41 1층",
  "combination": "수동",
  "lat": 37.590794,
  "lng": 127.07784
 },
 {
  "name": "복권맛집",
  "address": "대구 남구 양지남길 15 우측상가",
  "combination": "자동",
  "lat": 35.850586,
  "lng": 128.5743
 },
 {
  "name": "노다지복권방",
  "address": "인천 미추홀구 한나루로 400 학익시장 외7필지125호",
  "combination": "자동",
  "lat": 37.443375,
  "lng": 126.66496
 },
 {
  "name": "대전우표사",
  "address": "대전 동구 중앙로204번길 16-1",
  "combination": "자동",
  "lat": 36.330036,
  "lng": 127.432076
 },
 {
  "name": "다드림복권",
  "address": "경기 김포시 월하로 930 1층 101호",
  "combination": "반자동",
  "lat": 37.70494,
  "lng": 126.656204
 },
 {
  "name": "돈벼락",
  "address": "경기 부천시 범안로 220 제근린생활시설2동 1층 103호",
  "combination": "수동",
  "lat": 37.46042,
  "lng": 126.81241
 },
 {
  "name": "노다지복권방",
  "address": "경기 시흥시 복지로 103-1 1층상가",
  "combination": "자동",
  "lat": 37.44823,
  "lng": 126.79206
 },
 {
  "name": "천하명당복권방",
  "address": "경기 의왕시 경수대로 248 보왕빌딩",
  "combination": "수동",
  "lat": 37.348602,
  "lng": 126.974144
 },
 {
  "name": "영순로또점",
  "address": "충남 아산시 아산밸리남로 81 816동 106호",
  "combination": "자동",
  "lat": 36.77252,
  "lng": 127.06567
 },
 {
  "name": "추섬로또",
  "address": "전남 완도군 개포로145번길 44-4 제2호",
  "combination": "자동",
  "lat": 34.322742,
  "lng": 126.74255
 },
 {
  "name": "네잎크로버복권방",
  "address": "제주 서귀포시 고성오조로 9",
  "combination": "자동",
  "lat": 33.44472,
  "lng": 126.91338
 }
]