[
 {
  "name": "대박집",
  "address": "서울 광진구 능동로53길 41 1층",
  "combination": "자동",
  "lat": 37.566944,
  "lng": 127.08219
 },
 {
  "name": "인터넷 복권판매사이트",
  "address": "동행복권(dhlottery.co.kr)",
  "combination": "수동",
  "lat": 37.482063,
  "lng": 127.015785
 },
 {
  "name": "원스탑",
  "address": "서울 송파구 백제고분로7길 39",
  "combination": "자동",
  "lat": 37.510902,
  "lng": 127.08321
 },
 {
  "name": "보물섬복권판매점",
  "address": "서울 송파구 법원로8길 7 106호",
  "combination": "자동",
  "lat": 37.484184,
  "lng": 127.12136
 },
 {
  "name": "상호없음",
  "address": "서울 종로구 새문안로 103-1",
  "combination": "자동",
  "lat": 37.57048,
  "lng": 126.97618
 },
 {
  "name": "무지개로또방",
  "address": "인천 계양구 양지로 30 102호",
  "combination": "수동",
  "lat": 37.56159,
  "lng": 126.75539
 },
 {
  "name": "청라로또하엘점",
  "address": "인천 서구 청라한내로 96 112호(청라동, 하엘에스페이스)",
  "combination": "자동",
  "lat": 37.533867,
  "lng": 126.62774
 },
 {
  "name": "훼미리그랜드",
  "address": "광주 동구 의재로 34-1 CU그랜드점내",
  "combination": "수동",
  "lat": 35.13252,
  "lng": 126.931366
 },
 {
  "name": "복권나라(매곡동)",
  "address": "광주 북구 서하로  117 101호 (매곡동)",
  "combination": "자동",
  "lat": 35.187523,
  "lng": 126.89344
 },
 {
  "name": "주택복권방",
  "address": "경기 안양시 만안구 장내로 102-1",
  "combination": "반자동",
  "lat": 37.395725,
  "lng": 126.91963
 },
 {
  "name": "씨스페이스 아산모종로또점",
  "address": "충남 아산시 문화로 329 1층 104호(씨스페이스 편의점)",
  "combination": "자동",
  "lat": 36.78353,
  "lng": 127.01733
 },
 {
  "name": "복돼지복권방",
  "address": "전북 익산시 선화로1길 4 배산시티프라자 배산시티프라자 1층 107호",
  "combination": "수동",
  "lat": 35.950245,
  "lng": 126.93804
 },
 {
  "name": "복권나라동성점",
  "address": "전남 순천시 연향번영길 94 동성아파트 상가113호",
  "combination": "자동",
  "lat": 34.950096,
  "lng": 127.51894
 }
]