[
 {
  "name": "복권나라",
  "address": "서울 관악구 은천로 40-1",
  "combination": "자동",
  "lat": 37.48599,
  "lng": 126.93982
 },
 {
  "name": "행운사",
  "address": "서울 노원구 석계로 8-1 1층",
  "combination": "자동",
  "lat": 37.615677,
  "lng": 127.064674
 },
 {
  "name": "헬로마트",
  "address": "서울 도봉구 도봉로170길 8,(도봉동)",
  "combination": "수동",
  "lat": 37.680374,
  "lng": 127.04596
 },
 {
  "name": "천하명당복권방",
  "address": "서울 송파구 백제고분로41길 7 1층",
  "combination": "수동",
  "lat": 37.506783,
  "lng": 127.10817
 },
 {
  "name": "용산로또가게",
  "address": "서울 용산구 신흥로 145 1층",
  "combination": "수동",
  "lat": 37.546104,
  "lng": 126.98163
 },
 {
  "name": "뉴빅마트",
  "address": "부산 기장군 정관중앙로 48 106호",
  "combination": "수동",
  "lat": 35.321114,
  "lng": 129.17929
 },
 {
  "name": "부일카서비스",
  "address": "부산 동구 자성로133번길 35",
  "combination": "반자동",
  "lat": 35.140015,
  "lng": 129.06306
 },
 {
  "name": "운수대통복권방",
  "address": "부산 부산진구 전포대로200번길 13",
  "combination": "자동",
  "lat": 35.154648,
  "lng": 129.0664
 },
 {
  "name": "경동플러스",
  "address": "부산 해운대구 세실로 30 경동G-PLUS아파트상가103",
  "combination": "수동",
  "lat": 35.168427,
  "lng": 129.17944
 },
 {
  "name": "행복드림",
  "address": "인천 계양구 장제로 879",
  "combination": "자동",
  "lat": 37.545467,
  "lng": 126.73878
 },
 {
  "name": "찬스센타백운점",
  "address": "인천 부평구 신촌로7번길 3",
  "combination": "자동",
  "lat": 37.484802,
  "lng": 126.708786
 },
 {
  "name": "1등복권방",
  "address": "인천 연수구 해돋이로 168 혜인프라자 104호",
  "combination": "수동",
  "lat": 37.395416,
  "lng": 126.64522
 },
 {
  "name": "복권방",
  "address": "인천 연수구 비류대로433번길 10 103호",
  "combination": "자동",
  "lat": 37.424713,
  "lng": 126.68303
 },
 {
  "name": "열매로또복권",
  "address": "대전 유성구 은구비서로 31-1 102호, 지족동",
  "combination": "자동",
  "lat": 36.37504,
  "lng": 127.32048
 },
 {
  "name": "영화유통(1등복권방)",
  "address": "울산 남구 신정로 19 삼성아파트 상가 204-101",
  "combination": "수동",
  "lat": 35.533833,
  "lng": 129.32205
 },
 {
  "name": "둘리복권방",
  "address": "경기 시흥시 중심상가2길 12-6 한강프라자제1층101호",
  "combination": "수동",
  "lat": 37.345314,
  "lng": 126.73626
 },
 {
  "name": "로또판매점",
  "address": "경기 안산시 상록구 영화6길 21-1 102호",
  "combination": "수동",
  "lat": 37.280636,
  "lng": 126.85183
 },
 {
  "name": "지우시스템",
  "address": "경기 안성시 덕봉서원로 43 1층",
  "combination": "수동",
  "lat": 37.007587,
  "lng": 127.16985
 },
 {
  "name": "미니슈퍼",
  "address": "경기 의정부시 시민로 269 장령상가 1층",
  "combination": "수동",
  "lat": 37.735577,
  "lng": 127.06079
 },
 {
  "name": "이마트24운정유미어스",
  "address": "경기 파주시 경의로 1012 113",
  "combination": "자동",
  "lat": 37.707813,
  "lng": 126.759514
 },
 {
  "name": "역전로또",
  "address": "충남 아산시 중앙로 55 1층 104호",
  "combination": "수동",
  "lat": 36.7799,
  "lng": 127.00338
 },
 {
  "name": "G(금정)마트휴게실",
  "address": "전북 군산시 조촌로 66",
  "combination": "자동",
  "lat": 35.969856,
  "lng": 126.73807
 },
 {
  "name": "노다지복권판매점",
  "address": "전북 전주시 덕진구 팽나무4길 13",
  "combination": "자동",
  "lat": 35.83531,
  "lng": 127.15462
 },
 {
  "name": "부자복권방",
  "address": "전북 전주시 완산구 서곡4길 45-4",
  "combination": "자동",
  "lat": 35.832405,
  "lng": 127.10309
 },
 {
  "name": "동일설비 명성복권",
  "address": "경북 안동시 경동로 913",
  "combination": "수동",
  "lat": 36.55692,
  "lng": 128.75537
 },
 {
  "name": "로또통신",
  "address": "경남 김해시 함박로101번길 22 삼우빌딩104호 복권판매점",
  "combination": "수동",
  "lat": 35.234215,
  "lng": 128.86583
 },
 {
  "name": "남문복권판매점",
  "address": "경남 창원시 진해구 웅천동로 126 상가107호",
  "combination": "자동",
  "lat": 35.106487,
  "lng": 128.75104
 },
 {
  "name": "아리랑마트",
  "address": "경남 창원시 진해구 충장로 438",
  "combination": "수동",
  "lat": 35.149624,
  "lng": 128.69774
 }
]