[
 {
  "name": "정원복권방",
  "address": "서울 도봉구 도봉로 468 흥일빌딩 1층 101-3호",
  "combination": "자동",
  "lat": 37.64732,
  "lng": 127.03438
 },
 {
  "name": "대구상회",
  "address": "서울 마포구 토정로31길 51",
  "combination": "반자동",
  "lat": 37.54305,
  "lng": 126.94379
 },
 {
  "name": "용꿈돼지꿈",
  "address": "서울 송파구 성내천로6길 3",
  "combination": "반자동",
  "lat": 37.503735,
  "lng": 127.13587
 },
 {
  "name": "가로매점",
  "address": "서울 종로구 종로 186 우리은행 우리은행앞 가판",
  "combination": "수동",
  "lat": 37.570404,
  "lng": 126.99847
 },
 {
  "name": "복권천국",
  "address": "대구 동구 화랑로 419",
  "combination": "반자동",
  "lat": 35.87686,
  "lng": 128.66988
 },
 {
  "name": "왕대박복권편의점",
  "address": "인천 부평구 동수천로 108 1층",
  "combination": "수동",
  "lat": 37.495102,
  "lng": 126.73705
 },
 {
  "name": "한아름 복권판매점",
  "address": "경기 광주시 광동로 50",
  "combination": "자동",
  "lat": 37.470287,
  "lng": 127.308075
 },
 {
  "name": "대박로또",
  "address": "경기 부천시 중동로420번길 6 103호",
  "combination": "자동",
  "lat": 37.517273,
  "lng": 126.77038
 },
 {
  "name": "태인(금돼지) 복권",
  "address": "경기 성남시 분당구 돌마로 85 제105호(금곡동, 동양프라자)",
  "combination": "수동",
  "lat": 37.35035,
  "lng": 127.11133
 },
 {
  "name": "드림복권방",
  "address": "경기 수원시 권선구 정조로 515",
  "combination": "자동",
  "lat": 37.25527,
  "lng": 127.011055
 },
 {
  "name": "동해복권방",
  "address": "강원 강릉시 하평길 40",
  "combination": "수동",
  "lat": 37.770157,
  "lng": 128.91298
 },
 {
  "name": "금강산로또",
  "address": "강원 양구군 춘양로 2888 1층",
  "combination": "수동",
  "lat": 38.10661,
  "lng": 127.98897
 },
 {
  "name": "금강산로또",
  "address": "강원 양구군 춘양로 2888 1층",
  "combination": "수동",
  "lat": 38.10661,
  "lng": 127.98897
 },
 {
  "name": "나래복권",
  "address": "충북 충주시 충원대로 952 1층",
  "combination": "반자동",
  "lat": 37.0107,
  "lng": 127.91579
 },
 {
  "name": "작은신부",
  "address": "충남 서산시 구진로 6",
  "combination": "자동",
  "lat": 36.936096,
  "lng": 126.43599
 },
 {
  "name": "로또명당인주점",
  "address": "충남 아산시 서해로 519-2",
  "combination": "자동",
  "lat": 36.87784,
  "lng": 126.89828
 },
 {
  "name": "복권나라",
  "address": "전북 군산시 번영로 891",
  "combination": "수동",
  "lat": 35.94672,
  "lng": 126.81039
 },
 {
  "name": "동행복권",
  "address": "경남 사천시 중앙로 182-1",
  "combination": "자동",
  "lat": 34.942078,
  "lng": 128.08101
 },
 {
  "name": "로또복권방",
  "address": "경남 진주시 모덕로 223 1층",
  "combination": "반자동",
  "lat": 35.18876,
  "lng": 128.11842
 }
]