[
 {
  "name": "로또킹",
  "address": "서울 영등포구 영중로 2 1층(영등포동3가)",
  "combination": "수동",
  "lat": 37.516743,
  "lng": 126.906746
 },
 {
  "name": "봄동로또",
  "address": "대구 수성구 지범로 252 지하1층상가",
  "combination": "자동",
  "lat": 35.817497,
  "lng": 128.64503
 },
 {
  "name": "굳프렌즈일산현대-24시편의점",
  "address": "경기 고양시 일산서구 일청로 40-1 1층",
  "combination": "자동",
  "lat": 37.687454,
  "lng": 126.77226
 },
 {
  "name": "SoundWave",
  "address": "경기 광명시 오리로 956",
  "combination": "자동",
  "lat": 37.47889,
  "lng": 126.85691
 },
 {
  "name": "푸시케",
  "address": "경기 구리시 경춘로 223 CU구리명동점 내",
  "combination": "자동",
  "lat": 37.60092,
  "lng": 127.140045
 },
 {
  "name": "복터진날",
  "address": "경기 안성시 진사길 31 우림아파트상가 B-03호",
  "combination": "자동",
  "lat": 36.991642,
  "lng": 127.14038
 },
 {
  "name": "프림",
  "address": "경기 평택시 서해로 1402 GS편의점 내",
  "combination": "수동",
  "lat": 37.0175,
  "lng": 126.94532
 },
 {
  "name": "일등복권방",
  "address": "충남 아산시 음봉로 307 101호 CU편의점",
  "combination": "자동",
  "lat": 36.84568,
  "lng": 127.04508
 },
 {
  "name": "동행복권 시청점",
  "address": "전남 광양시 행정2길 2",
  "combination": "자동",
  "lat": 34.941307,
  "lng": 127.69642
 },
 {
  "name": "로또복권4공단점",
  "address": "경북 구미시 첨단기업1로 18",
  "combination": "자동",
  "lat": 36.140465,
  "lng": 128.43942
 },
 {
  "name": "탑로또",
  "address": "경남 거제시 거제중앙로 1787 서원탑훼밀리마트 서원탑훼밀리마트고현점 내(계룡온천옆)",
  "combination": "자동",
  "lat": 34.878452,
  "lng": 128.62807
 },
 {
  "name": "복권판매점",
  "address": "경남 고성군 남포로  62 2동 101호(덕성아파트)",
  "combination": "반자동",
  "lat": 34.968727,
  "lng": 128.32092
 },
 {
  "name": "외동복권",
  "address": "경남 김해시 동남로49번길 83 GS25 김해대동점",
  "combination": "자동",
  "lat": 35.236355,
  "lng": 128.98598
 },
 {
  "name": "명당",
  "address": "경남 진주시 동부로 1356 1층 일부호",
  "combination": "자동",
  "lat": 35.18731,
  "lng": 128.22482
 },
 {
  "name": "산호 복권방",
  "address": "경남 창원시 마산합포구 합포로 126-1 1층",
  "combination": "수동",
  "lat": 35.209354,
  "lng": 128.58305
 }
]