[
 {
  "name": "사당명당 복권방",
  "address": "서울 동작구 동작대로7길 74 1층 103호",
  "combination": "자동",
  "lat": 37.4779,
  "lng": 126.97859
 },
 {
  "name": "오케이상사",
  "address": "서울 서초구 신반포로 176 센트럴시티내100호매점",
  "combination": "수동",
  "lat": 37.504353,
  "lng": 127.00359
 },
 {
  "name": "가판14호",
  "address": "서울 중구 퇴계로 37",
  "combination": "수동",
  "lat": 37.557816,
  "lng": 126.97671
 },
 {
  "name": "세종로또방",
  "address": "세종 용포로 32",
  "combination": "자동",
  "lat": 36.461655,
  "lng": 127.280685
 },
 {
  "name": "로또.토토.블루베리",
  "address": "경기 평택시 안현로서6길 7 대건빌딩 105호",
  "combination": "자동",
  "lat": 36.98331,
  "lng": 126.928055
 },
 {
  "name": "동해복권전문점",
  "address": "강원 동해시 발한로 226-1",
  "combination": "수동",
  "lat": 37.549698,
  "lng": 129.10861
 },
 {
  "name": "오창돼지토토",
  "address": "충북 청주시 청원구 2산단3로 12 101호",
  "combination": "자동",
  "lat": 36.73606,
  "lng": 127.45501
 },
 {
  "name": "로또매점",
  "address": "충남 당진시 송산로 723",
  "combination": "수동",
  "lat": 36.953873,
  "lng": 126.68932
 },
 {
  "name": "로또명당인주점",
  "address": "충남 아산시 서해로 519-2",
  "combination": "수동",
  "lat": 36.87784,
  "lng": 126.89828
 },
 {
  "name": "한남마트 왔다복권",
  "address": "충남 천안시 서북구 서부16길 9",
  "combination": "수동",
  "lat": 36.823116,
  "lng": 127.13769
 },
 {
  "name": "복조리복권방",
  "address": "전북 장수군 장계면 장계천변길 55-4",
  "combination": "수동",
  "lat": 35.731014,
  "lng": 127.58352
 },
 {
  "name": "로또복권맥",
  "address": "전남 여수시 여문1로 52",
  "combination": "수동",
  "lat": 34.753353,
  "lng": 127.70449
 },
 {
  "name": "로또판매점",
  "address": "경남 창원시 마산합포구 문화북1길 37 1층",
  "combination": "자동",
  "lat": 35.187454,
  "lng": 128.56114
 }
]