[
 {
  "name": "인동상회",
  "address": "서울 노원구 한글비석로 396 벽산아파트상가108-116",
  "combination": "자동",
  "lat": 37.661465,
  "lng": 127.07279
 },
 {
  "name": "동아슈퍼",
  "address": "서울 노원구 노원로 522 9단지유치원104호",
  "combination": "자동",
  "lat": 37.661198,
  "lng": 127.060974
 },
 {
  "name": "인터넷 복권판매사이트",
  "address": "동행복권(dhlottery.co.kr)",
  "combination": "수동",
  "lat": 37.482063,
  "lng": 127.015785
 },
 {
  "name": "인터넷 복권판매사이트",
  "address": "동행복권(dhlottery.co.kr)",
  "combination": "반자동",
  "lat": 37.482063,
  "lng": 127.015785
 },
 {
  "name": "씨유석촌역점복권점",
  "address": "서울 송파구 송파대로 408 하림빌딩 1층",
  "combination": "자동",
  "lat": 37.503704,
  "lng": 127.10897
 },
 {
  "name": "복권방",
  "address": "부산 사하구 장림번영로 25",
  "combination": "자동",
  "lat": 35.081005,
  "lng": 128.96823
 },
 {
  "name": "일등복권편의점",
  "address": "대구 달서구 대명천로 220 1층",
  "combination": "자동",
  "lat": 35.84214,
  "lng": 128.53621
 },
 {
  "name": "노다지복권방진월점",
  "address": "광주 남구 서문대로 649 백두장식 1층2호",
  "combination": "자동",
  "lat": 35.117504,
  "lng": 126.89823
 },
 {
  "name": "대박로또",
  "address": "울산 남구 번영로75번길 38",
  "combination": "수동",
  "lat": 35.531364,
  "lng": 129.3259
 },
 {
  "name": "대박로또",
  "address": "울산 남구 번영로75번길 38",
  "combination": "수동",
  "lat": 35.531364,
  "lng": 129.3259
 },
 {
  "name": "진우행운복권방",
  "address": "경기 광주시 도척로 327 1층",
  "combination": "자동",
  "lat": 37.323624,
  "lng": 127.336555
 },
 {
  "name": "서현로또",
  "address": "경기 성남시 분당구 서현로180번길 19 비전월드 101-3호",
  "combination": "자동",
  "lat": 37.387604,
  "lng": 127.12263
 },
 {
  "name": "버스가판대",
  "address": "경기 성남시 중원구 성남대로 1144",
  "combination": "수동",
  "lat": 37.431805,
  "lng": 127.12956
 },
 {
  "name": "화랑로또판매점",
  "address": "경기 화성시 푸른들판로 660 정수상가",
  "combination": "자동",
  "lat": 37.167336,
  "lng": 126.89571
 },
 {
  "name": "복권명가",
  "address": "강원 동해시 송정로 47-1 102호",
  "combination": "자동",
  "lat": 37.497463,
  "lng": 129.12495
 },
 {
  "name": "로또스튜디오",
  "address": "충북 청주시 청원구 사뜸로 48-1 1층",
  "combination": "자동",
  "lat": 36.666542,
  "lng": 127.48148
 },
 {
  "name": "문화럭키 판매점",
  "address": "충북 충주시 사직로 257-1 1층 2호",
  "combination": "자동",
  "lat": 36.96946,
  "lng": 127.921295
 },
 {
  "name": "이마트24시 R신대부적점",
  "address": "경북 경산시 대학로 386  1층",
  "combination": "수동",
  "lat": 35.842033,
  "lng": 128.7622
 },
 {
  "name": "로또통신",
  "address": "경남 김해시 함박로101번길 22 삼우빌딩104호 복권판매점",
  "combination": "자동",
  "lat": 35.234215,
  "lng": 128.86583
 }
]