[
 {
  "name": "행운의집",
  "address": "서울 광진구 능동로19길 7",
  "combination": "자동",
  "lat": 37.54692,
  "lng": 127.07332
 },
 {
  "name": "행복로또",
  "address": "서울 마포구 마포대로 173 마포현대하이엘 101호",
  "combination": "자동",
  "lat": 37.549904,
  "lng": 126.95445
 },
 {
  "name": "공항상회로또판매점",
  "address": "부산 강서구 평강로 185-1",
  "combination": "수동",
  "lat": 35.20253,
  "lng": 128.941
 },
 {
  "name": "복권천국",
  "address": "부산 서구 구덕로 207-1",
  "combination": "수동",
  "lat": 35.10316,
  "lng": 129.01976
 },
 {
  "name": "대박스타",
  "address": "인천 미추홀구 경인로 348 1층",
  "combination": "자동",
  "lat": 37.458347,
  "lng": 126.678635
 },
 {
  "name": "천하명당복권전문점",
  "address": "광주 광산구 사암로216번길 10-9",
  "combination": "자동",
  "lat": 35.16294,
  "lng": 126.80916
 },
 {
  "name": "태양정보통신",
  "address": "경기 광주시 고불로 56 상가1층",
  "combination": "자동",
  "lat": 37.39323,
  "lng": 127.23178
 },
 {
  "name": "태양로또복권",
  "address": "경기 군포시 송부로96번길  13 상가동 104호(도마교동, 금강펜테리움센트럴파크)",
  "combination": "수동",
  "lat": 37.315384,
  "lng": 126.9244
 },
 {
  "name": "로또대박",
  "address": "경기 부천시 석천로177번길 11 제이클래스중동 1층 105호",
  "combination": "반자동",
  "lat": 37.503178,
  "lng": 126.76193
 },
 {
  "name": "주택복권방",
  "address": "경기 용인시 수지구 풍덕천로 144-1 103호",
  "combination": "자동",
  "lat": 37.323883,
  "lng": 127.09745
 },
 {
  "name": "노다지복권",
  "address": "강원 횡성군 문정로 52",
  "combination": "수동",
  "lat": 37.488537,
  "lng": 127.98868
 },
 {
  "name": "시민슈퍼",
  "address": "충남 서산시 문화로 51",
  "combination": "자동",
  "lat": 36.785652,
  "lng": 126.44792
 },
 {
  "name": "대박찬스",
  "address": "전북 군산시 칠성로 164",
  "combination": "자동",
  "lat": 35.969368,
  "lng": 126.67934
 },
 {
  "name": "세븐일레븐 성주대교점",
  "address": "경북 성주군 소학2길 34 1층 세븐일레븐 편의점",
  "combination": "수동",
  "lat": 35.88315,
  "lng": 128.38068
 }
]