[
 {
  "name": "버스카드충전소",
  "address": "서울 서초구 신반포로 205 반포쇼핑타운 6동쇼핑앞",
  "combination": "자동",
  "lat": 37.506935,
  "lng": 127.00612
 },
 {
  "name": "사당역14번출구로또판매점",
  "address": "서울 서초구 방배천로2길 10 1층 남쪽상가(방배동)",
  "combination": "자동",
  "lat": 37.47664,
  "lng": 126.98323
 },
 {
  "name": "대박로또방",
  "address": "인천 미추홀구 낙섬서로 46",
  "combination": "수동",
  "lat": 37.453266,
  "lng": 126.636086
 },
 {
  "name": "복권천국",
  "address": "인천 부평구 평천로 306 양영빌딩1층",
  "combination": "수동",
  "lat": 37.51709,
  "lng": 126.72441
 },
 {
  "name": "명당골복권방",
  "address": "경기 수원시 권선구 동수원로242번길 15 104호",
  "combination": "자동",
  "lat": 37.251095,
  "lng": 127.03546
 },
 {
  "name": "천하명당복권방",
  "address": "경기 수원시 팔달구 매산로 2",
  "combination": "자동",
  "lat": 37.26661,
  "lng": 127.00185
 },
 {
  "name": "인제복권방",
  "address": "강원 인제군 비봉로 11-1",
  "combination": "수동",
  "lat": 38.068172,
  "lng": 128.17274
 },
 {
  "name": "터미널복권방",
  "address": "전북 정읍시 연지8길 6",
  "combination": "자동",
  "lat": 35.57231,
  "lng": 126.84499
 },
 {
  "name": "정원로또",
  "address": "경북 경주시 구부랑길 42 에이동(남쪽 끝편2번?상가)",
  "combination": "자동",
  "lat": 36.001186,
  "lng": 129.19685
 },
 {
  "name": "왕대박복권방",
  "address": "경북 문경시 중앙로 15,(모전동)",
  "combination": "자동",
  "lat": 36.588123,
  "lng": 128.19293
 },
 {
  "name": "천하명당",
  "address": "경남 창원시 의창구 읍성로 70 1층 4호,25호",
  "combination": "자동",
  "lat": 35.264942,
  "lng": 128.62552
 },
 {
  "name": "돌하르방복권",
  "address": "제주 서귀포시 태평로353번길 9",
  "combination": "자동",
  "lat": 33.246986,
  "lng": 126.56006
 }
]