[
 {
  "name": "인터넷 복권판매사이트",
  "address": "동행복권(dhlottery.co.kr)",
  "combination": "수동",
  "lat": 37.482063,
  "lng": 127.015785
 },
 {
  "name": "영광정보통신",
  "address": "서울 성북구 화랑로 92 1층 우측1호",
  "combination": "수동",
  "lat": 37.602676,
  "lng": 127.0425
 },
 {
  "name": "지에스25 월성파크",
  "address": "대구 달서구 상원로 195 GS25월성파크점",
  "combination": "자동",
  "lat": 35.823997,
  "lng": 128.52538
 },
 {
  "name": "지에스25 계산브래뉴점",
  "address": "인천 계양구 계양대로 215 1층 107호",
  "combination": "자동",
  "lat": 37.54294,
  "lng": 126.721535
 },
 {
  "name": "주인공",
  "address": "인천 서구 원당대로 853 1층",
  "combination": "자동",
  "lat": 37.59381,
  "lng": 126.696205
 },
 {
  "name": "알리바이",
  "address": "광주 광산구 수등로 253 1층 알리바이",
  "combination": "자동",
  "lat": 35.185387,
  "lng": 126.83668
 },
 {
  "name": "노다지복권방",
  "address": "충북 음성군 장감로 161-1 1층복권방",
  "combination": "자동",
  "lat": 36.992683,
  "lng": 127.5975
 },
 {
  "name": "청룡로또판매점",
  "address": "충남 당진시 청룡길 159 용기빌딩",
  "combination": "자동",
  "lat": 36.888615,
  "lng": 126.63263
 },
 {
  "name": "777천하명당",
  "address": "충남 서천군 충절로 54",
  "combination": "자동",
  "lat": 36.074856,
  "lng": 126.68902
 },
 {
  "name": "로또명당인주점",
  "address": "충남 아산시 서해로 519-2",
  "combination": "자동",
  "lat": 36.87784,
  "lng": 126.89828
 },
 {
  "name": "로또명당 신마산점",
  "address": "경남 창원시 마산합포구 문화동7길 3 1층",
  "combination": "자동",
  "lat": 35.184795,
  "lng": 128.5606
 }
]