[
 {
  "name": "인터넷 복권판매사이트",
  "address": "동행복권(dhlottery.co.kr)",
  "combination": "자동",
  "lat": 37.482063,
  "lng": 127.015785
 },
 {
  "name": "로그인편의점",
  "address": "서울 성동구 천호대로 430 103호 로그인편의점",
  "combination": "수동",
  "lat": 37.5608,
  "lng": 127.06653
 },
 {
  "name": "제일복권",
  "address": "인천 동구 송림로162번길 10 B107",
  "combination": "자동",
  "lat": 37.477863,
  "lng": 126.650566
 },
 {
  "name": "또로또",
  "address": "울산 남구 신정로68번길 47",
  "combination": "자동",
  "lat": 35.53928,
  "lng": 129.32616
 },
 {
  "name": "행운로또",
  "address": "울산 남구 대공원로 95",
  "combination": "자동",
  "lat": 35.53202,
  "lng": 129.29398
 },
 {
  "name": "로또명가",
  "address": "세종   새내로 84",
  "combination": "자동",
  "lat": 36.599396,
  "lng": 127.2986
 },
 {
  "name": "문구백화점",
  "address": "경기 광주시 중앙로 120",
  "combination": "자동",
  "lat": 37.410374,
  "lng": 127.258095
 },
 {
  "name": "나눔로또 판교역점",
  "address": "경기 성남시 분당구 대왕판교로606번길 39 107호",
  "combination": "자동",
  "lat": 37.396473,
  "lng": 127.11148
 },
 {
  "name": "노다지복권",
  "address": "강원 횡성군 문정로 52",
  "combination": "자동",
  "lat": 37.488537,
  "lng": 127.98868
 },
 {
  "name": "콕콕로또명당옥천점",
  "address": "충북 옥천군 서대구일로 265-19 옥천하휴게소",
  "combination": "자동",
  "lat": 36.29677,
  "lng": 127.59518
 },
 {
  "name": "대동도기상사",
  "address": "경북 영천시 금완로 30",
  "combination": "자동",
  "lat": 35.960327,
  "lng": 128.93187
 },
 {
  "name": "노다지복권방",
  "address": "경남 창녕군 창녕읍 명덕로 49",
  "combination": "자동",
  "lat": 35.54299,
  "lng": 128.49487
 }
]