[
 {
  "name": "스파",
  "address": "서울 노원구 동일로 1493 상계주공아파트(10단지) 주공10단지종합상가111",
  "combination": "자동",
  "lat": 37.66166,
  "lng": 127.05787
 },
 {
  "name": "오늘로또복권판매점",
  "address": "서울 동대문구 한천로 133 건물우측기준 2번째점포 복권방",
  "combination": "자동",
  "lat": 37.573135,
  "lng": 127.06629
 },
 {
  "name": "로또명당(유가테크노점)",
  "address": "대구 달성군 테크노상업로4길 7-4 1층 신참떡복이  내",
  "combination": "자동",
  "lat": 35.69298,
  "lng": 128.46121
 },
 {
  "name": "대박복권",
  "address": "인천 부평구 경인로 973",
  "combination": "자동",
  "lat": 37.48759,
  "lng": 126.72785
 },
 {
  "name": "케이케이물류",
  "address": "경기 수원시 팔달구 동말로 60",
  "combination": "자동",
  "lat": 37.27863,
  "lng": 127.00065
 },
 {
  "name": "다니엘사",
  "address": "경기 안산시 단원구 원선1로 38 두산위브아파트 101호",
  "combination": "자동",
  "lat": 37.326073,
  "lng": 126.80417
 },
 {
  "name": "복권왕국",
  "address": "충북 제천시 풍양로 108 중앙시장상가 지하145",
  "combination": "자동",
  "lat": 37.136654,
  "lng": 128.2113
 },
 {
  "name": "완산로또방",
  "address": "경북 영천시 역전로 21-1",
  "combination": "자동",
  "lat": 35.96226,
  "lng": 128.93616
 },
 {
  "name": "GS25(덕산제일점)",
  "address": "경남 창원시 진해구 충장로 505",
  "combination": "자동",
  "lat": 35.1442,
  "lng": 128.70134
 }
]