[
 {
  "name": "복권마을",
  "address": "서울 구로구 구로동로 72",
  "combination": "자동",
  "lat": 37.485348,
  "lng": 126.88605
 },
 {
  "name": "영광생활유통",
  "address": "서울 금천구 범안로 1186",
  "combination": "자동",
  "lat": 37.46633,
  "lng": 126.89345
 },
 {
  "name": "돈벼락맞는곳",
  "address": "부산 기장군 읍내로 109",
  "combination": "수동",
  "lat": 35.24525,
  "lng": 129.21635
 },
 {
  "name": "1등로또방",
  "address": "광주 동구 중앙로 249-2",
  "combination": "자동",
  "lat": 35.15431,
  "lng": 126.92017
 },
 {
  "name": "대박복권판매점",
  "address": "경기 고양시 덕양구 충장로 8 115호 일부",
  "combination": "자동",
  "lat": 37.61341,
  "lng": 126.83368
 },
 {
  "name": "대운",
  "address": "경기 김포시 대명항로 209",
  "combination": "수동",
  "lat": 37.653645,
  "lng": 126.595695
 },
 {
  "name": "금강복권",
  "address": "경기 김포시 율생로 3",
  "combination": "수동",
  "lat": 37.652786,
  "lng": 126.59066
 },
 {
  "name": "왕대박 복권방",
  "address": "전남 나주시 문화로 226 1층 102호(빛가람동, 키움해피라움2차)",
  "combination": "반자동",
  "lat": 35.01894,
  "lng": 126.78494
 },
 {
  "name": "로터리편의마트",
  "address": "경북 포항시 북구 서동로 85 육거리",
  "combination": "자동",
  "lat": 36.040768,
  "lng": 129.36725
 }
]