[
 {
  "name": "로또 명당 가판점",
  "address": "서울 금천구 남부순환로 1390 전영수내과의원 가판",
  "combination": "자동",
  "lat": 37.479816,
  "lng": 126.90518
 },
 {
  "name": "골든 메가 복권판매점",
  "address": "서울 동작구 동작대로 89 1층",
  "combination": "자동",
  "lat": 37.48467,
  "lng": 126.9817
 },
 {
  "name": "우리은행금호동지점앞가판",
  "address": "서울 성동구 장터길 46",
  "combination": "자동",
  "lat": 37.54814,
  "lng": 127.02097
 },
 {
  "name": "대박이네",
  "address": "광주 동구 제봉로 84",
  "combination": "수동",
  "lat": 35.14595,
  "lng": 126.92211
 },
 {
  "name": "훼미리마트",
  "address": "경기 포천시 중앙로 148 신읍동",
  "combination": "자동",
  "lat": 37.8993,
  "lng": 127.205414
 },
 {
  "name": "복돼지복권방",
  "address": "경기 화성시 3.1만세로 43",
  "combination": "자동",
  "lat": 37.08277,
  "lng": 126.81872
 },
 {
  "name": "복권명당(이마트24 온천대로점)",
  "address": "충남 아산시 곡교천로 161 101호",
  "combination": "자동",
  "lat": 36.79529,
  "lng": 126.99672
 },
 {
  "name": "청룡마트",
  "address": "충남 천안시 동남구 풍세로 1010-31 현대아파트상가B-102호",
  "combination": "반자동",
  "lat": 36.797386,
  "lng": 127.15389
 },
 {
  "name": "피씨마트",
  "address": "전북 군산시 경기장로 20",
  "combination": "자동",
  "lat": 35.96469,
  "lng": 126.75007
 },
 {
  "name": "제철로또대리점",
  "address": "전남 광양시 광장로 125 시티프라자A동116호",
  "combination": "자동",
  "lat": 34.935413,
  "lng": 127.693985
 },
 {
  "name": "코리아25시",
  "address": "경북 구미시 형곡동로 115",
  "combination": "자동",
  "lat": 36.112698,
  "lng": 128.33578
 },
 {
  "name": "지에스(GS)25 진동에이스점",
  "address": "경남 창원시 마산합포구 신서촌1길 49 1층 GS편의점내",
  "combination": "자동",
  "lat": 35.115906,
  "lng": 128.48639
 }
]