[
 {
  "name": "빅세일복권방",
  "address": "부산 부산진구 서면문화로 6",
  "combination": "자동",
  "lat": 35.158302,
  "lng": 129.05809
 },
 {
  "name": "공원슈퍼",
  "address": "경기 수원시 장안구 팔달로 255 1층(영화동)",
  "combination": "자동",
  "lat": 37.28874,
  "lng": 127.01298
 },
 {
  "name": "복권백화점",
  "address": "경기 파주시 평화로 70",
  "combination": "자동",
  "lat": 37.763588,
  "lng": 126.76989
 },
 {
  "name": "천하명당",
  "address": "경기 평택시 탄현로 224",
  "combination": "자동",
  "lat": 37.07261,
  "lng": 127.05525
 },
 {
  "name": "떡두꺼비복권방",
  "address": "강원 원주시 원문로 641 1층",
  "combination": "자동",
  "lat": 37.353,
  "lng": 127.89953
 },
 {
  "name": "현대장미슈퍼",
  "address": "전북 익산시 동서로61길 41 현대아파트1층108호",
  "combination": "자동",
  "lat": 35.95509,
  "lng": 126.98032
 },
 {
  "name": "금당로또복권",
  "address": "전남 순천시 대석길 8",
  "combination": "자동",
  "lat": 34.94558,
  "lng": 127.52357
 }
]