[
 {
  "name": "강서스포츠",
  "address": "서울 강서구 곰달래로 156-1",
  "combination": "자동",
  "lat": 37.550503,
  "lng": 126.84817
 },
 {
  "name": "우주문화사",
  "address": "서울 서초구 사평대로2길 10",
  "combination": "자동",
  "lat": 37.497963,
  "lng": 126.986206
 },
 {
  "name": "인터넷 복권판매사이트",
  "address": "동행복권(dhlottery.co.kr)",
  "combination": "자동",
  "lat": 37.482063,
  "lng": 127.015785
 },
 {
  "name": "드림공인중개사사무소",
  "address": "서울 양천구 목동중앙북로16길 3 광진상가1층104",
  "combination": "자동",
  "lat": 37.546005,
  "lng": 126.8739
 },
 {
  "name": "로또 앤 모바일",
  "address": "인천 계양구 장제로 998 1층",
  "combination": "수동",
  "lat": 37.554703,
  "lng": 126.74553
 },
 {
  "name": "꽃길로또방",
  "address": "경기 고양시 덕양구 꽃내음1길 21 1층 110호(향동동, 청우프라자)",
  "combination": "자동",
  "lat": 37.600433,
  "lng": 126.889885
 },
 {
  "name": "천하명당",
  "address": "경기 평택시 탄현로 224",
  "combination": "자동",
  "lat": 37.07261,
  "lng": 127.05525
 },
 {
  "name": "로또명당인주점",
  "address": "충남 아산시 서해로 519-2",
  "combination": "자동",
  "lat": 36.87784,
  "lng": 126.89828
 },
 {
  "name": "대박복권",
  "address": "충남 홍성군 충서로 2423 세븐일레븐",
  "combination": "자동",
  "lat": 36.63776,
  "lng": 126.74336
 },
 {
  "name": "씨스페이스 어방점",
  "address": "경남 김해시 인제로170번길 15-6 편의점 내",
  "combination": "자동",
  "lat": 35.244053,
  "lng": 128.90582
 },
 {
  "name": "양덕복권방",
  "address": "경남 창원시 마산회원구 합성옛길 23 1층",
  "combination": "수동",
  "lat": 35.23307,
  "lng": 128.58298
 }
]