[
 {
  "name": "로또 골드 뱅크",
  "address": "서울 은평구 진관3로 77 916동 1층상가 111호",
  "combination": "수동",
  "lat": 37.643276,
  "lng": 126.92117
 },
 {
  "name": "동성당",
  "address": "서울 종로구 청계천로 261",
  "combination": "수동",
  "lat": 37.569958,
  "lng": 127.00655
 },
 {
  "name": "뉴빅마트",
  "address": "부산 기장군 정관중앙로 48 106호",
  "combination": "자동",
  "lat": 35.321114,
  "lng": 129.17929
 },
 {
  "name": "G마트",
  "address": "부산 북구 백양대로 1024",
  "combination": "자동",
  "lat": 35.19702,
  "lng": 128.99542
 },
 {
  "name": "토토복권",
  "address": "대구 서구 달서로12길 9",
  "combination": "수동",
  "lat": 35.86758,
  "lng": 128.57208
 },
 {
  "name": "토토복권",
  "address": "대구 서구 달서로12길 9",
  "combination": "수동",
  "lat": 35.86758,
  "lng": 128.57208
 },
 {
  "name": "토토복권",
  "address": "대구 서구 달서로12길 9",
  "combination": "수동",
  "lat": 35.86758,
  "lng": 128.57208
 },
 {
  "name": "타임마트",
  "address": "대전 서구 동서대로 696 프라임빌딩2차 1층 102호",
  "combination": "자동",
  "lat": 36.331818,
  "lng": 127.3402
 },
 {
  "name": "씨유 트윈시티",
  "address": "경기 고양시 일산동구 위시티로 75 113호",
  "combination": "자동",
  "lat": 37.678833,
  "lng": 126.81109
 },
 {
  "name": "로또대박",
  "address": "경기 부천시 석천로177번길 11 제이클래스중동 1층 105호",
  "combination": "수동",
  "lat": 37.503178,
  "lng": 126.76193
 },
 {
  "name": "디딤슈퍼",
  "address": "경기 부천시 도약로 279",
  "combination": "자동",
  "lat": 37.510635,
  "lng": 126.78055
 },
 {
  "name": "로또대박",
  "address": "경기 부천시 석천로177번길 11 제이클래스중동 1층 105호",
  "combination": "수동",
  "lat": 37.503178,
  "lng": 126.76193
 },
 {
  "name": "로또통신",
  "address": "경기 안성시 장기로 36",
  "combination": "자동",
  "lat": 37.00587,
  "lng": 127.26738
 },
 {
  "name": "씨유 파주운천점",
  "address": "경기 파주시 통일로 2038-2 씨유 파주운천점",
  "combination": "자동",
  "lat": 37.880703,
  "lng": 126.76985
 },
 {
  "name": "구담쌀슈퍼",
  "address": "경북 안동시 경동로 908",
  "combination": "자동",
  "lat": 36.556965,
  "lng": 128.75449
 }
]