[
 {
  "name": "몽유호가(夢有好家)",
  "address": "서울 강동구 올림픽로 552 1층5호",
  "combination": "자동",
  "lat": 37.530838,
  "lng": 127.121025
 },
 {
  "name": "가판점",
  "address": "서울 서초구 효령로 283 가판",
  "combination": "자동",
  "lat": 37.4851,
  "lng": 127.01497
 },
 {
  "name": "가판대20호",
  "address": "서울 송파구 송파대로 365 석촌농협앞가판대20호",
  "combination": "수동",
  "lat": 37.500404,
  "lng": 127.111046
 },
 {
  "name": "복권방",
  "address": "부산 사하구 장림번영로 25",
  "combination": "자동",
  "lat": 35.081005,
  "lng": 128.96823
 },
 {
  "name": "행운복권방",
  "address": "대구 북구 학정동로 47",
  "combination": "자동",
  "lat": 35.94807,
  "lng": 128.56721
 },
 {
  "name": "노다지로또",
  "address": "인천 서구 완정로  179 검단제이원빌딩 108호",
  "combination": "수동",
  "lat": 37.602306,
  "lng": 126.65639
 },
 {
  "name": "알리바이",
  "address": "광주 광산구 수등로 253 1층 알리바이",
  "combination": "자동",
  "lat": 35.185387,
  "lng": 126.83668
 },
 {
  "name": "행운로또방",
  "address": "광주 서구 풍암순환로 183 우미아파트상가117동101호",
  "combination": "자동",
  "lat": 35.12672,
  "lng": 126.88115
 },
 {
  "name": "미니스톱 울산동진점",
  "address": "울산 동구 동진로 4 동서아트빌 1층 편의점",
  "combination": "자동",
  "lat": 35.486736,
  "lng": 129.42564
 },
 {
  "name": "수원명당복권방",
  "address": "경기 수원시 팔달구 경수대로507번길 14 107호(인계동)",
  "combination": "자동",
  "lat": 37.27159,
  "lng": 127.0274
 },
 {
  "name": "주택복권방",
  "address": "강원 원주시 우산초교길 29 1층",
  "combination": "수동",
  "lat": 37.36735,
  "lng": 127.937904
 },
 {
  "name": "복권나라",
  "address": "충북 증평군 중앙로 199-1",
  "combination": "수동",
  "lat": 36.783936,
  "lng": 127.58088
 },
 {
  "name": "로또",
  "address": "충남 아산시 번영로 18 미니스톱 아산파라뷰점",
  "combination": "자동",
  "lat": 36.785294,
  "lng": 126.99323
 },
 {
  "name": "신천하명당",
  "address": "충남 예산군 발연로 1 이마트 24 내",
  "combination": "자동",
  "lat": 36.698784,
  "lng": 126.8296
 },
 {
  "name": "씨스페이스 어방점",
  "address": "경남 김해시 인제로170번길 15-6 편의점 내",
  "combination": "자동",
  "lat": 35.244053,
  "lng": 128.90582
 }
]