[
 {
  "name": "복권마을(사당점)",
  "address": "서울 동작구 사당로 215 101호",
  "combination": "자동",
  "lat": 37.48449,
  "lng": 126.972046
 },
 {
  "name": "에스비 상사",
  "address": "서울 중구 퇴계로86길 29 1층",
  "combination": "자동",
  "lat": 37.564255,
  "lng": 127.019806
 },
 {
  "name": "행운복권방",
  "address": "부산 사상구 모라로 90-7",
  "combination": "자동",
  "lat": 35.18631,
  "lng": 128.98962
 },
 {
  "name": "로또공인중개사사무소",
  "address": "대구 중구 대봉로 212 1층 공인중개사사무소",
  "combination": "자동",
  "lat": 35.857677,
  "lng": 128.60196
 },
 {
  "name": "당하복권명당",
  "address": "인천 서구 서곶로 788",
  "combination": "수동",
  "lat": 37.587936,
  "lng": 126.67538
 },
 {
  "name": "우타코비",
  "address": "인천 서구 승학로 470 1층 105호",
  "combination": "수동",
  "lat": 37.56361,
  "lng": 126.673615
 },
 {
  "name": "삼성로또",
  "address": "인천 연수구 학나래로6번길 56",
  "combination": "자동",
  "lat": 37.42539,
  "lng": 126.69818
 },
 {
  "name": "1등로또방",
  "address": "광주 동구 중앙로 249-2",
  "combination": "자동",
  "lat": 35.15431,
  "lng": 126.92017
 },
 {
  "name": "영화복권(버들점)",
  "address": "광주 서구 상무버들로 32",
  "combination": "자동",
  "lat": 35.164616,
  "lng": 126.86002
 },
 {
  "name": "로또대박",
  "address": "세종  장척로 571",
  "combination": "수동",
  "lat": 37.499294,
  "lng": 127.22131
 },
 {
  "name": "로또대박",
  "address": "세종  장척로 571",
  "combination": "수동",
  "lat": 37.499294,
  "lng": 127.22131
 },
 {
  "name": "행운드림로또\u0026토토",
  "address": "경기 김포시 초당로16번길 77 1층 106호",
  "combination": "수동",
  "lat": 37.63979,
  "lng": 126.67515
 },
 {
  "name": "삐삐문구",
  "address": "경기 남양주시 사릉로 403",
  "combination": "반자동",
  "lat": 37.656082,
  "lng": 127.17968
 },
 {
  "name": "또와복권",
  "address": "경기 수원시 권선구 구운로 46-1 1층 103호",
  "combination": "수동",
  "lat": 37.27603,
  "lng": 127.02496
 },
 {
  "name": "대박 로또",
  "address": "경기 수원시 장안구 수성로261번길 81 신협 1층(정자동)",
  "combination": "자동",
  "lat": 37.29295,
  "lng": 126.99854
 },
 {
  "name": "예원로또복권판매점",
  "address": "경기 안양시 만안구 만안로 461 제1호",
  "combination": "자동",
  "lat": 37.4186,
  "lng": 126.90874
 },
 {
  "name": "로또휴게실",
  "address": "경기 용인시 기흥구 용구대로 1885",
  "combination": "자동",
  "lat": 37.256386,
  "lng": 127.10432
 },
 {
  "name": "행복로또판매점",
  "address": "경기 의정부시 오목로 219 106호",
  "combination": "수동",
  "lat": 37.745884,
  "lng": 127.09935
 },
 {
  "name": "럭키 복권방",
  "address": "경기 의정부시 의정로22번길 29 1층(의정부동)",
  "combination": "자동",
  "lat": 37.734978,
  "lng": 127.0366
 },
 {
  "name": "행복로또판매점",
  "address": "경기 의정부시 오목로 219 106호",
  "combination": "수동",
  "lat": 37.745884,
  "lng": 127.09935
 },
 {
  "name": "복터졌다 복권방",
  "address": "충남 아산시 온천대로 1510-10",
  "combination": "자동",
  "lat": 36.78049,
  "lng": 127.005264
 },
 {
  "name": "로또복권두정점",
  "address": "충남 천안시 서북구 두정로 251 대원빌딩104호",
  "combination": "자동",
  "lat": 36.833515,
  "lng": 127.14499
 },
 {
  "name": "천하명당복권방",
  "address": "경북 포항시 남구 중섬로 26",
  "combination": "자동",
  "lat": 36.013783,
  "lng": 129.34744
 }
]