[
 {
  "name": "신성복권",
  "address": "서울 강남구 학동로 503 한성빌딩",
  "combination": "자동",
  "lat": 37.51919,
  "lng": 127.05076
 },
 {
  "name": "6/45 로또",
  "address": "서울 강동구 아리수로93가길 87 상가 105호",
  "combination": "수동",
  "lat": 37.570454,
  "lng": 127.1696
 },
 {
  "name": "복권방 담배",
  "address": "서울 도봉구 도당로 91,(방학동)",
  "combination": "자동",
  "lat": 37.66569,
  "lng": 127.03695
 },
 {
  "name": "평화슈퍼",
  "address": "서울 은평구 연서로 198-1,(대조동)",
  "combination": "수동",
  "lat": 37.61628,
  "lng": 126.919014
 },
 {
  "name": "백금당",
  "address": "부산 중구 중구로29번길 26",
  "combination": "자동",
  "lat": 35.100513,
  "lng": 129.02731
 },
 {
  "name": "왕대박",
  "address": "대구 남구 대명로 51 A동1층7호(데명동,삼아맨션)",
  "combination": "자동",
  "lat": 35.839317,
  "lng": 128.56299
 },
 {
  "name": "대박로또판매점",
  "address": "경기 수원시 장안구 서부로 2129-1 태양공예가구",
  "combination": "자동",
  "lat": 37.298717,
  "lng": 126.97125
 },
 {
  "name": "주택복권방",
  "address": "경기 용인시 수지구 풍덕천로 144-1 103호",
  "combination": "자동",
  "lat": 37.323883,
  "lng": 127.09745
 },
 {
  "name": "드림복권방",
  "address": "경기 의정부시 청사로5번길 8-17 1층 112호(신곡동,센타프라자)",
  "combination": "자동",
  "lat": 37.74958,
  "lng": 127.070015
 },
 {
  "name": "혁신대박",
  "address": "충북 음성군 원중로 1434  103호(에스타워)",
  "combination": "수동",
  "lat": 36.909523,
  "lng": 127.54108
 },
 {
  "name": "신불당 아이캔로또",
  "address": "충남 천안시 서북구 불당25로 226 골든스퀘어빌딩 118호",
  "combination": "자동",
  "lat": 36.82206,
  "lng": 127.1112
 },
 {
  "name": "로또복권판매도통점",
  "address": "전북 남원시 용성로 232,(도통동)",
  "combination": "자동",
  "lat": 35.41778,
  "lng": 127.39722
 },
 {
  "name": "행운복권방 보생당건강원",
  "address": "전북 익산시 무왕로 1268",
  "combination": "자동",
  "lat": 35.960304,
  "lng": 126.99727
 },
 {
  "name": "행운복권나라",
  "address": "전남 광양시 대림오성로 146-1",
  "combination": "수동",
  "lat": 34.964733,
  "lng": 127.57778
 },
 {
  "name": "복권세상",
  "address": "전남 목포시 청호로 139 1층 복권세상",
  "combination": "자동",
  "lat": 34.8039,
  "lng": 126.37585
 },
 {
  "name": "복권왕국",
  "address": "전남 여수시 여수산단로 48 1층101호",
  "combination": "수동",
  "lat": 34.740177,
  "lng": 127.73026
 },
 {
  "name": "신세계",
  "address": "제주 제주시 고마로14길 7",
  "combination": "자동",
  "lat": 33.506073,
  "lng": 126.54025
 }
]