[
 {
  "name": "골드리치",
  "address": "서울 강남구 자곡로 192 1층 102호(강남푸르지오시티 2차)",
  "combination": "자동",
  "lat": 37.474518,
  "lng": 127.10392
 },
 {
  "name": "한마음",
  "address": "서울 관악구 관악로 211 봉천중앙시장라열4호",
  "combination": "자동",
  "lat": 37.48357,
  "lng": 126.95407
 },
 {
  "name": "강원슈퍼",
  "address": "서울 서대문구 모래내로 355",
  "combination": "자동",
  "lat": 37.581635,
  "lng": 126.93554
 },
 {
  "name": "나눔로또 석촌점",
  "address": "서울 송파구 백제고분로27길  34 1층",
  "combination": "자동",
  "lat": 37.50599,
  "lng": 127.09392
 },
 {
  "name": "잠실매점",
  "address": "서울 송파구 올림픽로 269 잠실역 8번출구 앞 가판",
  "combination": "자동",
  "lat": 37.514446,
  "lng": 127.10071
 },
 {
  "name": "무지개상점",
  "address": "부산 해운대구 좌동로91번길 45",
  "combination": "반자동",
  "lat": 35.17413,
  "lng": 129.1736
 },
 {
  "name": "찬스센터",
  "address": "인천 남동구 남동대로370번길 114 동보아파트상가 상가동 1층 101호",
  "combination": "자동",
  "lat": 37.41274,
  "lng": 126.71224
 },
 {
  "name": "대박복권판매점",
  "address": "경기 고양시 덕양구 충장로 8 115호 일부",
  "combination": "자동",
  "lat": 37.61341,
  "lng": 126.83368
 },
 {
  "name": "키즈월드",
  "address": "경기 고양시 일산동구 중산로 241 해태쇼핑1층146호",
  "combination": "자동",
  "lat": 37.69373,
  "lng": 126.78029
 },
 {
  "name": "노다지복권방",
  "address": "경기 시흥시 복지로 103-1 1층상가",
  "combination": "자동",
  "lat": 37.44823,
  "lng": 126.79206
 },
 {
  "name": "복권명당",
  "address": "경기 안성시 승두길 62",
  "combination": "자동",
  "lat": 37.000015,
  "lng": 127.17315
 },
 {
  "name": "행운로또방",
  "address": "강원 화천군 상승로 46 1층",
  "combination": "자동",
  "lat": 38.104893,
  "lng": 127.70447
 },
 {
  "name": "백석로또복권방",
  "address": "충남 천안시 서북구 한들3로 85-85 메디컬센터 109호",
  "combination": "수동",
  "lat": 36.83067,
  "lng": 127.12336
 },
 {
  "name": "팡팡복권마트.잡화슈퍼",
  "address": "전북 전주시 덕진구 가리내로 26",
  "combination": "자동",
  "lat": 35.834366,
  "lng": 127.13327
 },
 {
  "name": "어느멋진날",
  "address": "경남 양산시 덕계10길 11 복권판매점",
  "combination": "자동",
  "lat": 35.374413,
  "lng": 129.1529
 },
 {
  "name": "소답시내버스매표소",
  "address": "경남 창원시 의창구 의안로2번길 17 가판",
  "combination": "자동",
  "lat": 35.261776,
  "lng": 128.62564
 }
]