[
 {
  "name": "종로3가1호선역2번출구가로판매점82호",
  "address": "서울 종로구 돈화문로 23 가판",
  "combination": "자동",
  "lat": 37.5707,
  "lng": 126.991875
 },
 {
  "name": "뉴빅마트",
  "address": "부산 기장군 정관중앙로 48 106호",
  "combination": "자동",
  "lat": 35.321114,
  "lng": 129.17929
 },
 {
  "name": "행운복권방",
  "address": "부산 중구 구덕로 47",
  "combination": "자동",
  "lat": 35.09806,
  "lng": 129.03053
 },
 {
  "name": "좋은터",
  "address": "인천 계양구 효서로 204 1층",
  "combination": "자동",
  "lat": 37.527794,
  "lng": 126.71853
 },
 {
  "name": "용꿈돼지꿈",
  "address": "인천 부평구 동암남로 11",
  "combination": "자동",
  "lat": 37.470974,
  "lng": 126.70482
 },
 {
  "name": "천하명당복권방",
  "address": "경기 수원시 팔달구 매산로 2",
  "combination": "자동",
  "lat": 37.26661,
  "lng": 127.00185
 },
 {
  "name": "씨유(CU)포천호국로점",
  "address": "경기 포천시 호국로 1382 CU편의점",
  "combination": "수동",
  "lat": 37.882088,
  "lng": 127.18887
 },
 {
  "name": "복권나라",
  "address": "강원 속초시 중앙로 28",
  "combination": "자동",
  "lat": 38.198734,
  "lng": 128.58014
 },
 {
  "name": "로또복권명당방",
  "address": "전남 무안군 삼향읍 남악3로82번길 20 백석프라자 104호 GS편의점 내",
  "combination": "자동",
  "lat": 34.812634,
  "lng": 126.46242
 },
 {
  "name": "지-아트",
  "address": "경남 김해시 율하2로 98-1 복권판매점",
  "combination": "자동",
  "lat": 35.170395,
  "lng": 128.81201
 },
 {
  "name": "매물도 복권",
  "address": "경남 통영시 통영해안로 225-1",
  "combination": "자동",
  "lat": 34.841072,
  "lng": 128.42075
 }
]