[
 {
  "name": "경성식품",
  "address": "서울 동대문구 망우로21길 52",
  "combination": "수동",
  "lat": 37.590435,
  "lng": 127.06028
 },
 {
  "name": "주아킹 목동점",
  "address": "서울 양천구 목동로 213 1층",
  "combination": "자동",
  "lat": 37.527397,
  "lng": 126.86379
 },
 {
  "name": "복권명당(서부점)",
  "address": "대구 달서구 월배로 452",
  "combination": "자동",
  "lat": 35.833633,
  "lng": 128.55486
 },
 {
  "name": "천하명당복권",
  "address": "대구 북구 칠곡중앙대로 545",
  "combination": "자동",
  "lat": 35.94432,
  "lng": 128.55064
 },
 {
  "name": "평화(북구사수점)",
  "address": "대구 북구 한강로 92 1층 101호",
  "combination": "자동",
  "lat": 35.896557,
  "lng": 128.51958
 },
 {
  "name": "버스표판매소",
  "address": "경기 고양시 덕양구 화신로 76 샘터마을1단지아파트 971번지선",
  "combination": "자동",
  "lat": 37.619034,
  "lng": 126.840454
 },
 {
  "name": "인생로또 645",
  "address": "경기 남양주시 다산순환로 356 다산푸리마타워 1층 102호",
  "combination": "자동",
  "lat": 37.625202,
  "lng": 127.155396
 },
 {
  "name": "노다지복권방",
  "address": "경기 부천시 양지로 205 1층 118호",
  "combination": "자동",
  "lat": 37.467976,
  "lng": 126.822464
 },
 {
  "name": "왕대박유통",
  "address": "충북 청주시 흥덕구 서현동로 25 화인프라자 1층",
  "combination": "자동",
  "lat": 36.624504,
  "lng": 127.429245
 },
 {
  "name": "채널큐",
  "address": "경남 창원시 마산합포구 산호남로 11-1",
  "combination": "수동",
  "lat": 35.21755,
  "lng": 128.58145
 },
 {
  "name": "행운\u0026빈센트",
  "address": "제주 서귀포시 동문로 64",
  "combination": "자동",
  "lat": 33.24906,
  "lng": 126.56697
 }
]