[
 {
  "name": "대박슈퍼",
  "address": "서울 강동구 올림픽로 800 1층 106호",
  "combination": "수동",
  "lat": 37.552277,
  "lng": 127.1286
 },
 {
  "name": "대박슈퍼",
  "address": "서울 강동구 올림픽로 800 1층 106호",
  "combination": "수동",
  "lat": 37.552277,
  "lng": 127.1286
 },
 {
  "name": "연초2호 쇼케이스7호",
  "address": "서울 서초구 신반포로 194 강남고속버스터미널 쇼케이스7호",
  "combination": "자동",
  "lat": 37.50551,
  "lng": 127.007034
 },
 {
  "name": "대박복권\u0026크로플박사",
  "address": "서울 영등포구 도신로 119 1층(도림동)",
  "combination": "자동",
  "lat": 37.50848,
  "lng": 126.90501
 },
 {
  "name": "돈벼락맞는곳",
  "address": "부산 기장군 읍내로 109",
  "combination": "자동",
  "lat": 35.24525,
  "lng": 129.21635
 },
 {
  "name": "행운복권",
  "address": "인천 미추홀구 인하로 354",
  "combination": "수동",
  "lat": 37.447952,
  "lng": 126.68763
 },
 {
  "name": "운수대통",
  "address": "인천 미추홀구 경인로34번길 35 1층 (숭의동)",
  "combination": "자동",
  "lat": 37.46236,
  "lng": 126.64785
 },
 {
  "name": "프렌드24시",
  "address": "광주 광산구 첨단중앙로 164 빌리오네2  제1층 106호",
  "combination": "자동",
  "lat": 35.219975,
  "lng": 126.84232
 },
 {
  "name": "버스표판매소",
  "address": "경기 고양시 덕양구 화신로 76 샘터마을1단지아파트 971번지선",
  "combination": "자동",
  "lat": 37.619034,
  "lng": 126.840454
 },
 {
  "name": "행복드림로또",
  "address": "경기 고양시 일산서구 일산로 662 101호",
  "combination": "수동",
  "lat": 37.683006,
  "lng": 126.755806
 },
 {
  "name": "복덩이로또",
  "address": "경기 양주시 개나리길 58",
  "combination": "수동",
  "lat": 37.895638,
  "lng": 126.97421
 },
 {
  "name": "강남슈퍼",
  "address": "경기 의정부시 의정로 193",
  "combination": "자동",
  "lat": 37.750084,
  "lng": 127.03404
 },
 {
  "name": "대관령복권방",
  "address": "강원 평창군 대관령로 74-4 1층 B호",
  "combination": "자동",
  "lat": 37.6732,
  "lng": 128.70439
 },
 {
  "name": "힐링복권",
  "address": "충남 당진시 신복운로2길 13 1층 청소나라 옆",
  "combination": "자동",
  "lat": 36.94294,
  "lng": 126.78207
 },
 {
  "name": "흥건슈퍼",
  "address": "전북 전주시 완산구 거마평로 25 흥건1차아파트상가 흥건슈퍼",
  "combination": "자동",
  "lat": 35.794403,
  "lng": 127.11578
 },
 {
  "name": "이마트24 순천산단점",
  "address": "전남 순천시 산단1길 6 중앙정밀기계,마트",
  "combination": "자동",
  "lat": 34.987934,
  "lng": 127.50839
 }
]