[
 {
  "name": "피터팬",
  "address": "서울 은평구 은평로 193",
  "combination": "자동",
  "lat": 37.601765,
  "lng": 126.929115
 },
 {
  "name": "일등복권편의점",
  "address": "대구 달서구 대명천로 220 1층",
  "combination": "자동",
  "lat": 35.84214,
  "lng": 128.53621
 },
 {
  "name": "세진전자통신",
  "address": "대구 서구 서대구로 156",
  "combination": "자동",
  "lat": 35.8719,
  "lng": 128.5552
 },
 {
  "name": "메트로센터점",
  "address": "대구 중구 달구벌대로 지하 2100 메트로센터C412호",
  "combination": "자동",
  "lat": 35.86582,
  "lng": 128.59314
 },
 {
  "name": "교통카드충전소",
  "address": "경기 고양시 덕양구 화정로 지하 60 화정역 2번출구",
  "combination": "수동",
  "lat": 37.634552,
  "lng": 126.83321
 },
 {
  "name": "초월대박복권방",
  "address": "경기 광주시 경충대로 1252",
  "combination": "자동",
  "lat": 37.386677,
  "lng": 127.28821
 },
 {
  "name": "둘리복권방",
  "address": "경기 시흥시 중심상가2길 12-6 한강프라자제1층101호",
  "combination": "자동",
  "lat": 37.345314,
  "lng": 126.73626
 },
 {
  "name": "안성맞춤",
  "address": "경기 안성시 안성맞춤대로 1099-1",
  "combination": "반자동",
  "lat": 37.01107,
  "lng": 127.2699
 },
 {
  "name": "행운복권방",
  "address": "경기 의정부시 충의로 55",
  "combination": "반자동",
  "lat": 37.73674,
  "lng": 127.08712
 },
 {
  "name": "행운복권방",
  "address": "경기 의정부시 충의로 55",
  "combination": "자동",
  "lat": 37.73674,
  "lng": 127.08712
 },
 {
  "name": "대흥복권",
  "address": "경기 화성시 행정서로3길 4-46 101호",
  "combination": "자동",
  "lat": 37.130062,
  "lng": 126.91723
 },
 {
  "name": "떴다GO 1등",
  "address": "경기 화성시 동탄반석로 172 1층 138호(동탄 파라곤점)",
  "combination": "자동",
  "lat": 37.20413,
  "lng": 127.07133
 },
 {
  "name": "금전산복권방",
  "address": "전남 순천시 연향1로 17-1 금전산복권방",
  "combination": "반자동",
  "lat": 34.945038,
  "lng": 127.51636
 }
]