[
 {
  "name": "엘도라도복권점문점",
  "address": "서울 광진구 용마산로 47",
  "combination": "수동",
  "lat": 37.55781,
  "lng": 127.08759
 },
 {
  "name": "제이복권방",
  "address": "서울 종로구 종로 225-1 평창빌딩 1층 103호",
  "combination": "자동",
  "lat": 37.571293,
  "lng": 127.00283
 },
 {
  "name": "에스비 상사",
  "address": "서울 중구 퇴계로86길 29 1층",
  "combination": "수동",
  "lat": 37.564255,
  "lng": 127.019806
 },
 {
  "name": "서면문화로또",
  "address": "부산 부산진구 신천대로65번길 59",
  "combination": "자동",
  "lat": 35.147545,
  "lng": 129.0582
 },
 {
  "name": "한꿈복권방",
  "address": "울산 중구 번영로 586",
  "combination": "자동",
  "lat": 35.568794,
  "lng": 129.34589
 },
 {
  "name": "세븐일레븐구리한성점",
  "address": "경기 구리시 이문안로 49 한성1차아파트상가102호",
  "combination": "자동",
  "lat": 37.59243,
  "lng": 127.13685
 },
 {
  "name": "민준복권",
  "address": "경기 군포시 삼성로 5 해피시티 104호(부곡동 해피시티)",
  "combination": "자동",
  "lat": 37.336166,
  "lng": 126.93435
 },
 {
  "name": "운좋은 복권방",
  "address": "경기 수원시 장안구 덕영대로425번길 34 1층(율전동)",
  "combination": "자동",
  "lat": 37.30245,
  "lng": 126.96986
 },
 {
  "name": "정통복권방",
  "address": "경기 수원시 팔달구 매산로116번길 32",
  "combination": "자동",
  "lat": 37.269806,
  "lng": 127.01393
 },
 {
  "name": "신천하명당",
  "address": "충남 예산군 발연로 1 이마트 24 내",
  "combination": "자동",
  "lat": 36.698784,
  "lng": 126.8296
 },
 {
  "name": "복권나라",
  "address": "경북 포항시 북구 장량로140번길 9",
  "combination": "수동",
  "lat": 36.08086,
  "lng": 129.39603
 },
 {
  "name": "로또복권판매 초전점",
  "address": "경남 진주시 대신로457번길 9 1층",
  "combination": "수동",
  "lat": 35.201275,
  "lng": 128.11505
 }
]