[
 {
  "name": "다모아",
  "address": "서울 구로구 공원로6나길 39-1",
  "combination": "자동",
  "lat": 37.50447,
  "lng": 126.891785
 },
 {
  "name": "인터넷 복권판매사이트",
  "address": "동행복권(dhlottery.co.kr)",
  "combination": "자동",
  "lat": 37.482063,
  "lng": 127.015785
 },
 {
  "name": "묵동식품",
  "address": "서울 중랑구 동일로 919",
  "combination": "자동",
  "lat": 37.612457,
  "lng": 127.07704
 },
 {
  "name": "드림복권",
  "address": "인천 연수구 신송로118번길 6 송도풍림아이원1단지아파트 1층 103호",
  "combination": "수동",
  "lat": 37.39547,
  "lng": 126.6529
 },
 {
  "name": "스타복권",
  "address": "경기 의정부시 호국로 1075 1층(가능동)",
  "combination": "자동",
  "lat": 37.742805,
  "lng": 127.02324
 },
 {
  "name": "황금로또복권판매",
  "address": "충남 당진시 동부로 223 B동 108호 한빛부동산",
  "combination": "자동",
  "lat": 36.90674,
  "lng": 126.64695
 },
 {
  "name": "복돼지복권방",
  "address": "전북 익산시 선화로1길 4 배산시티프라자 배산시티프라자 1층 107호",
  "combination": "자동",
  "lat": 35.950245,
  "lng": 126.93804
 },
 {
  "name": "진빈레코드",
  "address": "경남 밀양시 북성로 7",
  "combination": "자동",
  "lat": 35.498558,
  "lng": 128.74329
 },
 {
  "name": "로또명당",
  "address": "경남 창원시 의창구 도계로 49",
  "combination": "자동",
  "lat": 35.26004,
  "lng": 128.63731
 },
 {
  "name": "일등복권방",
  "address": "제주 제주시 신대로 119",
  "combination": "자동",
  "lat": 33.486565,
  "lng": 126.49658
 }
]