[
 {
  "name": "이마트24 서울고속터미널4호점",
  "address": "서울 서초구 신반포로 194 본관1층 쇼케이스4호",
  "combination": "자동",
  "lat": 37.50551,
  "lng": 127.007034
 },
 {
  "name": "월드24시",
  "address": "서울 은평구 통일로 855-15",
  "combination": "자동",
  "lat": 37.61925,
  "lng": 126.919785
 },
 {
  "name": "동아",
  "address": "대구 북구 칠곡중앙대로 385-1",
  "combination": "수동",
  "lat": 35.930256,
  "lng": 128.54787
 },
 {
  "name": "로또복권신매점",
  "address": "대구 수성구 달구벌대로 3233 신매동 효성백년가약상가 401동7호",
  "combination": "자동",
  "lat": 35.83958,
  "lng": 128.71077
 },
 {
  "name": "잉크션",
  "address": "대전 서구 도산로 310",
  "combination": "자동",
  "lat": 36.333546,
  "lng": 127.387566
 },
 {
  "name": "복권백화점",
  "address": "울산 남구 수암로 52",
  "combination": "자동",
  "lat": 35.530804,
  "lng": 129.31374
 },
 {
  "name": "팡팡복권방",
  "address": "충북 진천군 장기길 102",
  "combination": "자동",
  "lat": 36.990017,
  "lng": 127.445274
 },
 {
  "name": "테크노벨리복권",
  "address": "충남 아산시 아산밸리중앙로 102 1층 102호",
  "combination": "자동",
  "lat": 36.92324,
  "lng": 127.05935
 },
 {
  "name": "콘테인복권판매점",
  "address": "충남 천안시 동남구 청수11로 13-11 건물 뒤편 콘테인커피숍 내",
  "combination": "수동",
  "lat": 36.783344,
  "lng": 127.15366
 },
 {
  "name": "내가오늘주인공",
  "address": "전북 순창군 금산로 8-30",
  "combination": "자동",
  "lat": 35.37816,
  "lng": 127.13659
 },
 {
  "name": "이마트24 순천산단점",
  "address": "전남 순천시 산단1길 6 중앙정밀기계,마트",
  "combination": "수동",
  "lat": 34.987934,
  "lng": 127.50839
 },
 {
  "name": "안동슈퍼",
  "address": "경북 안동시 경동로 669-3",
  "combination": "자동",
  "lat": 36.563347,
  "lng": 128.73108
 },
 {
  "name": "이마트24포항신덕로점",
  "address": "경북 포항시 북구 신덕로 215 이마트24신덕로점",
  "combination": "수동",
  "lat": 36.08628,
  "lng": 129.39243
 }
]