[
 {
  "name": "삼성열쇠공사",
  "address": "서울 동작구 만양로 90-1",
  "combination": "자동",
  "lat": 37.511497,
  "lng": 126.94448
 },
 {
  "name": "대박유통",
  "address": "부산 중구 구덕로 80 1층",
  "combination": "자동",
  "lat": 35.097702,
  "lng": 129.02716
 },
 {
  "name": "팡팡복권",
  "address": "부산 중구 보수대로 134 1층",
  "combination": "자동",
  "lat": 35.10751,
  "lng": 129.02272
 },
 {
  "name": "메트로센터점",
  "address": "대구 중구 달구벌대로 지하 2100 메트로센터C412호",
  "combination": "자동",
  "lat": 35.86582,
  "lng": 128.59314
 },
 {
  "name": "보람복권방",
  "address": "울산 남구 화합로194번길 18-1 18-1",
  "combination": "자동",
  "lat": 35.54182,
  "lng": 129.33974
 },
 {
  "name": "가람",
  "address": "울산 중구 병영로 28-1 1층, 부동산",
  "combination": "자동",
  "lat": 35.571987,
  "lng": 129.34631
 },
 {
  "name": "베스트 로또",
  "address": "경기 광명시 하안로 168-11 1층 105호(소하동, 외1필지)",
  "combination": "수동",
  "lat": 37.452816,
  "lng": 126.889244
 },
 {
  "name": "잘찍어로또방",
  "address": "경기 평택시 안현로서5길 62",
  "combination": "자동",
  "lat": 36.988426,
  "lng": 126.92788
 },
 {
  "name": "설악슈퍼",
  "address": "강원 속초시 중앙시장로 116 중앙시장내, 설악슈퍼",
  "combination": "수동",
  "lat": 38.204475,
  "lng": 128.59096
 }
]