[
 {
  "name": "길로또복권",
  "address": "서울 강서구 등촌로 215",
  "combination": "수동",
  "lat": 37.548992,
  "lng": 126.86325
 },
 {
  "name": "복권나라",
  "address": "서울 관악구 은천로 40-1",
  "combination": "자동",
  "lat": 37.48599,
  "lng": 126.93982
 },
 {
  "name": "프리마트",
  "address": "인천 남동구 주안로 231",
  "combination": "자동",
  "lat": 37.463516,
  "lng": 126.695564
 },
 {
  "name": "로또명당",
  "address": "인천 부평구 부평대로 32 1층",
  "combination": "자동",
  "lat": 37.494415,
  "lng": 126.72295
 },
 {
  "name": "황금알 복권판매점",
  "address": "대전 서구 한밭대로570번길 29-4 갤러리빌 8차",
  "combination": "자동",
  "lat": 36.356964,
  "lng": 127.36215
 },
 {
  "name": "코사마트한양점",
  "address": "경기 고양시 덕양구 마상로 156",
  "combination": "자동",
  "lat": 37.6584,
  "lng": 126.83955
 },
 {
  "name": "리맥스복권방",
  "address": "경기 구리시 경춘로 239 리맥스프라자 앞 가판대(인창동 676-1)",
  "combination": "자동",
  "lat": 37.601616,
  "lng": 127.14163
 },
 {
  "name": "복권나라",
  "address": "강원 원주시 평원로 23 1층",
  "combination": "자동",
  "lat": 37.348927,
  "lng": 127.952644
 },
 {
  "name": "로또당진합덕원룸점",
  "address": "충남 당진시 미락5길 27-3 1층 101호",
  "combination": "자동",
  "lat": 36.80752,
  "lng": 126.768425
 },
 {
  "name": "로또복권두정점",
  "address": "충남 천안시 서북구 두정로 251 대원빌딩104호",
  "combination": "자동",
  "lat": 36.833515,
  "lng": 127.14499
 },
 {
  "name": "포항오거리CU복권",
  "address": "경북 포항시 북구 죽도로 33 CU포항오거리점내",
  "combination": "자동",
  "lat": 36.033836,
  "lng": 129.36467
 },
 {
  "name": "통도복권",
  "address": "경남 양산시 통도사로 71 복권판매점",
  "combination": "자동",
  "lat": 35.49364,
  "lng": 129.08252
 },
 {
  "name": "행운복권방",
  "address": "경남 진주시 창렬로 76-1 1층",
  "combination": "자동",
  "lat": 35.195347,
  "lng": 128.06912
 }
]