[
 {
  "name": "넘보원 마트",
  "address": "서울 도봉구 도봉로165길 2,(도봉동)",
  "combination": "자동",
  "lat": 37.67773,
  "lng": 127.04468
 },
 {
  "name": "인터넷 복권판매사이트",
  "address": "동행복권(dhlottery.co.kr)",
  "combination": "수동",
  "lat": 37.482063,
  "lng": 127.015785
 },
 {
  "name": "기장슈퍼",
  "address": "부산 기장군 차성동로 69",
  "combination": "자동",
  "lat": 35.243927,
  "lng": 129.2165
 },
 {
  "name": "로또달인",
  "address": "부산 사상구 모덕로 51 복권판매점",
  "combination": "자동",
  "lat": 35.182194,
  "lng": 128.9818
 },
 {
  "name": "복권명당 샘",
  "address": "대구 동구 율하동로 36",
  "combination": "자동",
  "lat": 35.86286,
  "lng": 128.70146
 },
 {
  "name": "대박복권방",
  "address": "경기 고양시 일산서구 경의로 823 1층",
  "combination": "자동",
  "lat": 37.691025,
  "lng": 126.759125
 },
 {
  "name": "광명명당복권방",
  "address": "경기 광명시 오리로 1024 1층(광명동)",
  "combination": "자동",
  "lat": 37.48095,
  "lng": 126.84979
 },
 {
  "name": "행복",
  "address": "경기 수원시 영통구 신원로 33 103-2호(신동)",
  "combination": "자동",
  "lat": 37.2497,
  "lng": 127.0458
 },
 {
  "name": "이조박복권방",
  "address": "경기 안양시 만안구 병목안로 119 1층 103호",
  "combination": "수동",
  "lat": 37.39289,
  "lng": 126.91
 },
 {
  "name": "스카이편의점",
  "address": "경기 안양시 만안구 박달로 527",
  "combination": "자동",
  "lat": 37.40275,
  "lng": 126.91124
 },
 {
  "name": "황실복권방",
  "address": "충남 천안시 동남구 충절로 799",
  "combination": "자동",
  "lat": 36.769257,
  "lng": 127.20064
 },
 {
  "name": "현대장미슈퍼",
  "address": "전북 익산시 동서로61길 41 현대아파트1층108호",
  "combination": "자동",
  "lat": 35.95509,
  "lng": 126.98032
 },
 {
  "name": "이삭",
  "address": "전남 목포시 남악2로 54 남악프라자A동103호",
  "combination": "수동",
  "lat": 34.809925,
  "lng": 126.45526
 }
]