[
 {
  "name": "로또복권",
  "address": "서울 광진구 긴고랑로 38",
  "combination": "자동",
  "lat": 37.562798,
  "lng": 127.08021
 },
 {
  "name": "(개룡역)복 노다지",
  "address": "서울 송파구 오금로44가길 12",
  "combination": "자동",
  "lat": 37.49758,
  "lng": 127.13488
 },
 {
  "name": "씨스페이스 응암역점",
  "address": "서울 은평구 연서로 9 센터폴리스 1층 107호",
  "combination": "자동",
  "lat": 37.600132,
  "lng": 126.91551
 },
 {
  "name": "돈벼락맞는곳",
  "address": "부산 동구 조방로49번길 18-1",
  "combination": "자동",
  "lat": 35.139168,
  "lng": 129.05995
 },
 {
  "name": "꿈하나",
  "address": "대구 서구 팔달로 142 1층 복권방",
  "combination": "자동",
  "lat": 35.889156,
  "lng": 128.56583
 },
 {
  "name": "복권판매소(서문큰장네거리)",
  "address": "대구 서구 국채보상로 438,(내당동)",
  "combination": "자동",
  "lat": 35.870575,
  "lng": 128.5788
 },
 {
  "name": "오천억복권방",
  "address": "광주 서구 상무대로 1087",
  "combination": "자동",
  "lat": 35.15296,
  "lng": 126.880745
 },
 {
  "name": "영화유통(1등복권방)",
  "address": "울산 남구 신정로 19 삼성아파트 상가 204-101",
  "combination": "자동",
  "lat": 35.533833,
  "lng": 129.32205
 },
 {
  "name": "세종로또방",
  "address": "세종 용포로 32",
  "combination": "자동",
  "lat": 36.461655,
  "lng": 127.280685
 },
 {
  "name": "행운복권",
  "address": "경기 군포시 대야1로 3 1동",
  "combination": "자동",
  "lat": 37.32638,
  "lng": 126.91891
 },
 {
  "name": "카베",
  "address": "경기 부천시 부일로221번길 26 삼원타운1층-120",
  "combination": "자동",
  "lat": 37.489494,
  "lng": 126.75507
 },
 {
  "name": "태인(금돼지) 복권",
  "address": "경기 성남시 분당구 돌마로 85 제105호(금곡동, 동양프라자)",
  "combination": "수동",
  "lat": 37.35035,
  "lng": 127.11133
 },
 {
  "name": "태인(금돼지) 복권",
  "address": "경기 성남시 분당구 돌마로 85 제105호(금곡동, 동양프라자)",
  "combination": "수동",
  "lat": 37.35035,
  "lng": 127.11133
 },
 {
  "name": "아이지에이마트 동명사랑점",
  "address": "경기 안산시 단원구 선부광장북로 36 113호",
  "combination": "자동",
  "lat": 37.33678,
  "lng": 126.81172
 },
 {
  "name": "하이로또복권방",
  "address": "경기 안양시 동안구 관악대로339번길 7,(관양동)",
  "combination": "수동",
  "lat": 37.404186,
  "lng": 126.96016
 },
 {
  "name": "늘~행복나눔(터)",
  "address": "경기 이천시 중부대로 139  1층",
  "combination": "수동",
  "lat": 37.255905,
  "lng": 127.35176
 },
 {
  "name": "로또명당인주점",
  "address": "충남 아산시 서해로 519-2",
  "combination": "자동",
  "lat": 36.87784,
  "lng": 126.89828
 },
 {
  "name": "신불당로또",
  "address": "충남 천안시 서북구 불당21로 40 501동 지1층 B143호",
  "combination": "자동",
  "lat": 36.812565,
  "lng": 127.10497
 },
 {
  "name": "알리바이한전공대점",
  "address": "전남 나주시 빛가람로 793 1층",
  "combination": "자동",
  "lat": 35.0214,
  "lng": 126.79864
 },
 {
  "name": "대풍로또판매점",
  "address": "경남 김해시 번화2로 36",
  "combination": "자동",
  "lat": 35.192284,
  "lng": 128.80525
 }
]