[
 {
  "name": "토큰박스",
  "address": "서울 강북구 도봉로 334 KFC앞 가판",
  "combination": "자동",
  "lat": 37.63754,
  "lng": 127.02552
 },
 {
  "name": "한마음",
  "address": "서울 관악구 관악로 211 봉천중앙시장라열4호",
  "combination": "자동",
  "lat": 37.48357,
  "lng": 126.95407
 },
 {
  "name": "인터넷 복권판매사이트",
  "address": "동행복권(dhlottery.co.kr)",
  "combination": "반자동",
  "lat": 37.482063,
  "lng": 127.015785
 },
 {
  "name": "인터넷 복권판매사이트",
  "address": "동행복권(dhlottery.co.kr)",
  "combination": "수동",
  "lat": 37.482063,
  "lng": 127.015785
 },
 {
  "name": "대길 복권방",
  "address": "서울 영등포구 가마산로71길 9 1층(신길동)",
  "combination": "자동",
  "lat": 37.506832,
  "lng": 126.90926
 },
 {
  "name": "소원 로또복권",
  "address": "부산 부산진구 중앙대로691번가길 21 1층 일부 북측(부전동)",
  "combination": "자동",
  "lat": 35.155212,
  "lng": 129.0555
 },
 {
  "name": "중흥마트",
  "address": "광주 북구 문산로 30 중흥2차 아파트상가 1층",
  "combination": "자동",
  "lat": 35.18389,
  "lng": 126.92322
 },
 {
  "name": "열매로또복권",
  "address": "대전 유성구 은구비서로 31-1 102호, 지족동",
  "combination": "자동",
  "lat": 36.37504,
  "lng": 127.32048
 },
 {
  "name": "복권닷컴",
  "address": "경기 성남시 수정구 수정남로 64-1",
  "combination": "자동",
  "lat": 37.440907,
  "lng": 127.13489
 },
 {
  "name": "아름드림 복권방",
  "address": "경기 수원시 팔달구 덕영대로 693",
  "combination": "수동",
  "lat": 37.2848,
  "lng": 126.98991
 },
 {
  "name": "아름드림 복권방",
  "address": "경기 수원시 팔달구 덕영대로 693",
  "combination": "수동",
  "lat": 37.2848,
  "lng": 126.98991
 },
 {
  "name": "해수로또",
  "address": "충북 청주시 상당구 산성로 22-1",
  "combination": "자동",
  "lat": 36.62615,
  "lng": 127.49938
 },
 {
  "name": "현대장미슈퍼",
  "address": "전북 익산시 동서로61길 41 현대아파트1층108호",
  "combination": "수동",
  "lat": 35.95509,
  "lng": 126.98032
 },
 {
  "name": "로또복권판매",
  "address": "경북 상주시 삼백로 159",
  "combination": "자동",
  "lat": 36.41895,
  "lng": 128.16113
 },
 {
  "name": "홈런 복권판매점",
  "address": "경남 사천시 벌리2길 42",
  "combination": "자동",
  "lat": 34.939648,
  "lng": 128.0827
 },
 {
  "name": "영재복권",
  "address": "경남 창원시 마산회원구 삼계숲길 27 1층",
  "combination": "수동",
  "lat": 35.2308,
  "lng": 128.49948
 },
 {
  "name": "우진슈퍼",
  "address": "경남 창원시 성산구 창원대로 726 내동상가4호",
  "combination": "자동",
  "lat": 35.21711,
  "lng": 128.67038
 }
]