[
 {
  "name": "복권마을",
  "address": "서울 강서구 화곡로 321 101호",
  "combination": "자동",
  "lat": 37.552773,
  "lng": 126.85019
 },
 {
  "name": "행운으뜸",
  "address": "서울 관악구 신림로17길 45 1층",
  "combination": "자동",
  "lat": 37.46864,
  "lng": 126.9365
 },
 {
  "name": "아현역3번출구앞가판점",
  "address": "서울 마포구 마포대로 249 아현산업정보학교 아현역3번출구앞",
  "combination": "자동",
  "lat": 37.556522,
  "lng": 126.95708
 },
 {
  "name": "노다지로또",
  "address": "서울 중랑구 겸재로 217,(면목동)",
  "combination": "수동",
  "lat": 37.58949,
  "lng": 127.09177
 },
 {
  "name": "행운미니슈퍼",
  "address": "인천 부평구 수변로 64 1층 102호",
  "combination": "자동",
  "lat": 37.492195,
  "lng": 126.74089
 },
 {
  "name": "금성복권판매점",
  "address": "광주 북구 독립로 416 1층",
  "combination": "수동",
  "lat": 35.167294,
  "lng": 126.91723
 },
 {
  "name": "금성복권판매점",
  "address": "광주 북구 독립로 416 1층",
  "combination": "수동",
  "lat": 35.167294,
  "lng": 126.91723
 },
 {
  "name": "오천억복권방",
  "address": "광주 서구 상무대로 1087",
  "combination": "수동",
  "lat": 35.15296,
  "lng": 126.880745
 },
 {
  "name": "오천억복권방",
  "address": "광주 서구 상무대로 1087",
  "combination": "수동",
  "lat": 35.15296,
  "lng": 126.880745
 },
 {
  "name": "노다지복권방",
  "address": "경기 시흥시 복지로 103-1 1층상가",
  "combination": "자동",
  "lat": 37.44823,
  "lng": 126.79206
 },
 {
  "name": "종합복권슈퍼",
  "address": "경기 시흥시 마유로 336 정일빌딩104",
  "combination": "자동",
  "lat": 37.34572,
  "lng": 126.73561
 },
 {
  "name": "25시슈퍼",
  "address": "경기 시흥시 함송로14번길 13-17 홍익프라자1층107호",
  "combination": "자동",
  "lat": 37.362453,
  "lng": 126.72994
 },
 {
  "name": "행운을주는로또판매점",
  "address": "경기 안산시 단원구 초지로 90 태영프라자 태영프라자111호",
  "combination": "자동",
  "lat": 37.306877,
  "lng": 126.81511
 },
 {
  "name": "복권명당",
  "address": "충북 청주시 상당구 월평로 204",
  "combination": "자동",
  "lat": 36.60882,
  "lng": 127.50627
 },
 {
  "name": "스마일복권방",
  "address": "경북 김천시 영남대로 2087 101호",
  "combination": "수동",
  "lat": 36.11514,
  "lng": 128.15657
 }
]