[
 {
  "name": "현대마트",
  "address": "서울 강남구 일원로 45 대훈빌딩 101호",
  "combination": "자동",
  "lat": 37.489906,
  "lng": 127.08152
 },
 {
  "name": "하임마트",
  "address": "서울 중구 퇴계로 439-4 1층",
  "combination": "수동",
  "lat": 37.5659,
  "lng": 127.02076
 },
 {
  "name": "복권왕국",
  "address": "인천 계양구 계산천동로 3,(계산동)",
  "combination": "자동",
  "lat": 37.539253,
  "lng": 126.723236
 },
 {
  "name": "복권방 동춘점",
  "address": "인천 연수구 봉재산로 20 상가동 107호",
  "combination": "자동",
  "lat": 37.409782,
  "lng": 126.66613
 },
 {
  "name": "대주마트",
  "address": "광주 서구 상무공원로 92 대주아파트상가102호",
  "combination": "자동",
  "lat": 35.152607,
  "lng": 126.8437
 },
 {
  "name": "고양월드식품복권",
  "address": "경기 고양시 덕양구 혜음로 8 삼라마이다스프라자 제1층 제115호",
  "combination": "자동",
  "lat": 37.701103,
  "lng": 126.901794
 },
 {
  "name": "오포우림로또",
  "address": "경기 광주시 오포로 899 1층 109호",
  "combination": "수동",
  "lat": 37.37044,
  "lng": 127.23228
 },
 {
  "name": "복권나라",
  "address": "경기 남양주시 도농로 13",
  "combination": "반자동",
  "lat": 37.607224,
  "lng": 127.15675
 },
 {
  "name": "복권방",
  "address": "경기 남양주시 덕송2로10번길 27-16",
  "combination": "자동",
  "lat": 37.667454,
  "lng": 127.116165
 },
 {
  "name": "대박",
  "address": "경기 안양시 동안구 관평로170번길 33",
  "combination": "자동",
  "lat": 37.392975,
  "lng": 126.962234
 },
 {
  "name": "대박마트복권방",
  "address": "충남 아산시 음봉로 844 행복한순복음교회 태화상가1층103호",
  "combination": "자동",
  "lat": 36.826508,
  "lng": 127.09927
 },
 {
  "name": "불국사명당복권",
  "address": "경북 경주시 산업로 3033",
  "combination": "자동",
  "lat": 35.7765,
  "lng": 129.29813
 },
 {
  "name": "한방복권방",
  "address": "경남 양산시 북안남4길 26 105호",
  "combination": "수동",
  "lat": 35.34572,
  "lng": 129.036
 },
 {
  "name": "북마산복권전문점",
  "address": "경남 창원시 마산합포구 북성로 98",
  "combination": "자동",
  "lat": 35.215973,
  "lng": 128.5708
 },
 {
  "name": "만물할인슈퍼",
  "address": "경남 창원시 성산구 대정로 145 개나리1차상가107호",
  "combination": "자동",
  "lat": 35.21318,
  "lng": 128.7085
 }
]