[
 {
  "name": "일등",
  "address": "서울 강동구 양재대로 1500 101호",
  "combination": "자동",
  "lat": 37.539463,
  "lng": 127.14085
 },
 {
  "name": "서울구가-17가판",
  "address": "서울 구로구 구로동로 130-2 구로4동우체국앞가판",
  "combination": "자동",
  "lat": 37.490326,
  "lng": 126.88439
 },
 {
  "name": "잠실매점",
  "address": "서울 송파구 올림픽로 269 잠실역 8번출구 앞 가판",
  "combination": "수동",
  "lat": 37.514446,
  "lng": 127.10071
 },
 {
  "name": "로또킹",
  "address": "서울 영등포구 영중로 2 1층(영등포동3가)",
  "combination": "자동",
  "lat": 37.516743,
  "lng": 126.906746
 },
 {
  "name": "동인천황금로또",
  "address": "인천 중구 참외전로 110 1층",
  "combination": "자동",
  "lat": 37.476524,
  "lng": 126.630585
 },
 {
  "name": "지에스25 안성칠곡",
  "address": "경기 안성시 만세로 1182 지에스25 안성칠곡",
  "combination": "자동",
  "lat": 37.04363,
  "lng": 127.15039
 },
 {
  "name": "로또휴게실",
  "address": "경기 용인시 기흥구 용구대로 1885",
  "combination": "자동",
  "lat": 37.256386,
  "lng": 127.10432
 },
 {
  "name": "주택복권방",
  "address": "경기 용인시 수지구 풍덕천로 144-1 103호",
  "combination": "자동",
  "lat": 37.323883,
  "lng": 127.09745
 },
 {
  "name": "종합복권방",
  "address": "전남 해남군 해남로 34",
  "combination": "자동",
  "lat": 34.570763,
  "lng": 126.61092
 },
 {
  "name": "이마트24시 R신대부적점",
  "address": "경북 경산시 대학로 386 1층",
  "combination": "자동",
  "lat": 35.842033,
  "lng": 128.7622
 },
 {
  "name": "씨유제주 제일점",
  "address": "제주 제주시 신산로 16 CU 제일점",
  "combination": "수동",
  "lat": 33.511852,
  "lng": 126.53152
 }
]