[
 {
  "name": "교통카드충전소",
  "address": "서울 강남구 선릉로 309",
  "combination": "자동",
  "lat": 37.49705,
  "lng": 127.05222
 },
 {
  "name": "복권방 담배",
  "address": "서울 도봉구 도당로 91,(방학동)",
  "combination": "자동",
  "lat": 37.66569,
  "lng": 127.03695
 },
 {
  "name": "G마트",
  "address": "서울 영등포구 디지털로 387",
  "combination": "자동",
  "lat": 37.491634,
  "lng": 126.902115
 },
 {
  "name": "가로가판대제57호(구)",
  "address": "서울 중구 세종대로14길 6-2",
  "combination": "자동",
  "lat": 37.562904,
  "lng": 126.97705
 },
 {
  "name": "복권판매점 명지국제신도시점",
  "address": "부산 강서구 명지국제2로 80 비주거시설동1층 54호",
  "combination": "자동",
  "lat": 35.098766,
  "lng": 128.90842
 },
 {
  "name": "부일카서비스",
  "address": "부산 동구 자성로133번길 35",
  "combination": "반자동",
  "lat": 35.140015,
  "lng": 129.06306
 },
 {
  "name": "천하명당복권",
  "address": "대구 북구 칠곡중앙대로 545",
  "combination": "자동",
  "lat": 35.94432,
  "lng": 128.55064
 },
 {
  "name": "신포시장매표소",
  "address": "인천 중구 우현로 41-1",
  "combination": "자동",
  "lat": 37.4712,
  "lng": 126.62799
 },
 {
  "name": "돈벼락",
  "address": "경기 부천시 범안로 220 제근린생활시설2동 1층 103호",
  "combination": "수동",
  "lat": 37.46042,
  "lng": 126.81241
 },
 {
  "name": "천하명당복권방",
  "address": "경기 수원시 팔달구 매산로 2",
  "combination": "반자동",
  "lat": 37.26661,
  "lng": 127.00185
 },
 {
  "name": "복천로또",
  "address": "경기 용인시 기흥구 죽전로 29 109호 (보정동, 포레스트프라자)",
  "combination": "자동",
  "lat": 37.32071,
  "lng": 127.11208
 },
 {
  "name": "떴다GO 1등",
  "address": "경기 화성시 동탄반석로 172 1층 138호(동탄 파라곤점)",
  "combination": "자동",
  "lat": 37.20413,
  "lng": 127.07133
 },
 {
  "name": "학동복권나라",
  "address": "전남 여수시 흥국로 6",
  "combination": "수동",
  "lat": 34.763523,
  "lng": 127.663475
 },
 {
  "name": "학동복권나라",
  "address": "전남 여수시 흥국로 6",
  "combination": "수동",
  "lat": 34.763523,
  "lng": 127.663475
 }
]