[
 {
  "name": "인터넷 복권판매사이트",
  "address": "동행복권(dhlottery.co.kr)",
  "combination": "자동",
  "lat": 37.482063,
  "lng": 127.015785
 },
 {
  "name": "우리샵",
  "address": "서울 서초구 서초대로77길 3",
  "combination": "자동",
  "lat": 37.497936,
  "lng": 127.02651
 },
 {
  "name": "돈벼락맞는곳",
  "address": "부산 기장군 읍내로 109",
  "combination": "자동",
  "lat": 35.24525,
  "lng": 129.21635
 },
 {
  "name": "세원로또복권방",
  "address": "부산 수영구 수영로725번길 53 수영 엔스타Ⅱ 101호",
  "combination": "자동",
  "lat": 35.16832,
  "lng": 129.11609
 },
 {
  "name": "GS로또(남대구IC점)",
  "address": "대구 달서구 성서공단로 346 1층 GS편의점",
  "combination": "자동",
  "lat": 35.836327,
  "lng": 128.52068
 },
 {
  "name": "새희망로또",
  "address": "울산 중구 백양로 47",
  "combination": "자동",
  "lat": 35.574467,
  "lng": 129.31169
 },
 {
  "name": "명당골복권방",
  "address": "경기 수원시 권선구 동수원로242번길 15 104호",
  "combination": "자동",
  "lat": 37.251095,
  "lng": 127.03546
 },
 {
  "name": "인생복권",
  "address": "경기 시흥시 희망공원로 269 1층 X8 YA호",
  "combination": "수동",
  "lat": 37.34525,
  "lng": 126.725174
 },
 {
  "name": "홈플러스선부점로또판매",
  "address": "경기 안산시 단원구 삼일로 316 홈플러스",
  "combination": "자동",
  "lat": 37.33378,
  "lng": 126.81258
 },
 {
  "name": "동행복권평택신창점",
  "address": "경기 평택시 서정로 97 1층",
  "combination": "자동",
  "lat": 37.07194,
  "lng": 127.04705
 },
 {
  "name": "현대장미슈퍼",
  "address": "전북 익산시 동서로61길 41 어양동 현대A 상가동 108호",
  "combination": "자동",
  "lat": 35.95509,
  "lng": 126.98032
 },
 {
  "name": "아리랑복권방",
  "address": "전북 전주시 완산구 거마평로 192",
  "combination": "자동",
  "lat": 35.80944,
  "lng": 127.11562
 },
 {
  "name": "이룸로또복권방",
  "address": "전남 목포시 백년대로297번길 42 1층",
  "combination": "자동",
  "lat": 34.80711,
  "lng": 126.41811
 },
 {
  "name": "씨유거제사등새아침점",
  "address": "경남 거제시 거제대로 5501 주2동 103호,104호",
  "combination": "반자동",
  "lat": 34.910675,
  "lng": 128.5435
 }
]