[
 {
  "name": "가판점",
  "address": "서울 강동구 천호대로 1073 힐탑프라자 앞 가판점",
  "combination": "자동",
  "lat": 37.53663,
  "lng": 127.131355
 },
 {
  "name": "지니복권",
  "address": "서울 금천구 금하로 632 16호",
  "combination": "자동",
  "lat": 37.45465,
  "lng": 126.90136
 },
 {
  "name": "제일식품",
  "address": "서울 서대문구 증가로 143,(남가좌동)",
  "combination": "자동",
  "lat": 37.57747,
  "lng": 126.92169
 },
 {
  "name": "장보고복권방",
  "address": "서울 중랑구 면목로 288",
  "combination": "자동",
  "lat": 37.578384,
  "lng": 127.08619
 },
 {
  "name": "우정식품",
  "address": "부산 동래구 온천장로 39",
  "combination": "자동",
  "lat": 35.21585,
  "lng": 129.07948
 },
 {
  "name": "봄봄복권판매점",
  "address": "부산 사상구 엄궁로 203",
  "combination": "자동",
  "lat": 35.130375,
  "lng": 128.97302
 },
 {
  "name": "에덴건강원",
  "address": "인천 남동구 백범로 332-1 1층",
  "combination": "자동",
  "lat": 37.464577,
  "lng": 126.71356
 },
 {
  "name": "대박로또",
  "address": "대전 서구 둔산중로14번길 36",
  "combination": "자동",
  "lat": 36.347702,
  "lng": 127.38861
 },
 {
  "name": "보람복권방",
  "address": "울산 남구 화합로194번길 18-1 1층",
  "combination": "자동",
  "lat": 35.541855,
  "lng": 129.34157
 },
 {
  "name": "복권명당",
  "address": "경기 안산시 상록구 광덕산2로 25",
  "combination": "자동",
  "lat": 37.335415,
  "lng": 126.84604
 },
 {
  "name": "대진로또",
  "address": "경기 평택시 서동대로 1272",
  "combination": "수동",
  "lat": 36.986984,
  "lng": 126.89416
 },
 {
  "name": "거두로또",
  "address": "강원 춘천시 춘천순환로 61-26  1층",
  "combination": "자동",
  "lat": 37.85614,
  "lng": 127.75235
 },
 {
  "name": "서울로또방",
  "address": "충북 옥천군 삼금로 8",
  "combination": "수동",
  "lat": 36.29949,
  "lng": 127.56668
 },
 {
  "name": "서울로또방",
  "address": "충북 옥천군 삼금로 8",
  "combination": "수동",
  "lat": 36.29949,
  "lng": 127.56668
 },
 {
  "name": "복권판매점(담양)",
  "address": "전남 담양군 중앙로 32-1",
  "combination": "자동",
  "lat": 35.316162,
  "lng": 126.98364
 },
 {
  "name": "이룸로또복권방",
  "address": "전남 목포시 백년대로297번길 42 1층",
  "combination": "자동",
  "lat": 34.80711,
  "lng": 126.41811
 },
 {
  "name": "로또 봉하점",
  "address": "경남 김해시 봉하로 24 CU편의점 좌측 복권판매점",
  "combination": "자동",
  "lat": 35.314568,
  "lng": 128.76036
 }
]