[
 {
  "name": "오케이상사",
  "address": "서울 서초구 신반포로 176 센트럴시티내100호매점",
  "combination": "자동",
  "lat": 37.504353,
  "lng": 127.00359
 },
 {
  "name": "인터넷 복권판매사이트",
  "address": "동행복권(dhlottery.co.kr)",
  "combination": "수동",
  "lat": 37.482063,
  "lng": 127.015785
 },
 {
  "name": "에스비 상사",
  "address": "서울 중구 퇴계로86길 29 1층",
  "combination": "자동",
  "lat": 37.564255,
  "lng": 127.019806
 },
 {
  "name": "부일카서비스",
  "address": "부산 동구 자성로133번길 35",
  "combination": "자동",
  "lat": 35.140015,
  "lng": 129.06306
 },
 {
  "name": "코사마트금강점",
  "address": "대구 달서구 용산로 204 1층 코사마트",
  "combination": "자동",
  "lat": 35.855705,
  "lng": 128.53079
 },
 {
  "name": "드림마트",
  "address": "인천 서구 검단로 490",
  "combination": "수동",
  "lat": 37.60223,
  "lng": 126.65863
 },
 {
  "name": "원내복권방",
  "address": "대전 유성구 원내로 35",
  "combination": "자동",
  "lat": 36.300095,
  "lng": 127.31983
 },
 {
  "name": "농협앞 가판점",
  "address": "경기 성남시 수정구 수정로 128",
  "combination": "수동",
  "lat": 37.44143,
  "lng": 127.13456
 },
 {
  "name": "복권판매점",
  "address": "경기 성남시 중원구 성남대로1130번길 3 제1층 제101호",
  "combination": "자동",
  "lat": 37.4307,
  "lng": 127.1296
 },
 {
  "name": "천하명당",
  "address": "경기 평택시 탄현로 224",
  "combination": "자동",
  "lat": 37.07261,
  "lng": 127.05525
 },
 {
  "name": "강남 복권방",
  "address": "강원 강릉시 임영로 62 1층(노암동)",
  "combination": "수동",
  "lat": 37.748016,
  "lng": 128.89706
 },
 {
  "name": "강남 복권방",
  "address": "강원 강릉시 임영로 62 1층(노암동)",
  "combination": "수동",
  "lat": 37.748016,
  "lng": 128.89706
 },
 {
  "name": "터미널복권",
  "address": "충북 충주시 봉계1길 49 충주터미널1층",
  "combination": "자동",
  "lat": 36.981136,
  "lng": 127.91502
 },
 {
  "name": "천하명당",
  "address": "전북 순창군 순창로 200",
  "combination": "자동",
  "lat": 35.37289,
  "lng": 127.14261
 },
 {
  "name": "지에스(GS)25 거제벽산솔렌스",
  "address": "경남 거제시 상동5길 119 104호,105호",
  "combination": "자동",
  "lat": 34.860985,
  "lng": 128.62909
 },
 {
  "name": "천하명당복권방",
  "address": "경남 거제시 옥포성안로 60",
  "combination": "수동",
  "lat": 34.891693,
  "lng": 128.69492
 }
]