[
 {
  "name": "버스표판매소",
  "address": "서울 강남구 논현로 837 원방빌딩",
  "combination": "자동",
  "lat": 37.52323,
  "lng": 127.027916
 },
 {
  "name": "복권전문점",
  "address": "서울 강북구 솔샘로64길 43,(미아동)",
  "combination": "자동",
  "lat": 37.61555,
  "lng": 127.028656
 },
 {
  "name": "보물섬복권판매점",
  "address": "서울 송파구 법원로8길 7 106호",
  "combination": "자동",
  "lat": 37.484184,
  "lng": 127.12136
 },
 {
  "name": "세진전자통신",
  "address": "대구 서구 서대구로 156",
  "combination": "자동",
  "lat": 35.8719,
  "lng": 128.5552
 },
 {
  "name": "대박스타",
  "address": "인천 미추홀구 경인로 348 1층",
  "combination": "자동",
  "lat": 37.458347,
  "lng": 126.678635
 },
 {
  "name": "타운복권방",
  "address": "광주 북구 밤실로 184-1",
  "combination": "자동",
  "lat": 35.16375,
  "lng": 126.93414
 },
 {
  "name": "아이스파티 희망로또",
  "address": "경기 남양주시 청학로114번길 9 나동",
  "combination": "자동",
  "lat": 37.709156,
  "lng": 127.11427
 },
 {
  "name": "로또삼성복권방",
  "address": "경기 수원시 영통구 매영로 141 원천훼밀리타운 원천훼미리타운105호",
  "combination": "자동",
  "lat": 37.26672,
  "lng": 127.05813
 },
 {
  "name": "로터리편의마트",
  "address": "경북 포항시 북구 서동로 85 육거리",
  "combination": "자동",
  "lat": 36.040768,
  "lng": 129.36725
 },
 {
  "name": "대운로또복권",
  "address": "경남 양산시 물금로 183 102호 복권판매점",
  "combination": "자동",
  "lat": 35.319393,
  "lng": 128.99998
 }
]