[
 {
  "name": "대박가판장",
  "address": "서울 강동구 양재대로 1627 가판점",
  "combination": "자동",
  "lat": 37.55092,
  "lng": 127.143715
 },
 {
  "name": "삼익마트",
  "address": "서울 강동구 상암로 211 1층",
  "combination": "자동",
  "lat": 37.546654,
  "lng": 127.14613
 },
 {
  "name": "찐대박복권",
  "address": "서울 동작구 신대방길 96 1층 2호",
  "combination": "수동",
  "lat": 37.48981,
  "lng": 126.90914
 },
 {
  "name": "인터넷 복권판매사이트",
  "address": "동행복권(dhlottery.co.kr)",
  "combination": "자동",
  "lat": 37.482063,
  "lng": 127.015785
 },
 {
  "name": "한양복권",
  "address": "서울 성동구 용답중앙길 78-1",
  "combination": "자동",
  "lat": 37.5628,
  "lng": 127.0539
 },
 {
  "name": "하이오 구서점",
  "address": "부산 금정구 금정로233번길 39 하이오 커피샵",
  "combination": "자동",
  "lat": 35.2464,
  "lng": 129.0909
 },
 {
  "name": "로또복권",
  "address": "대구 북구 대현로 63 (대현동)1층",
  "combination": "자동",
  "lat": 35.88498,
  "lng": 128.60497
 },
 {
  "name": "복권전문점",
  "address": "인천 부평구 원적로 437",
  "combination": "수동",
  "lat": 37.50383,
  "lng": 126.7151
 },
 {
  "name": "진 복권판매점",
  "address": "대전 서구 계백로1286번길 32",
  "combination": "자동",
  "lat": 36.306534,
  "lng": 127.36618
 },
 {
  "name": "진플러스",
  "address": "대전 중구 대종로 301-1",
  "combination": "자동",
  "lat": 36.3128,
  "lng": 127.43504
 },
 {
  "name": "지니복권",
  "address": "경기 안산시 단원구 광덕1로 61 106호",
  "combination": "자동",
  "lat": 37.30877,
  "lng": 126.81618
 },
 {
  "name": "신바람",
  "address": "경기 평택시 서해로 1979 101호",
  "combination": "자동",
  "lat": 37.0625,
  "lng": 126.918335
 },
 {
  "name": "오창중앙복권",
  "address": "충북 청주시 청원구 중심상업로 47 103호",
  "combination": "자동",
  "lat": 36.715076,
  "lng": 127.42894
 },
 {
  "name": "에코시티복권판매점",
  "address": "전북 전주시 덕진구 세병로 8",
  "combination": "자동",
  "lat": 35.8721,
  "lng": 127.12022
 }
]