[
 {
  "name": "행운복권방",
  "address": "서울 도봉구 노해로63길 79 우림빌딩106 112호",
  "combination": "자동",
  "lat": 37.65308,
  "lng": 127.0463
 },
 {
  "name": "행운복권방",
  "address": "서울 중랑구 봉우재로 41 1층",
  "combination": "자동",
  "lat": 37.590794,
  "lng": 127.07784
 },
 {
  "name": "돈벼락",
  "address": "부산 사하구 장평로  134 1층",
  "combination": "수동",
  "lat": 35.07796,
  "lng": 128.973
 },
 {
  "name": "로또판매점",
  "address": "대구 동구 해동로 16",
  "combination": "자동",
  "lat": 35.89678,
  "lng": 128.63773
 },
 {
  "name": "새희망복권",
  "address": "인천 부평구 길주로 497 청천동 1층",
  "combination": "자동",
  "lat": 37.50774,
  "lng": 126.7175
 },
 {
  "name": "금돼지로또방",
  "address": "울산 동구 문재로 53",
  "combination": "자동",
  "lat": 35.485783,
  "lng": 129.4203
 },
 {
  "name": "주엽역 로또판매점",
  "address": "경기 고양시 일산서구 중앙로 1437 화성프라자 도로",
  "combination": "자동",
  "lat": 37.670036,
  "lng": 126.76048
 },
 {
  "name": "복권방",
  "address": "경기 의정부시 추동로 3",
  "combination": "자동",
  "lat": 37.742752,
  "lng": 127.056435
 },
 {
  "name": "미라클로또",
  "address": "경기 화성시 행정죽전로1길 29 102호",
  "combination": "수동",
  "lat": 37.12575,
  "lng": 126.92127
 },
 {
  "name": "D-마트 담배",
  "address": "강원 속초시 조양상가길 25 롯데마트속초점, 1층 복권판매점",
  "combination": "자동",
  "lat": 38.190304,
  "lng": 128.57982
 },
 {
  "name": "알리바이금당점",
  "address": "전남 순천시 대석길 44",
  "combination": "수동",
  "lat": 34.945633,
  "lng": 127.526306
 },
 {
  "name": "알리바이금당점",
  "address": "전남 순천시 대석길 44",
  "combination": "수동",
  "lat": 34.945633,
  "lng": 127.526306
 },
 {
  "name": "알리바이금당점",
  "address": "전남 순천시 대석길 44",
  "combination": "수동",
  "lat": 34.945633,
  "lng": 127.526306
 },
 {
  "name": "알리바이금당점",
  "address": "전남 순천시 대석길 44",
  "combination": "수동",
  "lat": 34.945633,
  "lng": 127.526306
 },
 {
  "name": "알리바이금당점",
  "address": "전남 순천시 대석길 44",
  "combination": "수동",
  "lat": 34.945633,
  "lng": 127.526306
 },
 {
  "name": "노다지복권방거창점",
  "address": "경남 거창군 중앙로 108-1",
  "combination": "수동",
  "lat": 35.68605,
  "lng": 127.91028
 },
 {
  "name": "지에스(GS25)뉴양산혜인점",
  "address": "경남 양산시 웅상대로 955 GS편의점",
  "combination": "자동",
  "lat": 35.384914,
  "lng": 129.15508
 }
]