[
 {
  "name": "74호종합가판",
  "address": "서울 종로구 청계천로 111 가판",
  "combination": "자동",
  "lat": 37.568413,
  "lng": 126.98985
 },
 {
  "name": "도시복권",
  "address": "대구 달서구 조암로 62 1층 103호",
  "combination": "자동",
  "lat": 35.823807,
  "lng": 128.52347
 },
 {
  "name": "대박천하마트",
  "address": "인천 부평구 굴포로 48",
  "combination": "수동",
  "lat": 37.51157,
  "lng": 126.72634
 },
 {
  "name": "럭키로또카페",
  "address": "경기 광주시 회안대로 13 매산제일교회 건물 1층",
  "combination": "자동",
  "lat": 37.356575,
  "lng": 127.24592
 },
 {
  "name": "로또 복권방",
  "address": "경기 양주시 칠봉산로 195-7 102호(봉양동)",
  "combination": "자동",
  "lat": 37.851795,
  "lng": 127.07751
 },
 {
  "name": "복돼지복권방",
  "address": "경기 화성시 3.1만세로 43",
  "combination": "수동",
  "lat": 37.08277,
  "lng": 126.81872
 },
 {
  "name": "주택복권방",
  "address": "강원 원주시 우산초교길 29 1층",
  "combination": "자동",
  "lat": 37.36735,
  "lng": 127.937904
 },
 {
  "name": "북부상회",
  "address": "전남 광양시 인덕로 1082",
  "combination": "자동",
  "lat": 34.979324,
  "lng": 127.58303
 },
 {
  "name": "에이스로또",
  "address": "전남 여수시 여서로 154 참마트내",
  "combination": "수동",
  "lat": 34.74815,
  "lng": 127.69863
 },
 {
  "name": "불국사명당복권",
  "address": "경북 경주시 산업로 3033",
  "combination": "수동",
  "lat": 35.7765,
  "lng": 129.29813
 },
 {
  "name": "돈벼락맞는곳 로또점",
  "address": "경남 김해시 선천로 117 복권판매점",
  "combination": "자동",
  "lat": 35.234467,
  "lng": 128.84518
 },
 {
  "name": "제주 일번가",
  "address": "제주 제주시 하귀로23길 1",
  "combination": "수동",
  "lat": 33.480183,
  "lng": 126.40282
 }
]