[
 {
  "name": "행운복권",
  "address": "서울 강북구 솔샘로 212 1층",
  "combination": "자동",
  "lat": 37.619926,
  "lng": 127.01622
 },
 {
  "name": "종합가판점",
  "address": "서울 구로구 가마산로 245 구로구청 앞 버스정류장 앞 가로매점",
  "combination": "자동",
  "lat": 37.49528,
  "lng": 126.88763
 },
 {
  "name": "서울구가-17가판",
  "address": "서울 구로구 구로동로 130-2 구로4동우체국앞가판",
  "combination": "수동",
  "lat": 37.490326,
  "lng": 126.88439
 },
 {
  "name": "빅세일복권방",
  "address": "부산 부산진구 서면문화로 6",
  "combination": "자동",
  "lat": 35.158302,
  "lng": 129.05809
 },
 {
  "name": "셀프카메라",
  "address": "부산 부산진구 가야대로443번길 30",
  "combination": "자동",
  "lat": 35.154446,
  "lng": 129.02167
 },
 {
  "name": "운수대통",
  "address": "인천 부평구 동암광장로 6 1층 A호",
  "combination": "자동",
  "lat": 37.470837,
  "lng": 126.70217
 },
 {
  "name": "당하제일로또",
  "address": "인천 서구 원당대로 676 104호",
  "combination": "수동",
  "lat": 37.593258,
  "lng": 126.67641
 },
 {
  "name": "대박천하",
  "address": "인천 연수구 새말로 37 103호",
  "combination": "자동",
  "lat": 37.42203,
  "lng": 126.67539
 },
 {
  "name": "우리동네마트(무한유통)",
  "address": "광주 광산구 장신로 68 101호",
  "combination": "자동",
  "lat": 35.190487,
  "lng": 126.81769
 },
 {
  "name": "대운",
  "address": "경기 김포시 대명항로 209",
  "combination": "자동",
  "lat": 37.653645,
  "lng": 126.595695
 },
 {
  "name": "예스복권방",
  "address": "경기 남양주시 별내중앙로 56 메인프라자 1층 105호",
  "combination": "자동",
  "lat": 37.647552,
  "lng": 127.12371
 },
 {
  "name": "오예로또",
  "address": "경기 안성시 주래본죽로 32",
  "combination": "자동",
  "lat": 37.093605,
  "lng": 127.477905
 },
 {
  "name": "명당로또",
  "address": "경기 이천시 청백리로84번길 23 104호",
  "combination": "자동",
  "lat": 37.303444,
  "lng": 127.47239
 },
 {
  "name": "복권백화점",
  "address": "경기 파주시 평화로 70",
  "combination": "자동",
  "lat": 37.763588,
  "lng": 126.76989
 },
 {
  "name": "노다지복권방서정지점",
  "address": "경기 평택시 서정역로 23",
  "combination": "자동",
  "lat": 37.0562,
  "lng": 127.05544
 },
 {
  "name": "대박마트복권방",
  "address": "충남 아산시 음봉로 844 태화상가1층103호",
  "combination": "자동",
  "lat": 36.826508,
  "lng": 127.09927
 },
 {
  "name": "울릉로또",
  "address": "경북 울릉군 봉래2길 32-14 1층 울릉로또\u0026커피",
  "combination": "수동",
  "lat": 37.497395,
  "lng": 130.90799
 },
 {
  "name": "복권방",
  "address": "제주 서귀포시 상모로 326",
  "combination": "자동",
  "lat": 33.222324,
  "lng": 126.25469
 },
 {
  "name": "제주대림점",
  "address": "제주 제주시 과원북2길 48",
  "combination": "자동",
  "lat": 33.478714,
  "lng": 126.487656
 }
]