[
 {
  "name": "다올 복권방",
  "address": "서울 중랑구 면목로 423",
  "combination": "반자동",
  "lat": 37.589817,
  "lng": 127.087
 },
 {
  "name": "현정이네",
  "address": "부산 서구 보수대로 184",
  "combination": "자동",
  "lat": 35.111874,
  "lng": 129.02184
 },
 {
  "name": "GS25대구구암센터점",
  "address": "대구 북구 팔거천동로4길 45 1층",
  "combination": "자동",
  "lat": 35.92743,
  "lng": 128.55586
 },
 {
  "name": "베스토아(용전2호)",
  "address": "대전 동구 동서대로 1689 복합터미널서관1층59호",
  "combination": "자동",
  "lat": 36.35038,
  "lng": 127.43664
 },
 {
  "name": "패밀리복권방",
  "address": "경기 남양주시 늘을1로16번길 29 늘봄타워 107호",
  "combination": "자동",
  "lat": 37.654083,
  "lng": 127.243324
 },
 {
  "name": "유방매표소",
  "address": "경기 용인시 처인구 백옥대로 1388",
  "combination": "자동",
  "lat": 37.25881,
  "lng": 127.21292
 },
 {
  "name": "금강로또",
  "address": "충북 옥천군 금강로 596 금강휴게소",
  "combination": "자동",
  "lat": 36.279102,
  "lng": 127.67148
 },
 {
  "name": "세븐마트",
  "address": "충북 청주시 흥덕구 2순환로 1106",
  "combination": "반자동",
  "lat": 36.63572,
  "lng": 127.42144
 },
 {
  "name": "이마트24 천안성환명당점",
  "address": "충남 천안시 서북구 천안대로 1746 아마트24",
  "combination": "자동",
  "lat": 36.89453,
  "lng": 127.13659
 },
 {
  "name": "흥건슈퍼",
  "address": "전북 전주시 완산구 거마평로 25 흥건슈퍼",
  "combination": "자동",
  "lat": 35.794403,
  "lng": 127.11578
 },
 {
  "name": "가족복권방",
  "address": "경남 창원시 진해구 용원동로 255 1층",
  "combination": "수동",
  "lat": 35.095737,
  "lng": 128.8197
 }
]