[
 {
  "name": "차오르다",
  "address": "서울 강서구 강서로54길 11 가동1층",
  "combination": "자동",
  "lat": 37.559307,
  "lng": 126.83932
 },
 {
  "name": "스파",
  "address": "서울 노원구 동일로 1493 주공10단지종합상가111",
  "combination": "자동",
  "lat": 37.66166,
  "lng": 127.05787
 },
 {
  "name": "인터넷 복권판매사이트",
  "address": "동행복권(dhlottery.co.kr)",
  "combination": "자동",
  "lat": 37.482063,
  "lng": 127.015785
 },
 {
  "name": "프로토베팅샵",
  "address": "부산 중구 국제시장2길 5 4호",
  "combination": "자동",
  "lat": 35.099678,
  "lng": 129.0284
 },
 {
  "name": "대복",
  "address": "인천 남동구 남동대로239번길 68 116호",
  "combination": "자동",
  "lat": 37.408127,
  "lng": 126.69581
 },
 {
  "name": "좋은열매복권방",
  "address": "광주 북구 비엔날레로 68 105호(용봉동)",
  "combination": "수동",
  "lat": 35.178017,
  "lng": 126.88973
 },
 {
  "name": "다다복권",
  "address": "세종   충현로 52 A동 9호",
  "combination": "수동",
  "lat": 36.653557,
  "lng": 127.267136
 },
 {
  "name": "담경",
  "address": "경기 성남시 중원구 은이로 12",
  "combination": "자동",
  "lat": 37.45734,
  "lng": 127.1653
 },
 {
  "name": "복권판매점(행운명당)",
  "address": "경기 시흥시 수인로3312번길 16 제티동 T140호",
  "combination": "자동",
  "lat": 37.441856,
  "lng": 126.78943
 },
 {
  "name": "노다지복권방",
  "address": "경기 용인시 처인구 금령로 130",
  "combination": "자동",
  "lat": 37.23509,
  "lng": 127.2105
 },
 {
  "name": "로또카페",
  "address": "경기 평택시 관광특구로 13 1층102호",
  "combination": "수동",
  "lat": 37.06724,
  "lng": 127.06053
 }
]