[
 {
  "name": "경아로또 판매점",
  "address": "서울 동작구 사당로16길 40 1층",
  "combination": "자동",
  "lat": 37.481922,
  "lng": 126.972496
 },
 {
  "name": "가로판매점",
  "address": "서울 서대문구 신촌로 103 신촌역 3번,4번출구 중앙",
  "combination": "자동",
  "lat": 37.55556,
  "lng": 126.937164
 },
 {
  "name": "행운복권방",
  "address": "대구 북구 학정동로 47",
  "combination": "수동",
  "lat": 35.94807,
  "lng": 128.56721
 },
 {
  "name": "대박천하마트",
  "address": "인천 부평구 굴포로 48",
  "combination": "자동",
  "lat": 37.51157,
  "lng": 126.72634
 },
 {
  "name": "황금복권방",
  "address": "인천 연수구 컨벤시아대로 81 송도동 드림시티 113-2호",
  "combination": "자동",
  "lat": 37.394943,
  "lng": 126.65016
 },
 {
  "name": "행운복권(옥산점)",
  "address": "경기 안성시 중앙로 152",
  "combination": "자동",
  "lat": 37.004547,
  "lng": 127.269135
 },
 {
  "name": "대박복권방",
  "address": "경기 연천군 온골로 57-1",
  "combination": "자동",
  "lat": 38.02602,
  "lng": 127.06766
 },
 {
  "name": "럭키복권점",
  "address": "강원 강릉시 강릉대로 305",
  "combination": "자동",
  "lat": 37.76388,
  "lng": 128.90155
 },
 {
  "name": "일송 로또",
  "address": "강원 강릉시 하평3길 37 광옥당(일송상가 102호)",
  "combination": "자동",
  "lat": 37.771717,
  "lng": 128.91473
 },
 {
  "name": "빙그레 돈벼락 맞는곳",
  "address": "경남 김해시 김해대로 910 좌측 복권판매점",
  "combination": "반자동",
  "lat": 35.293262,
  "lng": 128.78296
 },
 {
  "name": "복권파는집",
  "address": "경남 창원시 마산회원구 3·15대로 765",
  "combination": "자동",
  "lat": 35.240227,
  "lng": 128.58365
 }
]