[
 {
  "name": "교통카드충전소",
  "address": "서울 강동구 양재대로 1317",
  "combination": "자동",
  "lat": 37.524006,
  "lng": 127.13426
 },
 {
  "name": "명당복권방",
  "address": "서울 강동구 양재대로124길 57 103호",
  "combination": "자동",
  "lat": 37.542553,
  "lng": 127.14518
 },
 {
  "name": "인터넷 복권판매사이트",
  "address": "동행복권(dhlottery.co.kr)",
  "combination": "수동",
  "lat": 37.482063,
  "lng": 127.015785
 },
 {
  "name": "가판14호",
  "address": "서울 중구 퇴계로 37",
  "combination": "자동",
  "lat": 37.557816,
  "lng": 126.97671
 },
 {
  "name": "서원복권방",
  "address": "부산 강서구 공항로811번길 9",
  "combination": "자동",
  "lat": 35.17945,
  "lng": 128.9573
 },
 {
  "name": "행운복권방",
  "address": "부산 동래구 온천장로 99",
  "combination": "자동",
  "lat": 35.219944,
  "lng": 129.08359
 },
 {
  "name": "천하명당복권",
  "address": "대구 북구 동북로 152",
  "combination": "자동",
  "lat": 35.899677,
  "lng": 128.60947
 },
 {
  "name": "차부상회",
  "address": "경기 김포시 조강로 50",
  "combination": "자동",
  "lat": 37.690342,
  "lng": 126.60031
 },
 {
  "name": "천하명당복권방 곡반한솔점",
  "address": "경기 수원시 권선구 곡반정로65번길 37 102호",
  "combination": "자동",
  "lat": 37.23504,
  "lng": 127.026726
 },
 {
  "name": "주택복권방",
  "address": "강원 원주시 우산초교길 29 1층",
  "combination": "자동",
  "lat": 37.36735,
  "lng": 127.937904
 },
 {
  "name": "평창로또",
  "address": "강원 평창군 평창중앙로 42",
  "combination": "자동",
  "lat": 37.36792,
  "lng": 128.3956
 },
 {
  "name": "로또복권",
  "address": "충북 청주시 상당구 중고개로 344 103호",
  "combination": "수동",
  "lat": 36.630768,
  "lng": 127.50273
 },
 {
  "name": "돈나무 복권",
  "address": "전북 군산시 공단대로 609",
  "combination": "자동",
  "lat": 35.97376,
  "lng": 126.67834
 },
 {
  "name": "홈런복권방",
  "address": "경북 영덕군 남석길 57",
  "combination": "자동",
  "lat": 36.409187,
  "lng": 129.3682
 },
 {
  "name": "로또행운마트",
  "address": "경남 김해시 능동로 177 복권판매점",
  "combination": "수동",
  "lat": 35.203793,
  "lng": 128.81001
 },
 {
  "name": "캠퍼트리 스토어",
  "address": "제주 제주시 해안마을서4길 100",
  "combination": "자동",
  "lat": 33.45168,
  "lng": 126.44838
 }
]