[
 {
  "name": "강원슈퍼",
  "address": "서울 서대문구 모래내로 355",
  "combination": "자동",
  "lat": 37.581635,
  "lng": 126.93554
 },
 {
  "name": "인터넷 복권판매사이트",
  "address": "동행복권(dhlottery.co.kr)",
  "combination": "수동",
  "lat": 37.482063,
  "lng": 127.015785
 },
 {
  "name": "로또 명당",
  "address": "인천 남동구 구월남로 271 102호",
  "combination": "자동",
  "lat": 37.452297,
  "lng": 126.71988
 },
 {
  "name": "현대사",
  "address": "경기 성남시 분당구 미금일로 77 102호",
  "combination": "수동",
  "lat": 37.3456,
  "lng": 127.111084
 },
 {
  "name": "인생역전로또방",
  "address": "경기 성남시 분당구 느티로87번길 6 1층 103호(정자동)",
  "combination": "수동",
  "lat": 37.36913,
  "lng": 127.11442
 },
 {
  "name": "도깨비복권",
  "address": "경기 수원시 장안구 정조로933번길 12 1층(영화동)",
  "combination": "수동",
  "lat": 37.29066,
  "lng": 127.011826
 },
 {
  "name": "대한통신",
  "address": "경기 의정부시 청사로 49 105호",
  "combination": "반자동",
  "lat": 37.75265,
  "lng": 127.069405
 },
 {
  "name": "철암로또점",
  "address": "강원 태백시 장성로 37",
  "combination": "자동",
  "lat": 37.101753,
  "lng": 129.00992
 },
 {
  "name": "복권명당",
  "address": "충북 청주시 상당구 월평로 204",
  "combination": "자동",
  "lat": 36.60882,
  "lng": 127.50627
 },
 {
  "name": "777천하명당",
  "address": "충남 서천군 충절로 54",
  "combination": "자동",
  "lat": 36.074856,
  "lng": 126.68902
 }
]