[
 {
  "name": "길로또복권",
  "address": "서울 강서구 등촌로 215",
  "combination": "자동",
  "lat": 37.548992,
  "lng": 126.86325
 },
 {
  "name": "클로버 복권판매점",
  "address": "서울 송파구 백제고분로50길 19 102호",
  "combination": "자동",
  "lat": 37.513836,
  "lng": 127.117065
 },
 {
  "name": "짱복권",
  "address": "서울 종로구 종로 269 삼신빌딩 1층",
  "combination": "수동",
  "lat": 37.571327,
  "lng": 127.0079
 },
 {
  "name": "짱복권",
  "address": "서울 종로구 종로 269 삼신빌딩 1층",
  "combination": "수동",
  "lat": 37.571327,
  "lng": 127.0079
 },
 {
  "name": "대박천하마트",
  "address": "인천 부평구 굴포로 48",
  "combination": "자동",
  "lat": 37.51157,
  "lng": 126.72634
 },
 {
  "name": "드림마트",
  "address": "인천 서구 검단로 490",
  "combination": "수동",
  "lat": 37.60223,
  "lng": 126.65863
 },
 {
  "name": "노다지복권방백운점",
  "address": "광주 남구 서문대로 827 봉선주월대라수어썸브릿지상가동107호",
  "combination": "자동",
  "lat": 35.13197,
  "lng": 126.90018
 },
 {
  "name": "금두꺼비복권방",
  "address": "경기 고양시 일산서구 강성로 263 재성빌딩1층",
  "combination": "자동",
  "lat": 37.67674,
  "lng": 126.74803
 },
 {
  "name": "우리로또",
  "address": "경기 의정부시 새말로 7 106호(신곡동,GM프라자)",
  "combination": "자동",
  "lat": 37.74813,
  "lng": 127.064705
 },
 {
  "name": "로또편의점",
  "address": "전북 전주시 덕진구 아중로 173",
  "combination": "자동",
  "lat": 35.827095,
  "lng": 127.1683
 },
 {
  "name": "복권명당",
  "address": "경북 경산시 경안로 214",
  "combination": "자동",
  "lat": 35.82663,
  "lng": 128.73682
 },
 {
  "name": "천하명당복권방",
  "address": "경남 거제시 옥포성안로 60",
  "combination": "반자동",
  "lat": 34.891693,
  "lng": 128.69492
 }
]