[
 {
  "name": "행운나눔로또",
  "address": "부산 중구 구덕로34번길 4 가판집",
  "combination": "자동",
  "lat": 35.09831,
  "lng": 129.03232
 },
 {
  "name": "알파슈퍼",
  "address": "인천 계양구 안남로 467",
  "combination": "자동",
  "lat": 37.524673,
  "lng": 126.71043
 },
 {
  "name": "탑로또",
  "address": "인천 남동구 서창남로 81 1층 105호",
  "combination": "자동",
  "lat": 37.426414,
  "lng": 126.748024
 },
 {
  "name": "호매실복권방",
  "address": "경기 수원시 권선구 금곡로196번길 15 1층 106호",
  "combination": "자동",
  "lat": 37.273045,
  "lng": 126.95271
 },
 {
  "name": "오산명당복권방",
  "address": "경기 오산시 원동로37번길 33",
  "combination": "자동",
  "lat": 37.14493,
  "lng": 127.07053
 },
 {
  "name": "도계복권방",
  "address": "강원 삼척시 도계로 287-2",
  "combination": "자동",
  "lat": 37.23491,
  "lng": 129.04465
 },
 {
  "name": "예지몽 로또",
  "address": "강원 원주시 남원로 272 1층",
  "combination": "자동",
  "lat": 37.312874,
  "lng": 127.932365
 },
 {
  "name": "복권나라",
  "address": "강원 원주시 평원로 23 1층",
  "combination": "자동",
  "lat": 37.348927,
  "lng": 127.952644
 },
 {
  "name": "천금복권방",
  "address": "충북 청주시 상당구 쇠내로 150-1",
  "combination": "자동",
  "lat": 36.620747,
  "lng": 127.50797
 },
 {
  "name": "황금로또 양당점",
  "address": "충남 천안시 서북구 상덕로 185 106호",
  "combination": "자동",
  "lat": 36.88308,
  "lng": 127.12373
 },
 {
  "name": "씨유제주 제일점",
  "address": "제주 제주시 신산로 16 CU 제일점",
  "combination": "수동",
  "lat": 33.511852,
  "lng": 126.53152
 }
]