[
 {
  "name": "황금대박점",
  "address": "서울 노원구 공릉로 328",
  "combination": "자동",
  "lat": 37.63598,
  "lng": 127.07099
 },
 {
  "name": "천하명당복권방",
  "address": "서울 성북구 정릉로 268",
  "combination": "자동",
  "lat": 37.603355,
  "lng": 127.01292
 },
 {
  "name": "샛별복권방",
  "address": "서울 중구 동호로10길 12 1층",
  "combination": "자동",
  "lat": 37.55443,
  "lng": 127.01192
 },
 {
  "name": "경동플러스",
  "address": "부산 해운대구 세실로 30 경동G-PLUS아파트상가103",
  "combination": "자동",
  "lat": 35.168427,
  "lng": 129.17944
 },
 {
  "name": "한솔복권\u0026마트",
  "address": "인천 미추홀구 경인로 384 1층 1호",
  "combination": "자동",
  "lat": 37.45807,
  "lng": 126.68257
 },
 {
  "name": "당하복권명당",
  "address": "인천 서구 서곶로 788",
  "combination": "자동",
  "lat": 37.587936,
  "lng": 126.67538
 },
 {
  "name": "천하제일복권명당유성점",
  "address": "대전 유성구 유성대로654번길 111",
  "combination": "수동",
  "lat": 36.350956,
  "lng": 127.33514
 },
 {
  "name": "대곶천국열쇠 로또명당",
  "address": "경기 김포시 율생로 80",
  "combination": "자동",
  "lat": 37.650814,
  "lng": 126.583115
 },
 {
  "name": "도담복권",
  "address": "경기 부천시 역곡로 451 1층",
  "combination": "자동",
  "lat": 37.524967,
  "lng": 126.81549
 },
 {
  "name": "그린마트",
  "address": "경기 성남시 분당구 대왕판교로 255 107호",
  "combination": "자동",
  "lat": 37.366467,
  "lng": 127.10083
 },
 {
  "name": "용꿈 행운 복권방",
  "address": "경기 안양시 동안구 경수대로 541 1층",
  "combination": "자동",
  "lat": 37.406097,
  "lng": 126.91303
 },
 {
  "name": "행운천하명당",
  "address": "충남 서천군 충절로 34",
  "combination": "수동",
  "lat": 36.07537,
  "lng": 126.68639
 }
]