[
 {
  "name": "소비자할인마트",
  "address": "서울 관악구 조원로10길 37",
  "combination": "수동",
  "lat": 37.48196,
  "lng": 126.905106
 },
 {
  "name": "복권판매점",
  "address": "서울 광진구 용마산로7길 17",
  "combination": "수동",
  "lat": 37.559143,
  "lng": 127.08668
 },
 {
  "name": "다모아",
  "address": "서울 구로구 공원로6나길 39-1",
  "combination": "수동",
  "lat": 37.50447,
  "lng": 126.891785
 },
 {
  "name": "태양복권",
  "address": "서울 금천구 시흥대로56길 21 1층",
  "combination": "수동",
  "lat": 37.45269,
  "lng": 126.90291
 },
 {
  "name": "위드미 외대이문점",
  "address": "서울 동대문구 외대역동로 106",
  "combination": "수동",
  "lat": 37.597378,
  "lng": 127.064926
 },
 {
  "name": "가로판매점",
  "address": "서울 영등포구 경인로 862",
  "combination": "자동",
  "lat": 37.51688,
  "lng": 126.90842
 },
 {
  "name": "대박드림",
  "address": "서울 종로구 숭인동길 35",
  "combination": "수동",
  "lat": 37.576656,
  "lng": 127.0218
 },
 {
  "name": "리더스",
  "address": "서울 중랑구 봉화산로 194 신아타운105",
  "combination": "수동",
  "lat": 37.60642,
  "lng": 127.0947
 },
 {
  "name": "복권나라",
  "address": "서울 중랑구 봉화산로 30",
  "combination": "수동",
  "lat": 37.60141,
  "lng": 127.07752
 },
 {
  "name": "일등복권방",
  "address": "부산 남구 고동골로 3",
  "combination": "수동",
  "lat": 35.137333,
  "lng": 129.07097
 },
 {
  "name": "아이스마켓",
  "address": "부산 남구 용호로42번길 37 복권판매점",
  "combination": "자동",
  "lat": 35.12517,
  "lng": 129.10974
 },
 {
  "name": "황금로또",
  "address": "부산 동구 중앙대로251번길 42-1",
  "combination": "자동",
  "lat": 35.12021,
  "lng": 129.03966
 },
 {
  "name": "행운복권방",
  "address": "부산 부산진구 동평로 115",
  "combination": "수동",
  "lat": 35.16629,
  "lng": 129.042
 },
 {
  "name": "행복복권 나드리마트",
  "address": "부산 사상구 사상로 477",
  "combination": "수동",
  "lat": 35.18727,
  "lng": 128.9873
 },
 {
  "name": "청솔서점",
  "address": "부산 사하구 하신번영로 195",
  "combination": "자동",
  "lat": 35.098824,
  "lng": 128.95897
 },
 {
  "name": "금두꺼비",
  "address": "부산 사하구 다송로 12 1층",
  "combination": "수동",
  "lat": 37.066154,
  "lng": 128.9809
 },
 {
  "name": "기술냉동",
  "address": "부산 서구 대영로 44-1 복권판매점",
  "combination": "수동",
  "lat": 35.109425,
  "lng": 129.0164
 },
 {
  "name": "승리복권판매점",
  "address": "부산 수영구 좌수영로101번길 52",
  "combination": "수동",
  "lat": 35.173916,
  "lng": 129.11716
 },
 {
  "name": "승리복권판매점",
  "address": "부산 수영구 좌수영로101번길 52",
  "combination": "수동",
  "lat": 35.173916,
  "lng": 129.11716
 },
 {
  "name": "플러스복권마트",
  "address": "부산 해운대구 해운대로 636",
  "combination": "수동",
  "lat": 35.164116,
  "lng": 129.16016
 },
 {
  "name": "메트로센터점",
  "address": "대구 중구 달구벌대로 지하 2100 메트로센터C412호",
  "combination": "자동",
  "lat": 35.86582,
  "lng": 128.59314
 },
 {
  "name": "운수대통",
  "address": "인천 남동구 석정로 479",
  "combination": "수동",
  "lat": 37.46613,
  "lng": 126.68891
 },
 {
  "name": "오천억복권방",
  "address": "광주 서구 상무대로 1087",
  "combination": "수동",
  "lat": 35.15296,
  "lng": 126.880745
 },
 {
  "name": "로또부동산(동천)",
  "address": "광주 서구 하남대로 704 1층",
  "combination": "수동",
  "lat": 35.171505,
  "lng": 126.869675
 },
 {
  "name": "오천억복권방",
  "address": "광주 서구 상무대로 1087",
  "combination": "수동",
  "lat": 35.15296,
  "lng": 126.880745
 },
 {
  "name": "행운복권방",
  "address": "경기 고양시 덕양구 꽃마을로 45 103호",
  "combination": "수동",
  "lat": 37.6016,
  "lng": 126.89162
 },
 {
  "name": "일등스팟",
  "address": "경기 광주시 새말길 77",
  "combination": "수동",
  "lat": 37.36685,
  "lng": 127.15966
 },
 {
  "name": "로또 복권",
  "address": "경기 구리시 경춘로162번길 31",
  "combination": "수동",
  "lat": 37.599117,
  "lng": 127.13328
 },
 {
  "name": "SPAR편의점",
  "address": "경기 부천시 부흥로 469-1",
  "combination": "수동",
  "lat": 37.48588,
  "lng": 126.79113
 },
 {
  "name": "대박 복권방",
  "address": "경기 부천시 고리울로51번길 43 105호",
  "combination": "수동",
  "lat": 37.529114,
  "lng": 126.82193
 },
 {
  "name": "1번지복권방",
  "address": "경기 성남시 중원구 희망로 448 1층일부 (금광동)",
  "combination": "자동",
  "lat": 37.444973,
  "lng": 127.15739
 },
 {
  "name": "단대대박복권방",
  "address": "경기 성남시 중원구 산성대로372번길 14",
  "combination": "수동",
  "lat": 37.44478,
  "lng": 127.15859
 },
 {
  "name": "자유복권편의점",
  "address": "경기 안산시 단원구 화랑로 358",
  "combination": "수동",
  "lat": 37.32116,
  "lng": 126.82766
 },
 {
  "name": "복돼지복권방",
  "address": "경기 용인시 기흥구 어정로 100 1층 110호(상하동, 조영프라자)",
  "combination": "수동",
  "lat": 37.27437,
  "lng": 127.14081
 },
 {
  "name": "대성기획",
  "address": "경기 용인시 기흥구 구성로 75-1",
  "combination": "수동",
  "lat": 37.29493,
  "lng": 127.1179
 },
 {
  "name": "로또휴게실",
  "address": "경기 용인시 기흥구 용구대로 1885",
  "combination": "자동",
  "lat": 37.256386,
  "lng": 127.10432
 },
 {
  "name": "복돼지복권방",
  "address": "경기 용인시 기흥구 어정로 100 1층 110호(상하동, 조영프라자)",
  "combination": "수동",
  "lat": 37.27437,
  "lng": 127.14081
 },
 {
  "name": "행운복권방",
  "address": "경기 의정부시 충의로 55",
  "combination": "자동",
  "lat": 0,
  "lng": 0
 },
 {
  "name": "태양복권방",
  "address": "경기 파주시 사임당로 138-1",
  "combination": "수동",
  "lat": 37.86615,
  "lng": 126.80652
 },
 {
  "name": "일동복권판매점",
  "address": "경기 포천시 화동로 1081 좌측 2번째 점포",
  "combination": "자동",
  "lat": 0,
  "lng": 0
 },
 {
  "name": "명성복권방",
  "address": "경기 화성시 경기대로 1043",
  "combination": "수동",
  "lat": 37.208466,
  "lng": 127.0343
 },
 {
  "name": "슈퍼맨편의점",
  "address": "강원 강릉시 경강로 2113 꽃사슴복권방",
  "combination": "수동",
  "lat": 37.756042,
  "lng": 128.89757
 },
 {
  "name": "진평양행",
  "address": "강원 강릉시 임영로 107",
  "combination": "자동",
  "lat": 37.751263,
  "lng": 128.89407
 },
 {
  "name": "나래종합상사",
  "address": "충북 괴산군 읍내로 273",
  "combination": "수동",
  "lat": 36.80773,
  "lng": 127.79363
 },
 {
  "name": "대풍로또",
  "address": "충북 청주시 상당구 청남로 2178-1",
  "combination": "수동",
  "lat": 36.62622,
  "lng": 127.4901
 },
 {
  "name": "로또복권방분평점",
  "address": "충북 청주시 서원구 월평로 78",
  "combination": "수동",
  "lat": 0,
  "lng": 0
 },
 {
  "name": "로또복권방",
  "address": "충남 아산시 모산로 124 PGA스크린골프연습장내",
  "combination": "수동",
  "lat": 36.77425,
  "lng": 127.056366
 },
 {
  "name": "행운복권방",
  "address": "충남 예산군 예산로 241",
  "combination": "수동",
  "lat": 0,
  "lng": 0
 },
 {
  "name": "행운로또마트",
  "address": "충남 천안시 서북구 성진로 729",
  "combination": "수동",
  "lat": 0,
  "lng": 0
 },
 {
  "name": "한아름매점",
  "address": "충남 홍성군 광천로 330",
  "combination": "수동",
  "lat": 36.503197,
  "lng": 126.62555
 },
 {
  "name": "영유통(로또복권)",
  "address": "전북 군산시 미룡로 45",
  "combination": "수동",
  "lat": 35.944042,
  "lng": 126.68995
 },
 {
  "name": "대박천국",
  "address": "전북 군산시 가도로 217",
  "combination": "수동",
  "lat": 35.965725,
  "lng": 126.56664
 },
 {
  "name": "썬",
  "address": "전북 전주시 덕진구 우아3길 18",
  "combination": "수동",
  "lat": 35.84879,
  "lng": 127.15499
 },
 {
  "name": "대박찬스",
  "address": "전북 정읍시 관통로 59",
  "combination": "수동",
  "lat": 35.561882,
  "lng": 126.85863
 },
 {
  "name": "미평디씨로또",
  "address": "전남 여수시 미평로 50 DC미평점",
  "combination": "수동",
  "lat": 34.753704,
  "lng": 127.73739
 },
 {
  "name": "미평디씨로또",
  "address": "전남 여수시 미평로 50 DC미평점",
  "combination": "수동",
  "lat": 34.753704,
  "lng": 127.73739
 },
 {
  "name": "도깨비방망이",
  "address": "전남 완도군 장보고대로 220 도깨비방망이",
  "combination": "수동",
  "lat": 34.31606,
  "lng": 126.7492
 },
 {
  "name": "행운복권",
  "address": "경북 구미시 야은로 763",
  "combination": "수동",
  "lat": 36.123886,
  "lng": 128.36266
 },
 {
  "name": "행운복권",
  "address": "경북 구미시 야은로 763",
  "combination": "수동",
  "lat": 36.123886,
  "lng": 128.36266
 },
 {
  "name": "삼영복권",
  "address": "경남 김해시 전하로 275 복권판매점",
  "combination": "수동",
  "lat": 35.22813,
  "lng": 128.87195
 },
 {
  "name": "삼성복권마트",
  "address": "경남 김해시 평전로 20 우리24시슈퍼 내 좌측 복권판매점",
  "combination": "수동",
  "lat": 0,
  "lng": 0
 },
 {
  "name": "목화휴게소",
  "address": "경남 사천시 사천대로 912",
  "combination": "자동",
  "lat": 35.0018,
  "lng": 128.05415
 },
 {
  "name": "복권판매점",
  "address": "경남 창원시 마산회원구 상곡로 49 상가동 109호",
  "combination": "수동",
  "lat": 35.243225,
  "lng": 128.49985
 }
]