[
 {
  "name": "대박로또복권",
  "address": "서울 동대문구 이문로 45 1층 가운데점포 신호등 앞쪽",
  "combination": "자동",
  "lat": 37.59155,
  "lng": 127.0567
 },
 {
  "name": "명신사",
  "address": "서울 마포구 월드컵로 97",
  "combination": "자동",
  "lat": 37.55725,
  "lng": 126.90864
 },
 {
  "name": "인터넷 복권판매사이트",
  "address": "동행복권(dhlottery.co.kr)",
  "combination": "자동",
  "lat": 37.482063,
  "lng": 127.015785
 },
 {
  "name": "롯데무역",
  "address": "부산 영도구 꿈나무길 197 1층 복권방",
  "combination": "자동",
  "lat": 35.087284,
  "lng": 129.04375
 },
 {
  "name": "소래복권",
  "address": "인천 남동구 앵고개로934번길 5",
  "combination": "자동",
  "lat": 37.401836,
  "lng": 126.735115
 },
 {
  "name": "오천억복권방",
  "address": "광주 서구 상무대로 1087",
  "combination": "자동",
  "lat": 35.15296,
  "lng": 126.880745
 },
 {
  "name": "호매실 드림로또",
  "address": "경기 수원시 권선구 호매실로104번길 24-43 제1동 제1층 116호",
  "combination": "자동",
  "lat": 37.257977,
  "lng": 126.96257
 },
 {
  "name": "우리로또",
  "address": "경기 의정부시 새말로 7 106호(신곡동,GM프라자)",
  "combination": "자동",
  "lat": 37.74813,
  "lng": 127.064705
 },
 {
  "name": "토토세상",
  "address": "강원 원주시 조엄로 215 1층",
  "combination": "자동",
  "lat": 37.360428,
  "lng": 127.8604
 },
 {
  "name": "제일백금사",
  "address": "강원 춘천시 약사고개길 1 1층 금은방",
  "combination": "반자동",
  "lat": 37.877903,
  "lng": 127.72501
 },
 {
  "name": "참사랑복권방",
  "address": "충남 천안시 서북구 백석3로 134 대건프라자 109호",
  "combination": "수동",
  "lat": 36.822197,
  "lng": 127.125015
 },
 {
  "name": "효당복권판매점",
  "address": "제주 제주시 노형로 355",
  "combination": "자동",
  "lat": 33.482582,
  "lng": 126.474304
 }
]