[
 {
  "name": "로또복권대치점",
  "address": "서울 강남구 개포로 615 석탑프라자1층",
  "combination": "자동",
  "lat": 37.492683,
  "lng": 127.07561
 },
 {
  "name": "운좋은날",
  "address": "서울 강동구 풍성로 187 102호",
  "combination": "자동",
  "lat": 37.53,
  "lng": 127.13284
 },
 {
  "name": "세계로생활가전",
  "address": "서울 동작구 보라매로 104 1층",
  "combination": "수동",
  "lat": 37.49841,
  "lng": 126.9283
 },
 {
  "name": "세계로생활가전",
  "address": "서울 동작구 보라매로 104 1층",
  "combination": "수동",
  "lat": 37.49841,
  "lng": 126.9283
 },
 {
  "name": "세계로생활가전",
  "address": "서울 동작구 보라매로 104 1층",
  "combination": "수동",
  "lat": 37.49841,
  "lng": 126.9283
 },
 {
  "name": "세계로생활가전",
  "address": "서울 동작구 보라매로 104 1층",
  "combination": "수동",
  "lat": 37.49841,
  "lng": 126.9283
 },
 {
  "name": "세계로생활가전",
  "address": "서울 동작구 보라매로 104 1층",
  "combination": "수동",
  "lat": 37.49841,
  "lng": 126.9283
 },
 {
  "name": "제일슈퍼",
  "address": "서울 서대문구 응암로 79",
  "combination": "자동",
  "lat": 37.58027,
  "lng": 126.911255
 },
 {
  "name": "인터넷 복권판매사이트",
  "address": "동행복권(dhlottery.co.kr)",
  "combination": "자동",
  "lat": 37.482063,
  "lng": 127.015785
 },
 {
  "name": "인터넷 복권판매사이트",
  "address": "동행복권(dhlottery.co.kr)",
  "combination": "자동",
  "lat": 37.482063,
  "lng": 127.015785
 },
 {
  "name": "행운충전소",
  "address": "서울 성북구 보문로29길 5 1층 일부",
  "combination": "수동",
  "lat": 37.587643,
  "lng": 127.01765
 },
 {
  "name": "산수로또",
  "address": "광주 동구 필문대로 194",
  "combination": "수동",
  "lat": 35.15352,
  "lng": 126.93115
 },
 {
  "name": "세븐일레븐 중동현대점",
  "address": "경기 부천시 석천로183번길 35 102호",
  "combination": "자동",
  "lat": 37.503925,
  "lng": 126.76111
 },
 {
  "name": "흥양마중물",
  "address": "강원 원주시 치악로 2335 1층",
  "combination": "자동",
  "lat": 37.3837,
  "lng": 127.97537
 },
 {
  "name": "봉평명당",
  "address": "강원 평창군 기풍로 145",
  "combination": "자동",
  "lat": 37.615482,
  "lng": 128.37805
 },
 {
  "name": "선경로또",
  "address": "충북 제천시 용두대로 59 1층",
  "combination": "자동",
  "lat": 37.13622,
  "lng": 128.19936
 },
 {
  "name": "복권나라",
  "address": "충북 청주시 상당구 상당로 9",
  "combination": "자동",
  "lat": 36.629227,
  "lng": 127.491035
 }
]