[
 {
  "name": "엔마트",
  "address": "서울 동대문구 장한로31길 10",
  "combination": "수동",
  "lat": 37.575424,
  "lng": 127.0713
 },
 {
  "name": "코사마트",
  "address": "서울 동작구 상도로 10-7",
  "combination": "수동",
  "lat": 37.499718,
  "lng": 126.92203
 },
 {
  "name": "인터넷 복권판매사이트",
  "address": "동행복권(dhlottery.co.kr)",
  "combination": "자동",
  "lat": 37.482063,
  "lng": 127.015785
 },
 {
  "name": "금호동",
  "address": "광주 서구 화개1로 63 1층 107호",
  "combination": "자동",
  "lat": 35.129517,
  "lng": 126.85512
 },
 {
  "name": "제이마트",
  "address": "울산 울주군 방천7길 6",
  "combination": "자동",
  "lat": 35.56611,
  "lng": 129.11105
 },
 {
  "name": "일산복권",
  "address": "경기 고양시 일산서구 중앙로 1493 애비뉴상가1090호",
  "combination": "자동",
  "lat": 37.67238,
  "lng": 126.75469
 },
 {
  "name": "복권천국",
  "address": "경기 광명시 기아로 6",
  "combination": "수동",
  "lat": 37.436337,
  "lng": 126.880295
 },
 {
  "name": "소망상사",
  "address": "경기 남양주시 다산중앙로82번안길 115-4",
  "combination": "반자동",
  "lat": 37.61221,
  "lng": 127.165184
 },
 {
  "name": "세븐일레븐 홍익점",
  "address": "경기 안성시 종합운동장로 161",
  "combination": "자동",
  "lat": 37.012398,
  "lng": 12.238893
 },
 {
  "name": "복권방",
  "address": "경기 의정부시 추동로 3",
  "combination": "자동",
  "lat": 37.742752,
  "lng": 127.056435
 },
 {
  "name": "운수대통복권방",
  "address": "충남 천안시 동남구 대흥로 122 중앙시장 입구",
  "combination": "자동",
  "lat": 36.80049,
  "lng": 127.14926
 }
]