[
 {
  "name": "종합가판점",
  "address": "서울 동대문구 왕산로40길 6 건물 앞쪽 가판점 청량리역 5번출구 앞쪽",
  "combination": "자동",
  "lat": 37.579697,
  "lng": 127.04497
 },
 {
  "name": "G마트",
  "address": "서울 영등포구 디지털로 387",
  "combination": "자동",
  "lat": 37.491634,
  "lng": 126.902115
 },
 {
  "name": "몽곡사",
  "address": "서울 영등포구 버드나루로 51 조광빌딩105호",
  "combination": "자동",
  "lat": 37.523067,
  "lng": 126.910576
 },
 {
  "name": "삼송행운복권점",
  "address": "경기 고양시 덕양구 삼송로 189-7 106호",
  "combination": "자동",
  "lat": 37.65378,
  "lng": 126.89479
 },
 {
  "name": "나눔로또한대점",
  "address": "경기 안산시 상록구 중보로 57 한양대프라자106호",
  "combination": "자동",
  "lat": 37.30809,
  "lng": 126.852844
 },
 {
  "name": "북부슈퍼",
  "address": "경기 의정부시 가능로125번길 22",
  "combination": "자동",
  "lat": 37.74797,
  "lng": 127.04477
 },
 {
  "name": "에이치엑스(HX)복권방",
  "address": "경기 이천시 경충대로 2106 106호 복권방",
  "combination": "자동",
  "lat": 37.291096,
  "lng": 127.44803
 },
 {
  "name": "백억만로또",
  "address": "강원 춘천시 퇴계로 15 7B-3L",
  "combination": "자동",
  "lat": 37.866093,
  "lng": 127.72451
 },
 {
  "name": "해수로또",
  "address": "충북 청주시 상당구 산성로 22-1",
  "combination": "수동",
  "lat": 36.62615,
  "lng": 127.49938
 },
 {
  "name": "로또스튜디오",
  "address": "충북 청주시 청원구 사뜸로 48-1 1층",
  "combination": "자동",
  "lat": 36.666542,
  "lng": 127.48148
 },
 {
  "name": "강경복권방",
  "address": "충남 논산시 계백로 126-1",
  "combination": "자동",
  "lat": 36.15601,
  "lng": 127.014854
 },
 {
  "name": "신천하명당",
  "address": "충남 예산군 발연로 1 이마트 24 내",
  "combination": "자동",
  "lat": 36.698784,
  "lng": 126.8296
 },
 {
  "name": "복권명당울진점",
  "address": "경북 울진군 울진중앙로 79",
  "combination": "자동",
  "lat": 36.989258,
  "lng": 129.39883
 }
]