[
 {
  "name": "복권마을",
  "address": "서울 구로구 구로동로 72",
  "combination": "자동",
  "lat": 37.485348,
  "lng": 126.88605
 },
 {
  "name": "정안 복권방",
  "address": "서울 노원구 동일로 1308 정안프라자 102호 일부",
  "combination": "자동",
  "lat": 37.645973,
  "lng": 127.06416
 },
 {
  "name": "인터넷 복권판매사이트",
  "address": "동행복권(dhlottery.co.kr)",
  "combination": "자동",
  "lat": 37.482063,
  "lng": 127.015785
 },
 {
  "name": "인터넷 복권판매사이트",
  "address": "동행복권(dhlottery.co.kr)",
  "combination": "자동",
  "lat": 37.482063,
  "lng": 127.015785
 },
 {
  "name": "가든파이브 복권",
  "address": "서울 송파구 충민로 52 가든파이브웍스 제지1층 제비에프10777-2호",
  "combination": "수동",
  "lat": 37.47772,
  "lng": 127.12275
 },
 {
  "name": "금사랑",
  "address": "서울 양천구 월정로 38",
  "combination": "반자동",
  "lat": 37.523212,
  "lng": 126.84258
 },
 {
  "name": "행운복권방",
  "address": "서울 은평구 서오릉로 10",
  "combination": "반자동",
  "lat": 37.602295,
  "lng": 126.92678
 },
 {
  "name": "로또생삼겹",
  "address": "인천 남동구 논고개로 77",
  "combination": "수동",
  "lat": 37.39841,
  "lng": 126.726234
 },
 {
  "name": "정가네 가람기정떡",
  "address": "인천 남동구 에코중앙로156번길 5-27 1층",
  "combination": "자동",
  "lat": 37.387196,
  "lng": 126.71797
 },
 {
  "name": "복권판매점",
  "address": "광주 광산구 단전4길 10 상가 가동 107호",
  "combination": "수동",
  "lat": 35.1804,
  "lng": 126.79934
 },
 {
  "name": "행운",
  "address": "광주 광산구 신창로 56 1층 부동산114",
  "combination": "자동",
  "lat": 35.19018,
  "lng": 126.83733
 },
 {
  "name": "버스매표소",
  "address": "경기 부천시 부천로 151",
  "combination": "자동",
  "lat": 37.49774,
  "lng": 126.78533
 },
 {
  "name": "한빛3단지 천지인",
  "address": "경기 파주시 와석순환로 66 103호",
  "combination": "자동",
  "lat": 37.71032,
  "lng": 126.75176
 },
 {
  "name": "아포로또중앙점",
  "address": "경북 김천시 국사길 202",
  "combination": "수동",
  "lat": 36.16078,
  "lng": 128.25969
 }
]