[
 {
  "name": "로또판매점",
  "address": "서울 영등포구 시흥대로 671 1층 8호(대림동)",
  "combination": "자동",
  "lat": 37.519188,
  "lng": 126.93084
 },
 {
  "name": "1등다수복권마트",
  "address": "대구 북구 팔달로27길 81 1층",
  "combination": "수동",
  "lat": 35.89221,
  "lng": 128.56813
 },
 {
  "name": "챕터원커피(부평남부역점)",
  "address": "인천 부평구 남부역로20번길 24 1층(부평동)",
  "combination": "자동",
  "lat": 37.488934,
  "lng": 126.72283
 },
 {
  "name": "평동로또복권 1호점",
  "address": "광주 광산구 송촌길 1 이마트24",
  "combination": "반자동",
  "lat": 35.13861,
  "lng": 126.77342
 },
 {
  "name": "베스토아(용전2호)",
  "address": "대전 동구 동서대로 1689 복합터미널서관1층59호",
  "combination": "수동",
  "lat": 36.35038,
  "lng": 127.43664
 },
 {
  "name": "대성기획",
  "address": "경기 용인시 기흥구 구성로 75-1",
  "combination": "자동",
  "lat": 37.29493,
  "lng": 127.1179
 },
 {
  "name": "좋은터",
  "address": "경기 의정부시 동일로454번길 19 1층(신곡동)",
  "combination": "수동",
  "lat": 37.728825,
  "lng": 127.06055
 },
 {
  "name": "일등복권",
  "address": "경북 칠곡군 금암중앙길 42",
  "combination": "자동",
  "lat": 35.982574,
  "lng": 128.55367
 },
 {
  "name": "로또복권 포항IC점",
  "address": "경북 포항시 북구 새마을로 340 세븐일레븐 옆",
  "combination": "자동",
  "lat": 36.045876,
  "lng": 129.32777
 }
]