[
 {
  "name": "새시대복권방",
  "address": "서울 금천구 탑골로 6-1",
  "combination": "수동",
  "lat": 37.450966,
  "lng": 126.91035
 },
 {
  "name": "오케이상사",
  "address": "서울 서초구 신반포로 176 센트럴시티내100호매점",
  "combination": "자동",
  "lat": 37.504353,
  "lng": 127.00359
 },
 {
  "name": "현대슈퍼",
  "address": "서울 중랑구 봉우재로 203-1",
  "combination": "자동",
  "lat": 37.5948,
  "lng": 127.095276
 },
 {
  "name": "돈벼락맞는곳",
  "address": "부산 동구 조방로49번길 18-1",
  "combination": "자동",
  "lat": 35.139168,
  "lng": 129.05995
 },
 {
  "name": "행운복권방",
  "address": "인천 부평구 경인로 745 102호",
  "combination": "자동",
  "lat": 37.484352,
  "lng": 126.710754
 },
 {
  "name": "호반할인마트",
  "address": "광주 광산구 도산로9번길 40",
  "combination": "자동",
  "lat": 35.127934,
  "lng": 126.790115
 },
 {
  "name": "차밍플라워 로또",
  "address": "광주 광산구 풍영로 41 동구빌딩1층",
  "combination": "자동",
  "lat": 35.175617,
  "lng": 126.811584
 },
 {
  "name": "히든로또",
  "address": "대전 대덕구 대화로 119 1층",
  "combination": "자동",
  "lat": 36.36594,
  "lng": 127.406845
 },
 {
  "name": "교통카드충전소",
  "address": "경기 고양시 덕양구 화정로 지하 60 화정역 2번출구",
  "combination": "수동",
  "lat": 37.634552,
  "lng": 126.83321
 },
 {
  "name": "성강동인",
  "address": "경기 하남시 신장로 212 1층 2호",
  "combination": "자동",
  "lat": 37.543922,
  "lng": 127.19827
 },
 {
  "name": "기원점",
  "address": "경남 창녕군 동포로 9",
  "combination": "수동",
  "lat": 35.390175,
  "lng": 128.48163
 },
 {
  "name": "공단로또점",
  "address": "경남 함안군 삼칠로 831 슈퍼 옆 1층",
  "combination": "수동",
  "lat": 35.360252,
  "lng": 128.48526
 }
]