[
 {
  "name": "옥수역복권방",
  "address": "서울 성동구 한림말길 49",
  "combination": "수동",
  "lat": 37.54156,
  "lng": 127.016594
 },
 {
  "name": "대왕로또",
  "address": "부산 영도구 남항로 35",
  "combination": "자동",
  "lat": 35.088993,
  "lng": 129.04027
 },
 {
  "name": "훼미리마트영도모닝점",
  "address": "부산 영도구 태종로100번길 3",
  "combination": "자동",
  "lat": 35.091187,
  "lng": 129.04182
 },
 {
  "name": "소래복권",
  "address": "인천 남동구 앵고개로934번길 5",
  "combination": "수동",
  "lat": 37.401836,
  "lng": 126.735115
 },
 {
  "name": "노다지천국",
  "address": "인천 미추홀구 인주대로 185 1층1호",
  "combination": "자동",
  "lat": 37.455578,
  "lng": 126.65764
 },
 {
  "name": "굿샷",
  "address": "경기 고양시 일산동구 위시티로 49 104호",
  "combination": "자동",
  "lat": 37.67672,
  "lng": 126.809845
 },
 {
  "name": "대박",
  "address": "경기 구리시 안골로103번길 46",
  "combination": "자동",
  "lat": 37.599422,
  "lng": 127.14154
 },
 {
  "name": "패밀리복권방",
  "address": "경기 남양주시 늘을1로16번길 29 늘봄타워 107호",
  "combination": "자동",
  "lat": 37.654083,
  "lng": 127.243324
 },
 {
  "name": "퍼스트",
  "address": "경기 성남시 수정구 산성대로 523 1층",
  "combination": "반자동",
  "lat": 37.457905,
  "lng": 127.163635
 },
 {
  "name": "성원 복권방",
  "address": "강원 인제군 원통로 169",
  "combination": "자동",
  "lat": 38.12235,
  "lng": 128.20317
 },
 {
  "name": "로또명당금왕점",
  "address": "충북 음성군 탑골길 55 세븐일레븐 금왕점",
  "combination": "수동",
  "lat": 36.990955,
  "lng": 127.58632
 },
 {
  "name": "로또명당해미점",
  "address": "충남 서산시 남문2로 108",
  "combination": "자동",
  "lat": 36.71344,
  "lng": 126.54419
 },
 {
  "name": "대산슈퍼",
  "address": "충남 천안시 동남구 복구정3길 1",
  "combination": "수동",
  "lat": 36.76989,
  "lng": 127.250206
 },
 {
  "name": "복권명당",
  "address": "경북 경산시 경안로 214",
  "combination": "자동",
  "lat": 35.82663,
  "lng": 128.73682
 }
]