[
 {
  "name": "장안평역 3번출구 가판대",
  "address": "서울 동대문구 장한로 6-1 장한평역 3번출구 앞 가판대",
  "combination": "자동",
  "lat": 37.561966,
  "lng": 127.06511
 },
 {
  "name": "그랜드마트앞가판점",
  "address": "서울 마포구 신촌로 94",
  "combination": "자동",
  "lat": 37.554924,
  "lng": 126.93597
 },
 {
  "name": "인터넷 복권판매사이트",
  "address": "동행복권(dhlottery.co.kr)",
  "combination": "자동",
  "lat": 37.482063,
  "lng": 127.015785
 },
 {
  "name": "호야식품",
  "address": "서울 양천구 중앙로 234",
  "combination": "수동",
  "lat": 37.51745,
  "lng": 126.85433
 },
 {
  "name": "복남이로또방",
  "address": "부산 남구 유엔평화로 14",
  "combination": "자동",
  "lat": 35.13396,
  "lng": 129.0918
 },
 {
  "name": "부일카서비스",
  "address": "부산 동구 자성로133번길 35",
  "combination": "반자동",
  "lat": 35.140015,
  "lng": 129.06306
 },
 {
  "name": "금두꺼비복권방",
  "address": "경기 고양시 일산서구 강성로 263 재성빌딩1층",
  "combination": "자동",
  "lat": 37.67674,
  "lng": 126.74803
 },
 {
  "name": "일등복권",
  "address": "경기 양주시 송랑로 223",
  "combination": "자동",
  "lat": 37.804436,
  "lng": 127.08527
 },
 {
  "name": "스피드세븐",
  "address": "경기 화성시 한절이길 15 101호",
  "combination": "자동",
  "lat": 37.11733,
  "lng": 126.91574
 },
 {
  "name": "흥양마중물",
  "address": "강원 원주시 치악로 2335 1층",
  "combination": "자동",
  "lat": 37.3837,
  "lng": 127.97537
 },
 {
  "name": "태안로또복권방",
  "address": "충남 태안군 독샘로 57",
  "combination": "자동",
  "lat": 36.75318,
  "lng": 126.29935
 },
 {
  "name": "알리바이(나주점)",
  "address": "전남 나주시 나주로 142 알리바이",
  "combination": "수동",
  "lat": 35.031338,
  "lng": 126.71719
 },
 {
  "name": "스포츠복권방",
  "address": "경남 양산시 황산로 675",
  "combination": "자동",
  "lat": 35.330875,
  "lng": 129.0067
 }
]