[
 {
  "name": "신사우리가판",
  "address": "서울 강남구 강남대로 620",
  "combination": "수동",
  "lat": 37.51676,
  "lng": 127.02005
 },
 {
  "name": "복권천국(수성점)",
  "address": "대구 수성구 수성로 263",
  "combination": "수동",
  "lat": 35.849064,
  "lng": 128.61285
 },
 {
  "name": "나눔로또 판교역점",
  "address": "경기 성남시 분당구 대왕판교로606번길 39 107호",
  "combination": "자동",
  "lat": 37.396473,
  "lng": 127.11148
 },
 {
  "name": "설레임 복권",
  "address": "경기 수원시 영통구 삼성로168번길 21 1층",
  "combination": "수동",
  "lat": 37.258358,
  "lng": 127.057785
 },
 {
  "name": "대박로또판매점",
  "address": "경기 안산시 단원구 석수로 55 102호",
  "combination": "자동",
  "lat": 37.341465,
  "lng": 126.80755
 },
 {
  "name": "복주머니 복권판매점",
  "address": "경기 용인시 기흥구 동백5로 21-5",
  "combination": "자동",
  "lat": 37.27683,
  "lng": 127.15208
 },
 {
  "name": "주몽동명",
  "address": "경기 용인시 수지구 포은대로 319 중앙빌딩 104호",
  "combination": "자동",
  "lat": 37.315742,
  "lng": 127.08753
 },
 {
  "name": "로또판매 행운점",
  "address": "충북 청주시 청원구 충청대로 97",
  "combination": "수동",
  "lat": 36.665314,
  "lng": 127.49296
 },
 {
  "name": "썬마트",
  "address": "충북 청주시 흥덕구 진재로23번길 25",
  "combination": "자동",
  "lat": 36.632607,
  "lng": 127.42811
 },
 {
  "name": "천하명당복권방",
  "address": "충남 홍성군 조양로 180",
  "combination": "자동",
  "lat": 36.60072,
  "lng": 126.66951
 },
 {
  "name": "대광복권방",
  "address": "전남 화순군 칠충로 55 대광그린상가동 1층109호",
  "combination": "자동",
  "lat": 35.05548,
  "lng": 126.97712
 },
 {
  "name": "팔팔복권",
  "address": "경북 김천시 시청로 81 (신음동)좌측상가",
  "combination": "자동",
  "lat": 36.135597,
  "lng": 128.11705
 }
]