[
 {
  "name": "럭키라쿤복권상암점",
  "address": "서울 마포구 월드컵북로44길 49 1층 좌측(상암동)",
  "combination": "자동",
  "lat": 37.576805,
  "lng": 126.89473
 },
 {
  "name": "인터넷 복권판매사이트",
  "address": "동행복권(dhlottery.co.kr)",
  "combination": "자동",
  "lat": 37.482063,
  "lng": 127.015785
 },
 {
  "name": "인터넷 복권판매사이트",
  "address": "동행복권(dhlottery.co.kr)",
  "combination": "수동",
  "lat": 37.482063,
  "lng": 127.015785
 },
 {
  "name": "프로토베팅샵",
  "address": "부산 중구 국제시장2길 5 4호",
  "combination": "수동",
  "lat": 35.099678,
  "lng": 129.0284
 },
 {
  "name": "드림복권방",
  "address": "경기 의정부시 청사로5번길 26",
  "combination": "자동",
  "lat": 37.748814,
  "lng": 127.06965
 },
 {
  "name": "이제이",
  "address": "경기 화성시 동탄산척로2나길 4-12 102호",
  "combination": "자동",
  "lat": 37.17465,
  "lng": 127.11433
 },
 {
  "name": "동해복권방",
  "address": "강원 강릉시 하평길 40",
  "combination": "수동",
  "lat": 37.770157,
  "lng": 128.91298
 },
 {
  "name": "황금알복권",
  "address": "전남 광양시 광포로 39 1층 (광영동)",
  "combination": "자동",
  "lat": 34.962803,
  "lng": 127.72284
 },
 {
  "name": "평화슈퍼",
  "address": "경북 경주시 안강중앙로 219 1층좌측상가",
  "combination": "수동",
  "lat": 35.99247,
  "lng": 129.22406
 },
 {
  "name": "평화슈퍼",
  "address": "경북 경주시 안강중앙로 219 1층좌측상가",
  "combination": "수동",
  "lat": 35.99247,
  "lng": 129.22406
 },
 {
  "name": "일화로또",
  "address": "경북 영양군 중앙로 124",
  "combination": "자동",
  "lat": 36.664295,
  "lng": 129.11386
 }
]