[
 {
  "name": "복권나라",
  "address": "서울 관악구 은천로 40-1",
  "combination": "자동",
  "lat": 37.48599,
  "lng": 126.93982
 },
 {
  "name": "부일카서비스",
  "address": "부산 동구 자성로133번길 35",
  "combination": "자동",
  "lat": 35.140015,
  "lng": 129.06306
 },
 {
  "name": "세러데이 845",
  "address": "광주 광산구 첨단중앙로182번길 90 상가동 1층 129호(첨단대라수어썸시티)",
  "combination": "수동",
  "lat": 35.221333,
  "lng": 126.85135
 },
 {
  "name": "로또명당반곡점",
  "address": "세종   한누리대로 1821 수루배마을5단지 상가 114호",
  "combination": "자동",
  "lat": 36.49743,
  "lng": 127.312386
 },
 {
  "name": "이마트24 일산덕이점",
  "address": "경기 고양시 일산서구 미래로 164",
  "combination": "자동",
  "lat": 37.69311,
  "lng": 126.74687
 },
 {
  "name": "행운로또",
  "address": "경기 김포시 약암로 911",
  "combination": "자동",
  "lat": 37.635002,
  "lng": 126.55378
 },
 {
  "name": "예스복권방",
  "address": "경기 남양주시 별내중앙로 56 메인프라자 1층 105호",
  "combination": "자동",
  "lat": 37.647552,
  "lng": 127.12371
 },
 {
  "name": "대길복권",
  "address": "경기 수원시 장안구 서부로 2129-1 1층 (율전동)",
  "combination": "자동",
  "lat": 37.298744,
  "lng": 126.971306
 },
 {
  "name": "25시슈퍼",
  "address": "경기 시흥시 함송로14번길 13-17 홍익프라자1층107호",
  "combination": "자동",
  "lat": 37.362453,
  "lng": 126.72994
 }
]