[
 {
  "name": "인터넷 복권판매사이트",
  "address": "동행복권(dhlottery.co.kr)",
  "combination": "자동",
  "lat": 37.482063,
  "lng": 127.015785
 },
 {
  "name": "가로판매점",
  "address": "서울 용산구 원효로 166",
  "combination": "자동",
  "lat": 37.53501,
  "lng": 126.961555
 },
 {
  "name": "제이복권방",
  "address": "서울 종로구 종로 225-1 평창빌딩 1층 103호",
  "combination": "자동",
  "lat": 37.571293,
  "lng": 127.00283
 },
 {
  "name": "전원레코드",
  "address": "부산 북구 효열로 226",
  "combination": "수동",
  "lat": 35.263943,
  "lng": 129.01996
 },
 {
  "name": "홀인원복권",
  "address": "대구 수성구 범어로 91-1 1층,좌측상가(범어동)",
  "combination": "자동",
  "lat": 35.85768,
  "lng": 128.63564
 },
 {
  "name": "천하명당복권방",
  "address": "대전 대덕구 계족로 563",
  "combination": "자동",
  "lat": 36.361885,
  "lng": 127.43114
 },
 {
  "name": "한꿈복권방",
  "address": "울산 중구 번영로 586",
  "combination": "자동",
  "lat": 35.568794,
  "lng": 129.34589
 },
 {
  "name": "우(旴)마트",
  "address": "경기 구리시 안골로 80",
  "combination": "수동",
  "lat": 37.59725,
  "lng": 127.13999
 },
 {
  "name": "로또1등판매점",
  "address": "경기 화성시 초록로 20-3 101호",
  "combination": "자동",
  "lat": 37.077232,
  "lng": 126.970535
 },
 {
  "name": "꿈꾸는돼지",
  "address": "경기 화성시 동탄지성로 104 109호",
  "combination": "자동",
  "lat": 37.20833,
  "lng": 127.06421
 },
 {
  "name": "주택복권방",
  "address": "강원 원주시 우산초교길 29 1층",
  "combination": "자동",
  "lat": 37.36735,
  "lng": 127.937904
 }
]