[
 {
  "name": "하이로또",
  "address": "서울 금천구 금하로 686",
  "combination": "자동",
  "lat": 37.451874,
  "lng": 126.906334
 },
 {
  "name": "토큰판매소",
  "address": "서울 송파구 바람드리길 62",
  "combination": "자동",
  "lat": 37.536663,
  "lng": 127.12238
 },
 {
  "name": "부일카서비스",
  "address": "부산 동구 자성로133번길 35",
  "combination": "자동",
  "lat": 35.140015,
  "lng": 129.06306
 },
 {
  "name": "노다지복권방",
  "address": "부산 북구 덕천로 287",
  "combination": "수동",
  "lat": 35.20986,
  "lng": 129.03535
 },
 {
  "name": "영화유통(1등복권방)",
  "address": "울산 남구 신정로 19 삼성아파트 상가 204-101",
  "combination": "자동",
  "lat": 35.533833,
  "lng": 129.32205
 },
 {
  "name": "일등복권방",
  "address": "울산 중구 북부순환도로 879",
  "combination": "수동",
  "lat": 35.580967,
  "lng": 129.34612
 },
 {
  "name": "광명로또명당",
  "address": "경기 광명시 양지로 19 B동 1층 145호 (유플레닛 어반브릭스)",
  "combination": "자동",
  "lat": 37.419018,
  "lng": 126.88262
 },
 {
  "name": "대운",
  "address": "경기 김포시 대명항로 209",
  "combination": "자동",
  "lat": 37.653645,
  "lng": 126.595695
 },
 {
  "name": "패밀리복권방",
  "address": "경기 남양주시 늘을1로16번길 29 늘봄타워 107호",
  "combination": "자동",
  "lat": 37.654083,
  "lng": 127.243324
 },
 {
  "name": "한양복권방",
  "address": "경기 남양주시 진벌로 85",
  "combination": "반자동",
  "lat": 37.744137,
  "lng": 127.21484
 },
 {
  "name": "송추장흥로또",
  "address": "경기 양주시 호국로 511",
  "combination": "자동",
  "lat": 37.716553,
  "lng": 126.97139
 },
 {
  "name": "경서로또",
  "address": "경기 양평군 경강로 1039 1층",
  "combination": "자동",
  "lat": 37.51213,
  "lng": 127.401665
 },
 {
  "name": "행복로또판매점",
  "address": "경기 의정부시 오목로 219 106호",
  "combination": "자동",
  "lat": 37.745884,
  "lng": 127.09935
 },
 {
  "name": "동남운천복권",
  "address": "충북 청주시 상당구 중고개로125번길 17",
  "combination": "수동",
  "lat": 36.61543,
  "lng": 127.51741
 },
 {
  "name": "여기있었네복권방",
  "address": "전북 김제시 남북로 171",
  "combination": "자동",
  "lat": 35.79936,
  "lng": 126.88456
 },
 {
  "name": "토마토 남악복권방",
  "address": "전남 무안군 남악4로82번길 44 1층",
  "combination": "자동",
  "lat": 34.811867,
  "lng": 126.47037
 },
 {
  "name": "행복충전",
  "address": "경북 포항시 북구 삼흥로 441 3호",
  "combination": "자동",
  "lat": 36.097492,
  "lng": 129.37115
 },
 {
  "name": "지에스(GS25)뉴양산혜인점",
  "address": "경남 양산시 웅상대로 955 GS편의점",
  "combination": "자동",
  "lat": 35.384914,
  "lng": 129.15508
 }
]