[
 {
  "name": "제이복권방",
  "address": "서울 종로구 종로 225-1 평창빌딩 1층 103호",
  "combination": "자동",
  "lat": 37.571293,
  "lng": 127.00283
 },
 {
  "name": "저스트로또",
  "address": "서울 중랑구 사가정로 412-3 1층",
  "combination": "자동",
  "lat": 37.580223,
  "lng": 127.09049
 },
 {
  "name": "행복로또",
  "address": "부산 사상구 사상로 226 1층",
  "combination": "수동",
  "lat": 35.16512,
  "lng": 128.98338
 },
 {
  "name": "복터진나라",
  "address": "부산 서구 대영로 27 1층 복권판매점",
  "combination": "자동",
  "lat": 35.109715,
  "lng": 129.01494
 },
 {
  "name": "주엽역 로또판매점",
  "address": "경기 고양시 일산서구 중앙로 1437 도로",
  "combination": "자동",
  "lat": 37.670036,
  "lng": 126.76048
 },
 {
  "name": "세븐일레븐남양주차산점",
  "address": "경기 남양주시 수레로 1096",
  "combination": "자동",
  "lat": 37.635174,
  "lng": 127.30377
 },
 {
  "name": "복권명당",
  "address": "경기 안성시 승두길 62",
  "combination": "자동",
  "lat": 37.000015,
  "lng": 127.17315
 },
 {
  "name": "일등복권",
  "address": "경기 양주시 송랑로 223",
  "combination": "자동",
  "lat": 37.804436,
  "lng": 127.08527
 },
 {
  "name": "대박명당",
  "address": "경기 양주시 옥정동로5길 6",
  "combination": "수동",
  "lat": 37.81649,
  "lng": 127.098755
 },
 {
  "name": "세븐복권방",
  "address": "경기 파주시 해올2길 16 107호",
  "combination": "수동",
  "lat": 37.73408,
  "lng": 126.731636
 },
 {
  "name": "세븐복권방",
  "address": "경기 파주시 해올2길 16 107호",
  "combination": "수동",
  "lat": 37.73408,
  "lng": 126.731636
 },
 {
  "name": "세븐복권방",
  "address": "경기 파주시 해올2길 16 107호",
  "combination": "수동",
  "lat": 37.73408,
  "lng": 126.731636
 },
 {
  "name": "세븐복권방",
  "address": "경기 파주시 해올2길 16 107호",
  "combination": "수동",
  "lat": 37.73408,
  "lng": 126.731636
 },
 {
  "name": "세븐복권방",
  "address": "경기 파주시 해올2길 16 107호",
  "combination": "수동",
  "lat": 37.73408,
  "lng": 126.731636
 },
 {
  "name": "해적책대여점 복권방",
  "address": "충북 청주시 서원구 대원로 28",
  "combination": "수동",
  "lat": 36.639973,
  "lng": 127.479355
 },
 {
  "name": "행운복권",
  "address": "전남 무안군 영산로 1693 1층",
  "combination": "자동",
  "lat": 34.90968,
  "lng": 126.42971
 },
 {
  "name": "로하",
  "address": "경남 창원시 의창구 소계로84번길 13-1",
  "combination": "반자동",
  "lat": 35.257717,
  "lng": 128.60057
 }
]