[
 {
  "name": "수서 원스토어",
  "address": "서울 강남구 밤고개로1길 10 지하1층 제비 138호",
  "combination": "자동",
  "lat": 37.488026,
  "lng": 127.101845
 },
 {
  "name": "미나식품(로또판매점)",
  "address": "서울 강서구 금낭화로 91-12",
  "combination": "수동",
  "lat": 37.5735,
  "lng": 126.81066
 },
 {
  "name": "진우복권",
  "address": "부산 연제구 월드컵대로 119 204호(연산동)",
  "combination": "자동",
  "lat": 35.184826,
  "lng": 129.08208
 },
 {
  "name": "로또나라",
  "address": "대구 남구 장전1길 30-21",
  "combination": "수동",
  "lat": 35.84196,
  "lng": 128.57289
 },
 {
  "name": "왕대박(복권방)",
  "address": "대구 북구 칠성남로 143 1층전체",
  "combination": "수동",
  "lat": 35.87749,
  "lng": 128.5965
 },
 {
  "name": "알리바이",
  "address": "광주 광산구 수등로 253 1층 알리바이",
  "combination": "자동",
  "lat": 35.185387,
  "lng": 126.83668
 },
 {
  "name": "마리골드",
  "address": "대전 대덕구 동춘당로114번길 9 해피존 245호",
  "combination": "자동",
  "lat": 36.367004,
  "lng": 127.4382
 },
 {
  "name": "대전하이퍼",
  "address": "대전 중구 보문산로 76",
  "combination": "자동",
  "lat": 36.305202,
  "lng": 127.388824
 },
 {
  "name": "로또대박",
  "address": "경기 부천시 석천로177번길 11 1층 105호",
  "combination": "자동",
  "lat": 37.503178,
  "lng": 126.76193
 },
 {
  "name": "풍전슈퍼",
  "address": "경기 부천시 조마루로 428",
  "combination": "자동",
  "lat": 37.49708,
  "lng": 126.79113
 },
 {
  "name": "은행복권방",
  "address": "경기 성남시 중원구 산성대로 512-1 1층 1호",
  "combination": "자동",
  "lat": 37.456642,
  "lng": 127.163475
 },
 {
  "name": "로또매점",
  "address": "충남 당진시 송산로 723",
  "combination": "자동",
  "lat": 36.953873,
  "lng": 126.68932
 },
 {
  "name": "행복로또",
  "address": "충남 아산시 아산밸리남로 81 816동 106호",
  "combination": "자동",
  "lat": 36.920097,
  "lng": 127.05493
 },
 {
  "name": "대박마트복권방",
  "address": "충남 아산시 음봉로 844 태화상가1층103호",
  "combination": "자동",
  "lat": 36.826508,
  "lng": 127.09927
 },
 {
  "name": "이마트24 순천산단점",
  "address": "전남 순천시 산단1길 6",
  "combination": "자동",
  "lat": 34.987934,
  "lng": 127.50839
 },
 {
  "name": "복권당",
  "address": "경북 영천시 강변로 60",
  "combination": "자동",
  "lat": 35.96122,
  "lng": 128.9294
 },
 {
  "name": "씨유 제주연북로점",
  "address": "제주 제주시 연북로 260 1층",
  "combination": "자동",
  "lat": 33.48115,
  "lng": 126.50896
 }
]