[
 {
  "name": "일확천금",
  "address": "서울 강동구 진황도로 168-1",
  "combination": "자동",
  "lat": 37.53109,
  "lng": 127.142075
 },
 {
  "name": "인터넷 복권판매사이트",
  "address": "동행복권(dhlottery.co.kr)",
  "combination": "수동",
  "lat": 37.482063,
  "lng": 127.015785
 },
 {
  "name": "복권세상",
  "address": "서울 양천구 곰달래로5길 26",
  "combination": "자동",
  "lat": 37.531918,
  "lng": 126.83368
 },
 {
  "name": "빅세일복권방",
  "address": "부산 부산진구 서면문화로 6",
  "combination": "자동",
  "lat": 35.158302,
  "lng": 129.05809
 },
 {
  "name": "로또복권",
  "address": "대구 동구 아양로 294 1층",
  "combination": "수동",
  "lat": 35.890434,
  "lng": 128.64297
 },
 {
  "name": "로또명당 퍼니마트",
  "address": "인천 미추홀구 문학길 4 편의점내",
  "combination": "반자동",
  "lat": 37.43852,
  "lng": 126.681046
 },
 {
  "name": "로또복권방",
  "address": "대전 서구 갈마중로 28",
  "combination": "수동",
  "lat": 36.347527,
  "lng": 127.37245
 },
 {
  "name": "오렌지25",
  "address": "경기 고양시 일산서구 고봉로 291 양우에이스스타디움109",
  "combination": "자동",
  "lat": 37.68528,
  "lng": 126.777145
 },
 {
  "name": "로또복권로데오서현점",
  "address": "경기 성남시 분당구 분당로53번길 20 1층 109호(서현동, 이랜드분당프라자)",
  "combination": "수동",
  "lat": 37.38407,
  "lng": 127.12263
 },
 {
  "name": "오늘의로또",
  "address": "경기 오산시 궐리사로 75",
  "combination": "수동",
  "lat": 37.15869,
  "lng": 127.06062
 },
 {
  "name": "오늘의로또",
  "address": "경기 오산시 궐리사로 75",
  "combination": "수동",
  "lat": 37.15869,
  "lng": 127.06062
 },
 {
  "name": "오늘의로또",
  "address": "경기 오산시 궐리사로 75",
  "combination": "수동",
  "lat": 37.15869,
  "lng": 127.06062
 },
 {
  "name": "오늘의로또",
  "address": "경기 오산시 궐리사로 75",
  "combination": "수동",
  "lat": 37.15869,
  "lng": 127.06062
 },
 {
  "name": "복권",
  "address": "경기 의정부시 태평로 75",
  "combination": "자동",
  "lat": 37.739246,
  "lng": 127.05129
 },
 {
  "name": "럭키로또복권판매점",
  "address": "충북 청주시 상당구 무농정로 10-1",
  "combination": "자동",
  "lat": 36.605873,
  "lng": 127.50429
 },
 {
  "name": "오사랑복권",
  "address": "충북 청주시 흥덕구 진재로 42",
  "combination": "자동",
  "lat": 36.634895,
  "lng": 127.42964
 },
 {
  "name": "청호복권방",
  "address": "전남 목포시 용당로 296 1층 2호",
  "combination": "자동",
  "lat": 34.81318,
  "lng": 126.39991
 }
]