[
 {
  "name": "플러스복권",
  "address": "서울 강서구 공항대로41길 34 1층 113B호",
  "combination": "수동",
  "lat": 37.559273,
  "lng": 126.845695
 },
 {
  "name": "로또복권",
  "address": "서울 관악구 장군봉1길 29",
  "combination": "수동",
  "lat": 37.48181,
  "lng": 126.94167
 },
 {
  "name": "제일식품",
  "address": "서울 서대문구 증가로 143",
  "combination": "자동",
  "lat": 37.57747,
  "lng": 126.92169
 },
 {
  "name": "로또복권판매점",
  "address": "서울 양천구 남부순환로79길 11 1층 103호",
  "combination": "자동",
  "lat": 37.516994,
  "lng": 126.84111
 },
 {
  "name": "해바라기 복권방",
  "address": "서울 영등포구 대림로 170 101호",
  "combination": "수동",
  "lat": 37.49614,
  "lng": 126.89962
 },
 {
  "name": "대박 동행로또복권",
  "address": "서울 중구 청계천로 246 평화시장1층 84호",
  "combination": "자동",
  "lat": 37.56936,
  "lng": 127.00455
 },
 {
  "name": "돼지복권명당",
  "address": "부산 기장군 해맞이로 365-1",
  "combination": "자동",
  "lat": 35.32655,
  "lng": 129.27667
 },
 {
  "name": "원화복권샵",
  "address": "대구 남구 명덕로 74 1층",
  "combination": "수동",
  "lat": 35.85794,
  "lng": 128.57861
 },
 {
  "name": "하영",
  "address": "인천 서구 청라에메랄드로 65 아파트 상가 102호",
  "combination": "자동",
  "lat": 37.53106,
  "lng": 126.6557
 },
 {
  "name": "NBA(엔비에이)",
  "address": "인천 중구 신도시남로142번길 6 1동 1층 128호",
  "combination": "자동",
  "lat": 37.4934,
  "lng": 126.49157
 },
 {
  "name": "옥교대박점",
  "address": "울산 중구 옥교3길 94 (학산동)",
  "combination": "반자동",
  "lat": 35.553345,
  "lng": 129.33134
 },
 {
  "name": "인생로또",
  "address": "경기 고양시 덕양구 통일로768번길 17 1층",
  "combination": "수동",
  "lat": 37.68855,
  "lng": 126.865295
 },
 {
  "name": "훼밀리슈퍼",
  "address": "경기 구리시 건원대로34번길 19 세신훼밀리타운102",
  "combination": "자동",
  "lat": 37.604492,
  "lng": 127.14132
 },
 {
  "name": "전인정보통신",
  "address": "경기 남양주시 진건오남로 658 외1필지1층101",
  "combination": "수동",
  "lat": 37.69125,
  "lng": 127.21451
 },
 {
  "name": "건우유통",
  "address": "경기 성남시 중원구 박석로 80 1층",
  "combination": "자동",
  "lat": 37.439846,
  "lng": 127.16526
 },
 {
  "name": "복권전문점",
  "address": "경기 시흥시 중심상가로 323",
  "combination": "수동",
  "lat": 37.337162,
  "lng": 126.748276
 },
 {
  "name": "복권전문점",
  "address": "경기 시흥시 중심상가로 323",
  "combination": "수동",
  "lat": 37.337162,
  "lng": 126.748276
 },
 {
  "name": "복권전문점",
  "address": "경기 시흥시 중심상가로 323",
  "combination": "수동",
  "lat": 37.337162,
  "lng": 126.748276
 },
 {
  "name": "복권전문점",
  "address": "경기 시흥시 중심상가로 323",
  "combination": "수동",
  "lat": 37.337162,
  "lng": 126.748276
 },
 {
  "name": "복권전문점",
  "address": "경기 시흥시 중심상가로 323",
  "combination": "수동",
  "lat": 37.337162,
  "lng": 126.748276
 },
 {
  "name": "복권백화점",
  "address": "경기 여주시 세종로 41 1층",
  "combination": "수동",
  "lat": 37.294037,
  "lng": 127.63629
 },
 {
  "name": "노다지복권방",
  "address": "경기 용인시 처인구 금령로 130",
  "combination": "수동",
  "lat": 37.23509,
  "lng": 127.2105
 },
 {
  "name": "로또복권",
  "address": "경기 평택시 원평로 55",
  "combination": "수동",
  "lat": 36.990513,
  "lng": 127.08356
 },
 {
  "name": "용이복권방",
  "address": "경기 평택시 현신3길 44",
  "combination": "자동",
  "lat": 36.996967,
  "lng": 127.139626
 },
 {
  "name": "북평로또",
  "address": "강원 동해시 대동로 93 1층",
  "combination": "수동",
  "lat": 37.4807,
  "lng": 129.1283
 },
 {
  "name": "북평로또",
  "address": "강원 동해시 대동로 93 1층",
  "combination": "수동",
  "lat": 37.4807,
  "lng": 129.1283
 },
 {
  "name": "혁신대박",
  "address": "충북 음성군 원중로 1434 103호(에스타워)",
  "combination": "자동",
  "lat": 36.909523,
  "lng": 127.54108
 },
 {
  "name": "또또복권방",
  "address": "전북 익산시 고봉로32길 3",
  "combination": "수동",
  "lat": 35.95982,
  "lng": 126.971695
 },
 {
  "name": "전국구로또복권방",
  "address": "전북 전주시 완산구 장승배기로 397",
  "combination": "수동",
  "lat": 35.806084,
  "lng": 127.15224
 },
 {
  "name": "복권나라",
  "address": "전남 목포시 당가두로14번길 47-1 103호 복권나라",
  "combination": "수동",
  "lat": 34.807583,
  "lng": 126.43719
 },
 {
  "name": "큐마트학동점복권",
  "address": "전남 여수시 학동서5길 2 큐마트내",
  "combination": "수동",
  "lat": 34.761883,
  "lng": 127.65653
 },
 {
  "name": "아포로또중앙점",
  "address": "경북 김천시 국사길 202",
  "combination": "수동",
  "lat": 36.16078,
  "lng": 128.25969
 },
 {
  "name": "천하명당",
  "address": "경남 양산시 연호로 46 복권판매점",
  "combination": "자동",
  "lat": 35.41573,
  "lng": 129.17523
 },
 {
  "name": "서창복권나라",
  "address": "경남 양산시 서창서2길 3",
  "combination": "수동",
  "lat": 35.416225,
  "lng": 129.17226
 },
 {
  "name": "행운복권방",
  "address": "경남 창원시 성산구 가음로15번길 52",
  "combination": "자동",
  "lat": 35.213013,
  "lng": 128.70322
 }
]