[
 {
  "name": "명당마트",
  "address": "서울 강서구 양천로 91",
  "combination": "수동",
  "lat": 37.573605,
  "lng": 126.81405
 },
 {
  "name": "종로3가1호선역2번출구가로판매점82호",
  "address": "서울 종로구 돈화문로 23 가판",
  "combination": "자동",
  "lat": 37.5707,
  "lng": 126.991875
 },
 {
  "name": "롯데무역",
  "address": "부산 영도구 꿈나무길 197 1층 복권방",
  "combination": "자동",
  "lat": 35.087284,
  "lng": 129.04375
 },
 {
  "name": "다다복권방",
  "address": "대구 달서구 월배로 32-1 1층 복권방",
  "combination": "수동",
  "lat": 35.812386,
  "lng": 128.51874
 },
 {
  "name": "금산홍삼 복권판매점",
  "address": "대전 동구 보문로 4 101호",
  "combination": "수동",
  "lat": 36.315372,
  "lng": 127.44009
 },
 {
  "name": "한국슈퍼",
  "address": "경기 부천시 원종로35번길 24 한울빌리지 상가101호",
  "combination": "수동",
  "lat": 37.52506,
  "lng": 126.80412
 },
 {
  "name": "까치복권방",
  "address": "경기 시흥시 중심상가로 326 1층102",
  "combination": "자동",
  "lat": 37.336678,
  "lng": 126.74821
 },
 {
  "name": "1등 복권",
  "address": "경기 시흥시 배곧4로 32-27 105호",
  "combination": "자동",
  "lat": 37.3777,
  "lng": 126.72552
 },
 {
  "name": "드림메드",
  "address": "경기 안산시 상록구 월피로 56 101호",
  "combination": "자동",
  "lat": 37.3334,
  "lng": 126.85087
 },
 {
  "name": "나눔로또한대점",
  "address": "경기 안산시 상록구 중보로 57 한양대프라자106호",
  "combination": "자동",
  "lat": 37.30809,
  "lng": 126.852844
 },
 {
  "name": "세븐일레븐 홍익점",
  "address": "경기 안성시 종합운동장로 161",
  "combination": "자동",
  "lat": 37.012398,
  "lng": 12.238893
 },
 {
  "name": "복권",
  "address": "경기 의정부시 태평로 75",
  "combination": "자동",
  "lat": 37.739246,
  "lng": 127.05129
 },
 {
  "name": "복권세상",
  "address": "전남 목포시 청호로 139 1층 복권세상",
  "combination": "자동",
  "lat": 34.8039,
  "lng": 126.37585
 },
 {
  "name": "왕대박복권방",
  "address": "경북 문경시 중앙로 15",
  "combination": "자동",
  "lat": 36.588123,
  "lng": 128.19293
 },
 {
  "name": "본스튜디오",
  "address": "제주 제주시 하귀로 111",
  "combination": "자동",
  "lat": 33.48359,
  "lng": 126.407875
 }
]