[
 {
  "name": "아셈마트",
  "address": "서울 강남구 영동대로112길 10",
  "combination": "자동",
  "lat": 37.51498,
  "lng": 127.061005
 },
 {
  "name": "노다지훼밀리",
  "address": "서울 강동구 구천면로 251",
  "combination": "자동",
  "lat": 37.542835,
  "lng": 127.13127
 },
 {
  "name": "대박로또",
  "address": "부산 북구 낙동대로1780번길 78",
  "combination": "자동",
  "lat": 35.206635,
  "lng": 129.00415
 },
 {
  "name": "럭키",
  "address": "부산 북구 시랑로 137",
  "combination": "자동",
  "lat": 35.19547,
  "lng": 129.01039
 },
 {
  "name": "스위트초이스",
  "address": "부산 사상구 사상로 300 단지내 상가 401동 13호",
  "combination": "자동",
  "lat": 35.171658,
  "lng": 128.98369
 },
 {
  "name": "삼산현대로또",
  "address": "울산 남구 월평로 225 1층",
  "combination": "자동",
  "lat": 35.546803,
  "lng": 129.3294
 },
 {
  "name": "세종로또방",
  "address": "세종   용포로 32",
  "combination": "자동",
  "lat": 36.461655,
  "lng": 127.280685
 },
 {
  "name": "패밀리복권방",
  "address": "경기 남양주시 늘을1로16번길 29 늘봄타워 107호",
  "combination": "수동",
  "lat": 37.654083,
  "lng": 127.243324
 },
 {
  "name": "황금당",
  "address": "경기 부천시 원종로 37",
  "combination": "자동",
  "lat": 37.524246,
  "lng": 126.80418
 },
 {
  "name": "안성휴게소 복권판매점(부산방향)",
  "address": "경기 안성시 경부고속도로 365 안성휴게소 하행선 내",
  "combination": "수동",
  "lat": 37.013092,
  "lng": 127.145065
 },
 {
  "name": "황금로또",
  "address": "경기 여주시 청심로 24 1층 복권방",
  "combination": "자동",
  "lat": 37.300823,
  "lng": 127.62353
 },
 {
  "name": "드림오피스문구",
  "address": "강원 춘천시 퇴계로 213",
  "combination": "자동",
  "lat": 37.856632,
  "lng": 127.742294
 },
 {
  "name": "로또 복권방",
  "address": "충북 청주시 흥덕구 서현로 60 138호",
  "combination": "반자동",
  "lat": 36.61751,
  "lng": 127.42863
 },
 {
  "name": "인생역전 복권방",
  "address": "충남 논산시 중앙로 168 1층 102호",
  "combination": "자동",
  "lat": 36.18387,
  "lng": 127.10521
 },
 {
  "name": "로또복권",
  "address": "대구 군위군 중앙길 32",
  "combination": "자동",
  "lat": 36.231487,
  "lng": 128.56749
 }
]