[
 {
  "name": "행운의집",
  "address": "서울 강동구 구천면로 220",
  "combination": "자동",
  "lat": 37.540466,
  "lng": 127.1292
 },
 {
  "name": "꾸미로또복권",
  "address": "서울 강북구 솔샘로67길 118 1층",
  "combination": "수동",
  "lat": 37.62231,
  "lng": 127.02697
 },
 {
  "name": "꾸미로또복권",
  "address": "서울 강북구 솔샘로67길 118 1층",
  "combination": "수동",
  "lat": 37.62231,
  "lng": 127.02697
 },
 {
  "name": "꾸미로또복권",
  "address": "서울 강북구 솔샘로67길 118 1층",
  "combination": "수동",
  "lat": 37.62231,
  "lng": 127.02697
 },
 {
  "name": "꾸미로또복권",
  "address": "서울 강북구 솔샘로67길 118 1층",
  "combination": "수동",
  "lat": 37.62231,
  "lng": 127.02697
 },
 {
  "name": "꾸미로또복권",
  "address": "서울 강북구 솔샘로67길 118 1층",
  "combination": "수동",
  "lat": 37.62231,
  "lng": 127.02697
 },
 {
  "name": "정원복권방",
  "address": "서울 도봉구 도봉로 468 1층 101-3호",
  "combination": "자동",
  "lat": 37.64732,
  "lng": 127.03438
 },
 {
  "name": "영웅시대",
  "address": "부산 기장군 반룡로 182 복권판매점",
  "combination": "수동",
  "lat": 35.3395,
  "lng": 129.2629
 },
 {
  "name": "중앙동역 나들가게24",
  "address": "부산 중구 중앙대로 96 흥우빌딩1층 나들가게편의점",
  "combination": "수동",
  "lat": 35.10627,
  "lng": 129.03659
 },
 {
  "name": "대전우표사",
  "address": "대전 동구 중앙로204번길 16-1",
  "combination": "자동",
  "lat": 36.330036,
  "lng": 127.432076
 },
 {
  "name": "대박명당",
  "address": "울산 북구 매곡로 93-2",
  "combination": "자동",
  "lat": 35.641518,
  "lng": 129.35464
 },
 {
  "name": "담꾹 구리수택점",
  "address": "경기 구리시 안골로 101",
  "combination": "수동",
  "lat": 37.597645,
  "lng": 127.14244
 },
 {
  "name": "행운을주는로또판매점",
  "address": "경기 안산시 단원구 초지로 90 태영프라자111호",
  "combination": "수동",
  "lat": 37.306877,
  "lng": 126.81511
 },
 {
  "name": "희망을주는사람",
  "address": "경기 용인시 처인구 양지로 111 1층 상가",
  "combination": "수동",
  "lat": 37.23453,
  "lng": 127.28051
 },
 {
  "name": "대박행진 복권랜드",
  "address": "경기 파주시 금빛로 22 금촌프라자107호",
  "combination": "자동",
  "lat": 37.751614,
  "lng": 126.76691
 },
 {
  "name": "로또명당인주점",
  "address": "충남 아산시 서해로 519-2",
  "combination": "자동",
  "lat": 36.87784,
  "lng": 126.89828
 },
 {
  "name": "행운복권",
  "address": "전남 무안군 영산로 1693 1층",
  "combination": "자동",
  "lat": 34.90968,
  "lng": 126.42971
 },
 {
  "name": "터미널",
  "address": "전남 진도군 남문길 5 진도공용버스터미널",
  "combination": "자동",
  "lat": 34.47865,
  "lng": 126.26157
 },
 {
  "name": "칠복복권방",
  "address": "경북 경주시 입실로 68 1층",
  "combination": "반자동",
  "lat": 35.714397,
  "lng": 129.32462
 },
 {
  "name": "수경볼트로또",
  "address": "경남 양산시 고연로 283 복권판매점",
  "combination": "자동",
  "lat": 35.431553,
  "lng": 129.1786
 },
 {
  "name": "이마트24 마산만복점",
  "address": "경남 창원시 마산회원구 합성옛길 152",
  "combination": "자동",
  "lat": 35.238274,
  "lng": 128.5839
 }
]