[
 {
  "name": "예지행복",
  "address": "서울 양천구 월정로 59 가동 101호",
  "combination": "반자동",
  "lat": 37.524853,
  "lng": 126.84132
 },
 {
  "name": "당하복권명당",
  "address": "인천 서구 서곶로 788",
  "combination": "자동",
  "lat": 37.587936,
  "lng": 126.67538
 },
 {
  "name": "NBA(엔비에이)",
  "address": "인천 중구 신도시남로142번길 6 1동 1층 128호",
  "combination": "자동",
  "lat": 37.4934,
  "lng": 126.49157
 },
 {
  "name": "돈돈복권방",
  "address": "대전 서구 계룡로 560",
  "combination": "자동",
  "lat": 36.342228,
  "lng": 127.38585
 },
 {
  "name": "팬시코아",
  "address": "경기 남양주시 퇴계원로 46-1",
  "combination": "수동",
  "lat": 37.650906,
  "lng": 127.14208
 },
 {
  "name": "명당복권방",
  "address": "경기 남양주시 창현로 7",
  "combination": "수동",
  "lat": 37.65021,
  "lng": 127.306244
 },
 {
  "name": "복권명당",
  "address": "경기 안산시 단원구 선부로 258 102호",
  "combination": "수동",
  "lat": 37.341152,
  "lng": 126.82362
 },
 {
  "name": "천하명당안산",
  "address": "경기 안산시 상록구 수인로 2020 103호",
  "combination": "수동",
  "lat": 37.36354,
  "lng": 126.87623
 },
 {
  "name": "행운 복권",
  "address": "강원 동해시 임항로 55 상가동 202-5 가,나호(부곡동,삼정2차아파트)",
  "combination": "반자동",
  "lat": 37.53892,
  "lng": 129.10785
 },
 {
  "name": "돈방석",
  "address": "전북 전주시 완산구 서신로 35",
  "combination": "자동",
  "lat": 35.82855,
  "lng": 127.11558
 },
 {
  "name": "중앙복권",
  "address": "전남 신안군 구영2길 74 1층",
  "combination": "자동",
  "lat": 34.886765,
  "lng": 126.04432
 },
 {
  "name": "제일복권",
  "address": "제주 제주시 서광로 257",
  "combination": "자동",
  "lat": 33.5001,
  "lng": 126.524055
 }
]