[
 {
  "name": "마카로또",
  "address": "서울 서초구 서초대로 279 1층",
  "combination": "자동",
  "lat": 37.49346,
  "lng": 127.01218
 },
 {
  "name": "인터넷 복권판매사이트",
  "address": "동행복권(dhlottery.co.kr)",
  "combination": "수동",
  "lat": 37.482063,
  "lng": 127.015785
 },
 {
  "name": "데이앤나잇",
  "address": "서울 성북구 종암로 132 종암우림카이저팰리스 1층 101호",
  "combination": "자동",
  "lat": 37.601955,
  "lng": 127.03346
 },
 {
  "name": "한경종합광고",
  "address": "서울 송파구 백제고분로 198",
  "combination": "반자동",
  "lat": 37.50393,
  "lng": 127.08855
 },
 {
  "name": "행운명당",
  "address": "서울 양천구 신월로 302 1층",
  "combination": "수동",
  "lat": 37.5211,
  "lng": 126.854385
 },
 {
  "name": "로또킹",
  "address": "서울 영등포구 영중로 2 1층(영등포동3가)",
  "combination": "자동",
  "lat": 37.516743,
  "lng": 126.906746
 },
 {
  "name": "로또판매점",
  "address": "부산 사하구 승학로284번길 42",
  "combination": "자동",
  "lat": 35.10242,
  "lng": 128.99779
 },
 {
  "name": "대박복권방",
  "address": "인천 서구 길주로 106 1층 (석남동)",
  "combination": "자동",
  "lat": 37.5062,
  "lng": 126.6736
 },
 {
  "name": "대박복권방",
  "address": "광주 동구 남문로 561 대박복권방",
  "combination": "반자동",
  "lat": 35.121105,
  "lng": 126.93298
 },
 {
  "name": "온천로또방",
  "address": "대전 유성구 계룡로 92 1층 101-3호",
  "combination": "자동",
  "lat": 36.353638,
  "lng": 127.34119
 },
 {
  "name": "설악복권방",
  "address": "경기 가평군 신천중앙로 80 1층 복권방",
  "combination": "수동",
  "lat": 37.67583,
  "lng": 127.49408
 },
 {
  "name": "메가마트",
  "address": "경기 시흥시 정왕대로 64 메가쇼핑몰1층123호",
  "combination": "수동",
  "lat": 37.354103,
  "lng": 126.72363
 },
 {
  "name": "메가마트",
  "address": "경기 시흥시 정왕대로 64 메가쇼핑몰1층123호",
  "combination": "수동",
  "lat": 37.354103,
  "lng": 126.72363
 },
 {
  "name": "행운을주는로또판매점",
  "address": "경기 안산시 단원구 초지로 90 태영프라자111호",
  "combination": "자동",
  "lat": 37.306877,
  "lng": 126.81511
 },
 {
  "name": "드림복권방",
  "address": "충북 청주시 흥덕구 내수동로42번길 4",
  "combination": "자동",
  "lat": 36.632572,
  "lng": 127.452034
 },
 {
  "name": "안면대박복권방",
  "address": "충남 태안군 안면대로 2649 2동 2호",
  "combination": "자동",
  "lat": 36.534523,
  "lng": 126.35183
 },
 {
  "name": "로또로복권",
  "address": "전북 전주시 완산구 모악로 4729",
  "combination": "자동",
  "lat": 35.791546,
  "lng": 127.131294
 },
 {
  "name": "나눔로또편의점",
  "address": "전남 광양시 공영로 90",
  "combination": "자동",
  "lat": 34.935658,
  "lng": 127.699066
 },
 {
  "name": "대광복권방",
  "address": "전남 화순군 칠충로 55 대광그린상가동 1층109호",
  "combination": "자동",
  "lat": 35.05548,
  "lng": 126.97712
 },
 {
  "name": "비산강변파라디아복권",
  "address": "경북 구미시 신비로 95 A동103호(공단동,강변파리디아)",
  "combination": "수동",
  "lat": 36.12134,
  "lng": 128.37283
 },
 {
  "name": "탑로또",
  "address": "경남 거제시 거제중앙로 1787 서원탑훼밀리마트고현점 내(계룡온천옆)",
  "combination": "수동",
  "lat": 34.878452,
  "lng": 128.62807
 }
]