[
 {
  "name": "서울복권명당",
  "address": "서울 강북구 삼양로 194 1층",
  "combination": "수동",
  "lat": 37.621185,
  "lng": 127.02074
 },
 {
  "name": "그랜드마트앞가판점",
  "address": "서울 마포구 신촌로 94",
  "combination": "자동",
  "lat": 37.554924,
  "lng": 126.93597
 },
 {
  "name": "드림로또",
  "address": "서울 서초구 신반포로 194 쇼케이스12호",
  "combination": "반자동",
  "lat": 37.50551,
  "lng": 127.007034
 },
 {
  "name": "교통카드",
  "address": "서울 서초구 강남대로 517",
  "combination": "수동",
  "lat": 37.5081,
  "lng": 127.022255
 },
 {
  "name": "금나와라뚝딱",
  "address": "서울 성북구 오패산로 57 1층",
  "combination": "반자동",
  "lat": 37.60729,
  "lng": 127.03619
 },
 {
  "name": "오륜",
  "address": "부산 금정구 체육공원로 591 복권판매점",
  "combination": "수동",
  "lat": 35.29348,
  "lng": 129.11125
 },
 {
  "name": "복권명당",
  "address": "대구 동구 경안로 751",
  "combination": "수동",
  "lat": 35.869484,
  "lng": 128.71349
 },
 {
  "name": "버스매표소",
  "address": "인천 부평구 부평대로 3 가판",
  "combination": "자동",
  "lat": 37.49181,
  "lng": 126.722725
 },
 {
  "name": "온천로또방",
  "address": "대전 유성구 계룡로 92 1층 101-3호",
  "combination": "수동",
  "lat": 36.353638,
  "lng": 127.34119
 },
 {
  "name": "두근두근로또복권",
  "address": "경기 고양시 일산동구 일산로 453 1층 106호",
  "combination": "수동",
  "lat": 37.673714,
  "lng": 126.77627
 },
 {
  "name": "다니엘사",
  "address": "경기 안산시 단원구 원선1로 38 101호",
  "combination": "수동",
  "lat": 37.326073,
  "lng": 126.80417
 },
 {
  "name": "홈플러스선부점로또판매",
  "address": "경기 안산시 단원구 삼일로 316",
  "combination": "자동",
  "lat": 37.33378,
  "lng": 126.81258
 },
 {
  "name": "다니엘사",
  "address": "경기 안산시 단원구 원선1로 38 101호",
  "combination": "수동",
  "lat": 37.326073,
  "lng": 126.80417
 },
 {
  "name": "다니엘사",
  "address": "경기 안산시 단원구 원선1로 38 101호",
  "combination": "수동",
  "lat": 37.326073,
  "lng": 126.80417
 },
 {
  "name": "다니엘사",
  "address": "경기 안산시 단원구 원선1로 38 101호",
  "combination": "수동",
  "lat": 37.326073,
  "lng": 126.80417
 },
 {
  "name": "다니엘사",
  "address": "경기 안산시 단원구 원선1로 38 101호",
  "combination": "수동",
  "lat": 37.326073,
  "lng": 126.80417
 },
 {
  "name": "1등 되는날",
  "address": "경기 안성시 기업단지로 2 1층",
  "combination": "수동",
  "lat": 36.99933,
  "lng": 127.16318
 },
 {
  "name": "하늘로또",
  "address": "경기 여주시 세종로475번길 2 1층",
  "combination": "수동",
  "lat": 37.257896,
  "lng": 127.646416
 },
 {
  "name": "행복복권방",
  "address": "충북 청주시 흥덕구 풍년로 26",
  "combination": "자동",
  "lat": 36.616013,
  "lng": 127.44104
 },
 {
  "name": "대박로또",
  "address": "충남 천안시 서북구 성환2로 45",
  "combination": "자동",
  "lat": 36.91173,
  "lng": 127.130165
 },
 {
  "name": "똥꿈로또",
  "address": "경남 진주시 신안로 102",
  "combination": "자동",
  "lat": 35.187218,
  "lng": 128.07083
 },
 {
  "name": "경일통신",
  "address": "경남 창원시 마산회원구 북성로 340",
  "combination": "자동",
  "lat": 35.23382,
  "lng": 128.56064
 },
 {
  "name": "나눔로또",
  "address": "경남 함안군 용산1길 33 1층",
  "combination": "수동",
  "lat": 35.30895,
  "lng": 128.51694
 }
]