[
 {
  "name": "천하명당복권",
  "address": "대구 북구 칠곡중앙대로 545",
  "combination": "자동",
  "lat": 35.94432,
  "lng": 128.55064
 },
 {
  "name": "열정복권",
  "address": "광주 북구 하남대로 821 1층",
  "combination": "자동",
  "lat": 35.171238,
  "lng": 126.8825
 },
 {
  "name": "8888로또",
  "address": "대전 서구 월평북로 77",
  "combination": "자동",
  "lat": 36.362503,
  "lng": 127.37681
 },
 {
  "name": "한꿈복권방",
  "address": "울산 중구 번영로 586",
  "combination": "자동",
  "lat": 35.568794,
  "lng": 129.34589
 },
 {
  "name": "로또대박",
  "address": "세종  장척로 571",
  "combination": "수동",
  "lat": 37.499294,
  "lng": 127.22131
 },
 {
  "name": "다니엘사",
  "address": "경기 안산시 단원구 원선1로 38 101호",
  "combination": "자동",
  "lat": 37.326073,
  "lng": 126.80417
 },
 {
  "name": "버스표가판점",
  "address": "경기 안양시 만안구 안양로 366",
  "combination": "수동",
  "lat": 37.404003,
  "lng": 126.917435
 },
 {
  "name": "장미슈퍼",
  "address": "충남 부여군 계백로 265 부여군청 로터리 부근",
  "combination": "자동",
  "lat": 36.27629,
  "lng": 126.90941
 },
 {
  "name": "터미널복권방",
  "address": "전북 정읍시 연지8길 6",
  "combination": "자동",
  "lat": 35.57231,
  "lng": 126.84499
 },
 {
  "name": "좋은사람들로또",
  "address": "전남 보성군 현충로 85",
  "combination": "자동",
  "lat": 34.76743,
  "lng": 127.081055
 },
 {
  "name": "로그인복권방",
  "address": "경북 구미시 상사동로 149-4 사곡동",
  "combination": "반자동",
  "lat": 36.09796,
  "lng": 128.35878
 },
 {
  "name": "무지개로또복권",
  "address": "경남 양산시 덕계2길 17 좌측 복권판매점",
  "combination": "자동",
  "lat": 35.37062,
  "lng": 129.14658
 }
]