[
 {
  "name": "신일",
  "address": "서울 강서구 까치산로 177 1층 101호",
  "combination": "자동",
  "lat": 37.553062,
  "lng": 126.85334
 },
 {
  "name": "동행로또복권판매",
  "address": "인천 동구 화도진로 33-1 1층",
  "combination": "자동",
  "lat": 37.475677,
  "lng": 126.63414
 },
 {
  "name": "대박신화복권판매점",
  "address": "인천 미추홀구 인하로 267",
  "combination": "수동",
  "lat": 37.44831,
  "lng": 126.677795
 },
 {
  "name": "복권왕국",
  "address": "인천 부평구 부흥로 359 1층",
  "combination": "자동",
  "lat": 37.49818,
  "lng": 126.731926
 },
 {
  "name": "드림복권방",
  "address": "인천 연수구 아트센터대로168번길 100 G동 180호(송도동,한라 웨스턴파크 송도)",
  "combination": "자동",
  "lat": 37.405178,
  "lng": 126.62886
 },
 {
  "name": "이마트24중울산점",
  "address": "울산 중구 옥골샘4길 21",
  "combination": "수동",
  "lat": 35.55714,
  "lng": 129.32382
 },
 {
  "name": "대길복권",
  "address": "경기 수원시 장안구 서부로 2129-1 1층 (율전동)",
  "combination": "자동",
  "lat": 37.298744,
  "lng": 126.971306
 },
 {
  "name": "46중통 로또판매점",
  "address": "경기 시흥시 중심상가로 39 106호",
  "combination": "수동",
  "lat": 37.352856,
  "lng": 126.7229
 },
 {
  "name": "종합복권슈퍼",
  "address": "경기 시흥시 마유로 336 정일빌딩104",
  "combination": "자동",
  "lat": 37.34572,
  "lng": 126.73561
 },
 {
  "name": "종합복권슈퍼",
  "address": "경기 시흥시 마유로 336 정일빌딩104",
  "combination": "자동",
  "lat": 37.34572,
  "lng": 126.73561
 },
 {
  "name": "대선세무경영사무소",
  "address": "경기 안산시 상록구 석호로 189 101호",
  "combination": "수동",
  "lat": 37.295925,
  "lng": 126.85253
 },
 {
  "name": "느낌 복권판매점",
  "address": "경기 안산시 상록구 용신로 328",
  "combination": "자동",
  "lat": 37.30168,
  "lng": 126.85823
 },
 {
  "name": "복권나라",
  "address": "경기 오산시 성호대로93번길 27",
  "combination": "수동",
  "lat": 37.151245,
  "lng": 127.07145
 },
 {
  "name": "세븐복권",
  "address": "충북 증평군 초중6길 19 1층(세븐일레븐 내)",
  "combination": "수동",
  "lat": 36.776863,
  "lng": 127.569046
 },
 {
  "name": "복조리복권방",
  "address": "전북 장수군 장계천변길 55-4",
  "combination": "자동",
  "lat": 35.731014,
  "lng": 127.58352
 },
 {
  "name": "로또복권 포항IC점",
  "address": "경북 포항시 북구 새마을로 340 세븐일레븐 옆",
  "combination": "자동",
  "lat": 36.045876,
  "lng": 129.32777
 }
]