[
 {
  "name": "다모아복권",
  "address": "서울 구로구 경인로19길 4",
  "combination": "자동",
  "lat": 37.495926,
  "lng": 126.84278
 },
 {
  "name": "소망복권",
  "address": "서울 구로구 경인로35길 83 1층 101호(고척동)",
  "combination": "자동",
  "lat": 37.500153,
  "lng": 126.852356
 },
 {
  "name": "엔마트",
  "address": "서울 동대문구 장한로31길 10",
  "combination": "수동",
  "lat": 37.575424,
  "lng": 127.0713
 },
 {
  "name": "오케이상사",
  "address": "서울 서초구 신반포로 176 센트럴시티내100호매점",
  "combination": "자동",
  "lat": 37.50555,
  "lng": 127.00356
 },
 {
  "name": "서울복권방",
  "address": "서울 중랑구 동일로 809-1",
  "combination": "수동",
  "lat": 37.60269,
  "lng": 127.07895
 },
 {
  "name": "대구연쇄점",
  "address": "부산 부산진구 중앙대로783번길 8",
  "combination": "수동",
  "lat": 35.162384,
  "lng": 129.06238
 },
 {
  "name": "노다지복권방",
  "address": "부산 북구 낙동대로 1704",
  "combination": "수동",
  "lat": 0,
  "lng": 0
 },
 {
  "name": "복터진날",
  "address": "부산 사하구 장림로 162-1 복권판매점",
  "combination": "반자동",
  "lat": 0,
  "lng": 0
 },
 {
  "name": "대교복권판매점",
  "address": "부산 영도구 절영로13번길 17",
  "combination": "자동",
  "lat": 35.09284,
  "lng": 129.04109
 },
 {
  "name": "상인명당복권방",
  "address": "대구 달서구 조암남로16길 19 1동 1층 118호",
  "combination": "자동",
  "lat": 35.821712,
  "lng": 128.52325
 },
 {
  "name": "삼성포토랜드",
  "address": "인천 강화군 북문길 6",
  "combination": "수동",
  "lat": 37.74834,
  "lng": 126.48402
 },
 {
  "name": "루루사진관",
  "address": "인천 계양구 굴재방터길 27 1호 루루사진관",
  "combination": "수동",
  "lat": 37.56697,
  "lng": 126.74761
 },
 {
  "name": "행운 마트",
  "address": "인천 남동구 만수로 65",
  "combination": "수동",
  "lat": 37.461594,
  "lng": 126.73509
 },
 {
  "name": "로또 명당",
  "address": "인천 남동구 구월남로 271 102호",
  "combination": "수동",
  "lat": 37.452297,
  "lng": 126.71988
 },
 {
  "name": "일등복권방",
  "address": "울산 남구 삼산중로 20",
  "combination": "수동",
  "lat": 35.53536,
  "lng": 129.33665
 },
 {
  "name": "행복한사람들 (흥부네)",
  "address": "경기 광주시 경충대로 763",
  "combination": "수동",
  "lat": 37.355545,
  "lng": 127.325386
 },
 {
  "name": "한아름 복권",
  "address": "경기 김포시 장차로 19 102호",
  "combination": "자동",
  "lat": 37.603813,
  "lng": 126.77054
 },
 {
  "name": "예스복권방",
  "address": "경기 남양주시 별내중앙로 56 메인프라자 1층 105호",
  "combination": "수동",
  "lat": 37.647552,
  "lng": 127.12371
 },
 {
  "name": "송내매표소",
  "address": "경기 부천시 송내대로 37 104호",
  "combination": "수동",
  "lat": 0,
  "lng": 0
 },
 {
  "name": "로또판매선부점",
  "address": "경기 안산시 단원구 선부광장로 27 122-2호",
  "combination": "수동",
  "lat": 37.33619,
  "lng": 126.81017
 },
 {
  "name": "좋은터",
  "address": "경기 의정부시 동일로454번길 19 1층(신곡동)",
  "combination": "수동",
  "lat": 37.728825,
  "lng": 127.06055
 },
 {
  "name": "강남슈퍼",
  "address": "경기 의정부시 의정로 193",
  "combination": "수동",
  "lat": 37.750084,
  "lng": 127.03404
 },
 {
  "name": "인생역전",
  "address": "경기 파주시 새꽃로 227 7호",
  "combination": "수동",
  "lat": 37.76669,
  "lng": 126.77735
 },
 {
  "name": "성강동인",
  "address": "경기 하남시 신장로 212 1층 2호",
  "combination": "수동",
  "lat": 37.543922,
  "lng": 127.19827
 },
 {
  "name": "신리천왕대박복권",
  "address": "경기 화성시 왕배산2길 11-1 102호",
  "combination": "반자동",
  "lat": 37.180058,
  "lng": 127.1254
 },
 {
  "name": "대복로또",
  "address": "강원 원주시 나비허리길 120-19 1층",
  "combination": "수동",
  "lat": 37.319702,
  "lng": 127.96205
 },
 {
  "name": "서울로또방",
  "address": "충북 옥천군 삼금로 8",
  "combination": "자동",
  "lat": 36.29949,
  "lng": 127.56668
 },
 {
  "name": "팡팡복권방",
  "address": "충북 진천군 장기길 102",
  "combination": "자동",
  "lat": 36.990017,
  "lng": 127.445274
 },
 {
  "name": "왕대박복권방",
  "address": "충북 청주시 청원구 두릉유리로 1119",
  "combination": "수동",
  "lat": 0,
  "lng": 0
 },
 {
  "name": "대박찬스",
  "address": "충북 청주시 흥덕구 가경로161번길 3",
  "combination": "수동",
  "lat": 36.628975,
  "lng": 127.43644
 },
 {
  "name": "찬누리",
  "address": "충남 부여군 사비로 61",
  "combination": "자동",
  "lat": 36.277966,
  "lng": 126.91031
 },
 {
  "name": "이마트24아산도고명당점",
  "address": "충남 아산시 온천대로 104",
  "combination": "자동",
  "lat": 36.746223,
  "lng": 126.86672
 },
 {
  "name": "충청복권전문점",
  "address": "충남 천안시 서북구 성환2로 108",
  "combination": "수동",
  "lat": 36.91694,
  "lng": 127.132835
 },
 {
  "name": "로또편의점",
  "address": "전남 강진군 보은로 115",
  "combination": "수동",
  "lat": 0,
  "lng": 0
 },
 {
  "name": "레인보우",
  "address": "경북 경산시 성동로 16 101호",
  "combination": "수동",
  "lat": 35.83617,
  "lng": 128.72557
 },
 {
  "name": "네잎크로버복권방",
  "address": "제주 서귀포시 고성오조로 9",
  "combination": "자동",
  "lat": 33.44472,
  "lng": 126.91338
 }
]