[
 {
  "name": "금용",
  "address": "서울 강북구 4.19로 1 1층",
  "combination": "수동",
  "lat": 37.648087,
  "lng": 127.01408
 },
 {
  "name": "복권나라",
  "address": "서울 관악구 남부순환로 1739-9",
  "combination": "자동",
  "lat": 37.482788,
  "lng": 126.943474
 },
 {
  "name": "인터넷 복권판매사이트",
  "address": "동행복권(dhlottery.co.kr)",
  "combination": "자동",
  "lat": 37.482063,
  "lng": 127.015785
 },
 {
  "name": "묵동식품",
  "address": "서울 중랑구 동일로 919",
  "combination": "자동",
  "lat": 37.612457,
  "lng": 127.07704
 },
 {
  "name": "돈벼락맞는곳",
  "address": "부산 서구 구덕로 194",
  "combination": "자동",
  "lat": 35.10192,
  "lng": 129.02007
 },
 {
  "name": "황금복권",
  "address": "인천 계양구 장제로 889-1",
  "combination": "반자동",
  "lat": 37.54638,
  "lng": 126.739426
 },
 {
  "name": "행운대박복권방",
  "address": "경기 남양주시 광릉내로 17",
  "combination": "수동",
  "lat": 37.742252,
  "lng": 127.19782
 },
 {
  "name": "로또명당카페",
  "address": "경기 시흥시 거북섬2길 21 1층 103호",
  "combination": "수동",
  "lat": 37.326874,
  "lng": 126.677055
 },
 {
  "name": "양말 란제리",
  "address": "경기 안양시 만안구 장내로 125 1층 상가2호 전부",
  "combination": "자동",
  "lat": 37.39721,
  "lng": 126.92158
 },
 {
  "name": "주택복권방",
  "address": "경기 용인시 수지구 풍덕천로 144-1 103호",
  "combination": "수동",
  "lat": 37.323883,
  "lng": 127.09745
 },
 {
  "name": "내포복권방",
  "address": "충남 예산군 덕산온천로 387",
  "combination": "자동",
  "lat": 36.70105,
  "lng": 126.66561
 },
 {
  "name": "GS25예산서오점복권",
  "address": "충남 예산군 역전로 150-2 GS25편의점 내",
  "combination": "자동",
  "lat": 36.692394,
  "lng": 126.83037
 },
 {
  "name": "로또복권두정점",
  "address": "충남 천안시 서북구 두정로 251 대원빌딩104호",
  "combination": "자동",
  "lat": 36.833515,
  "lng": 127.14499
 },
 {
  "name": "포항오거리CU복권",
  "address": "경북 포항시 북구 죽도로 33 CU포항오거리점내",
  "combination": "자동",
  "lat": 36.033836,
  "lng": 129.36467
 },
 {
  "name": "비휴 복권판매점",
  "address": "경남 산청군 지리산대로 3474-1 1층",
  "combination": "자동",
  "lat": 35.303307,
  "lng": 127.97188
 }
]