[
 {
  "name": "도곡 행운로또방",
  "address": "서울 강남구 도곡로4길 11 102호",
  "combination": "자동",
  "lat": 37.48931,
  "lng": 127.03369
 },
 {
  "name": "그린슈퍼",
  "address": "서울 동대문구 왕산로 138",
  "combination": "반자동",
  "lat": 37.57798,
  "lng": 127.038635
 },
 {
  "name": "비에이치(BH)복권",
  "address": "부산 남구 석포로 95",
  "combination": "자동",
  "lat": 35.126293,
  "lng": 129.08951
 },
 {
  "name": "대영당안경원",
  "address": "부산 동래구 충렬대로237번길 9",
  "combination": "수동",
  "lat": 35.201954,
  "lng": 129.08519
 },
 {
  "name": "프로토베팅샵",
  "address": "부산 중구 국제시장2길 5 4호",
  "combination": "자동",
  "lat": 35.099678,
  "lng": 129.0284
 },
 {
  "name": "제일복권",
  "address": "인천 서구 율도로 45",
  "combination": "수동",
  "lat": 37.51384,
  "lng": 126.66724
 },
 {
  "name": "알리바이",
  "address": "광주 광산구 수등로 253 1층 알리바이",
  "combination": "자동",
  "lat": 35.185387,
  "lng": 126.83668
 },
 {
  "name": "행복한사람들 (흥부네)",
  "address": "경기 광주시 경충대로 763",
  "combination": "자동",
  "lat": 37.355545,
  "lng": 127.325386
 },
 {
  "name": "종합복권슈퍼",
  "address": "경기 시흥시 마유로 336 정일빌딩104",
  "combination": "자동",
  "lat": 37.34572,
  "lng": 126.73561
 },
 {
  "name": "복권판매점(행복드림)",
  "address": "경기 양평군 강남로 1016 나동 4호",
  "combination": "자동",
  "lat": 37.48044,
  "lng": 127.48489
 },
 {
  "name": "황금복권방",
  "address": "강원 원주시 봉화로 74 삼익아파트 상가 105호",
  "combination": "자동",
  "lat": 37.351143,
  "lng": 127.928955
 },
 {
  "name": "베스트올수성점",
  "address": "전북 정읍시 수성2로 28",
  "combination": "자동",
  "lat": 35.58169,
  "lng": 126.854416
 },
 {
  "name": "경이네복권마트",
  "address": "경북 포항시 북구 장량중앙로 81 431동117호,삼구트리니엔4차상가",
  "combination": "자동",
  "lat": 36.090385,
  "lng": 129.39249
 }
]