[
 {
  "name": "행복을향해쏴라",
  "address": "서울 노원구 동일로197길 21 1층 104호(공릉동,우성빌딩)",
  "combination": "수동",
  "lat": 37.628407,
  "lng": 127.07024
 },
 {
  "name": "전대복권판매점",
  "address": "광주 북구 서양로 28 102호",
  "combination": "자동",
  "lat": 35.170662,
  "lng": 126.9045
 },
 {
  "name": "대전우표사",
  "address": "대전 동구 중앙로204번길 16-1",
  "combination": "자동",
  "lat": 36.330036,
  "lng": 127.432076
 },
 {
  "name": "아이러브마트복권방",
  "address": "울산 중구 유곡로 19-1",
  "combination": "자동",
  "lat": 35.55638,
  "lng": 129.30725
 },
 {
  "name": "홈런복권판매점",
  "address": "경기 오산시 내삼미로 93 제1층 109호",
  "combination": "자동",
  "lat": 37.17053,
  "lng": 127.06577
 },
 {
  "name": "로또명당인주점",
  "address": "충남 아산시 서해로 519-2",
  "combination": "자동",
  "lat": 36.87784,
  "lng": 126.89828
 },
 {
  "name": "대산슈퍼",
  "address": "충남 천안시 동남구 복구정3길 1",
  "combination": "자동",
  "lat": 36.76989,
  "lng": 127.250206
 },
 {
  "name": "씨유 군산디오션점",
  "address": "전북 군산시 궁포1로 42 씨유 군산디오션점 내",
  "combination": "자동",
  "lat": 35.97694,
  "lng": 126.74207
 },
 {
  "name": "훼미리마트 우아대로점",
  "address": "전북 전주시 덕진구 건산로 276",
  "combination": "반자동",
  "lat": 35.835472,
  "lng": 127.16736
 },
 {
  "name": "베스트올수성점",
  "address": "전북 정읍시 수성2로 28",
  "combination": "자동",
  "lat": 35.58169,
  "lng": 126.854416
 },
 {
  "name": "한방로또",
  "address": "전남 순천시 남산로 154-1 1층101호",
  "combination": "수동",
  "lat": 34.94057,
  "lng": 127.50513
 },
 {
  "name": "지에스GS오천두배점",
  "address": "경북 포항시 남구 원동로 98 1층,좌측첫번째상가,GS25오천두배점",
  "combination": "자동",
  "lat": 35.971855,
  "lng": 129.4028
 },
 {
  "name": "탐나네",
  "address": "제주 제주시 노연로 138",
  "combination": "자동",
  "lat": 33.48555,
  "lng": 126.49506
 }
]