[
 {
  "name": "6/45 로또",
  "address": "서울 강동구 아리수로93가길 87 상가 105호",
  "combination": "자동",
  "lat": 37.570454,
  "lng": 127.1696
 },
 {
  "name": "신문가판점",
  "address": "서울 용산구 한강대로 277-3 가판",
  "combination": "수동",
  "lat": 37.543007,
  "lng": 126.972374
 },
 {
  "name": "신문가판점",
  "address": "서울 용산구 한강대로 277-3 가판",
  "combination": "수동",
  "lat": 37.543007,
  "lng": 126.972374
 },
 {
  "name": "신문가판점",
  "address": "서울 용산구 한강대로 277-3 가판",
  "combination": "수동",
  "lat": 37.543007,
  "lng": 126.972374
 },
 {
  "name": "신문가판점",
  "address": "서울 용산구 한강대로 277-3 가판",
  "combination": "수동",
  "lat": 37.543007,
  "lng": 126.972374
 },
 {
  "name": "신문가판점",
  "address": "서울 용산구 한강대로 277-3 가판",
  "combination": "수동",
  "lat": 37.543007,
  "lng": 126.972374
 },
 {
  "name": "꿈하나",
  "address": "대구 서구 팔달로 142 1층 복권방",
  "combination": "수동",
  "lat": 35.889156,
  "lng": 128.56583
 },
 {
  "name": "온누리로또",
  "address": "경기 수원시 권선구 세권로 122 1층 102호",
  "combination": "자동",
  "lat": 37.25713,
  "lng": 127.017456
 },
 {
  "name": "우두로또",
  "address": "강원 춘천시 영서로 2786 1층",
  "combination": "수동",
  "lat": 37.901936,
  "lng": 127.72848
 },
 {
  "name": "대박의터",
  "address": "강원 춘천시 영서로 1786",
  "combination": "자동",
  "lat": 37.836243,
  "lng": 127.76008
 },
 {
  "name": "대박로또명당",
  "address": "충남 당진시 송악로 37",
  "combination": "수동",
  "lat": 36.906906,
  "lng": 126.69329
 },
 {
  "name": "복동희로또 불당점",
  "address": "충남 천안시 서북구 불당5길 23 103호(콤마커피숍 내)",
  "combination": "자동",
  "lat": 36.803417,
  "lng": 127.10946
 },
 {
  "name": "일등로또복권 판매점",
  "address": "경북 영천시 완산로 23-1 1층 복권방",
  "combination": "자동",
  "lat": 35.962185,
  "lng": 128.93881
 },
 {
  "name": "NG24",
  "address": "경북 칠곡군 북중리3길 59",
  "combination": "자동",
  "lat": 36.079823,
  "lng": 128.41183
 }
]