[
 {
  "name": "로또생삼겹",
  "address": "인천 남동구 논고개로 77",
  "combination": "자동",
  "lat": 37.39841,
  "lng": 126.726234
 },
 {
  "name": "충남상회",
  "address": "인천 미추홀구 참외전로 268 302동 B211호",
  "combination": "자동",
  "lat": 37.46555,
  "lng": 126.6447
 },
 {
  "name": "복권명당",
  "address": "대전 중구 목중로 47",
  "combination": "자동",
  "lat": 36.33757,
  "lng": 127.40925
 },
 {
  "name": "초이스 로또",
  "address": "울산 남구 화합로125번길 9 CU달동초이스점내",
  "combination": "자동",
  "lat": 35.53562,
  "lng": 129.33925
 },
 {
  "name": "꽃길로또방",
  "address": "경기 고양시 덕양구 꽃내음1길 21 1층 110호(향동동, 청우프라자)",
  "combination": "자동",
  "lat": 37.600433,
  "lng": 126.889885
 },
 {
  "name": "종합복권슈퍼",
  "address": "경기 시흥시 마유로 336 정일빌딩104",
  "combination": "자동",
  "lat": 37.34572,
  "lng": 126.73561
 },
 {
  "name": "대박나라",
  "address": "경기 시흥시 함송로 15 111호(정왕동,화신프라자)",
  "combination": "자동",
  "lat": 37.364037,
  "lng": 126.73029
 },
 {
  "name": "드림메드",
  "address": "경기 안산시 상록구 월피로 56 101호",
  "combination": "수동",
  "lat": 37.3334,
  "lng": 126.85087
 },
 {
  "name": "보은로또",
  "address": "충북 보은군 보은로 140-1",
  "combination": "자동",
  "lat": 36.48669,
  "lng": 127.718
 },
 {
  "name": "로또복권나눔커피",
  "address": "충남 아산시 모산로 163 1층",
  "combination": "수동",
  "lat": 36.77533,
  "lng": 127.06074
 },
 {
  "name": "복권세상",
  "address": "전남 목포시 청호로 139 1층 복권세상",
  "combination": "자동",
  "lat": 34.8039,
  "lng": 126.37585
 },
 {
  "name": "우리로또복권방",
  "address": "전남 여수시 무선중앙로 71",
  "combination": "수동",
  "lat": 34.7728,
  "lng": 127.65182
 },
 {
  "name": "웃는 복권방",
  "address": "경북 구미시 형곡로39길 3 102호(형곡동)",
  "combination": "자동",
  "lat": 36.108376,
  "lng": 128.33987
 }
]