[
 {
  "name": "투싼",
  "address": "서울 강남구 역삼로 310 한솔필리아 1층 127호",
  "combination": "자동",
  "lat": 37.49946,
  "lng": 127.048325
 },
 {
  "name": "홈돌이로또복권",
  "address": "인천 남동구 경원대로 971 삼성홈플러스간석점2층내",
  "combination": "자동",
  "lat": 37.46954,
  "lng": 126.68899
 },
 {
  "name": "노다지로또",
  "address": "인천 서구 완정로 179 검단제이원빌딩 108호",
  "combination": "자동",
  "lat": 37.602306,
  "lng": 126.65639
 },
 {
  "name": "오천억복권방",
  "address": "광주 서구 상무대로 1087",
  "combination": "자동",
  "lat": 35.15296,
  "lng": 126.880745
 },
 {
  "name": "관저중앙로또",
  "address": "대전 서구 관저동로99번길 23 편의점",
  "combination": "자동",
  "lat": 36.300953,
  "lng": 127.33882
 },
 {
  "name": "행운가득명당복권",
  "address": "울산 울주군 점촌5길 23 201호",
  "combination": "자동",
  "lat": 35.569798,
  "lng": 129.24046
 },
 {
  "name": "프랜드편의점",
  "address": "경기 화성시 3.1만세로 1100-2",
  "combination": "자동",
  "lat": 37.13201,
  "lng": 126.90798
 },
 {
  "name": "진평양행",
  "address": "강원 강릉시 임영로 107",
  "combination": "자동",
  "lat": 37.751263,
  "lng": 128.89407
 },
 {
  "name": "은혜복권방",
  "address": "전북 전주시 완산구 당산로 52",
  "combination": "수동",
  "lat": 35.832005,
  "lng": 127.11386
 },
 {
  "name": "우리복권판매점",
  "address": "경북 포항시 북구 죽파로 35-1 1층 101호",
  "combination": "수동",
  "lat": 36.02839,
  "lng": 129.36032
 }
]