[
 {
  "name": "대치럭키 로또",
  "address": "서울 강남구 선릉로76길 38 1층 3호",
  "combination": "수동",
  "lat": 37.50213,
  "lng": 127.053604
 },
 {
  "name": "토큰판매점",
  "address": "서울 강북구 도봉로 45 가판",
  "combination": "수동",
  "lat": 37.61315,
  "lng": 127.02949
 },
 {
  "name": "월드복권",
  "address": "대구 서구 북비산로 98",
  "combination": "자동",
  "lat": 35.878357,
  "lng": 128.54366
 },
 {
  "name": "황금돼지",
  "address": "대구 수성구 용학로35길 3 (지산동)",
  "combination": "반자동",
  "lat": 35.82267,
  "lng": 128.62839
 },
 {
  "name": "대박천하마트",
  "address": "인천 부평구 굴포로 48",
  "combination": "자동",
  "lat": 37.51157,
  "lng": 126.72634
 },
 {
  "name": "금빛복권",
  "address": "울산 울주군 봉화로 16 왼쪽 복권판매점",
  "combination": "자동",
  "lat": 35.558117,
  "lng": 129.1184
 },
 {
  "name": "로또맛집배은복",
  "address": "경기 김포시 풍무로 121 1층 6호",
  "combination": "자동",
  "lat": 37.606407,
  "lng": 126.72207
 },
 {
  "name": "대박슈퍼",
  "address": "경기 부천시 원미로 103 마동 1층 103호",
  "combination": "자동",
  "lat": 37.491756,
  "lng": 126.79044
 },
 {
  "name": "태평고개 가판대",
  "address": "경기 성남시 수정구 성남대로 1282",
  "combination": "자동",
  "lat": 37.444477,
  "lng": 127.12722
 },
 {
  "name": "공원슈퍼",
  "address": "경기 수원시 장안구 팔달로 255 1층(영화동)",
  "combination": "수동",
  "lat": 37.28874,
  "lng": 127.01298
 },
 {
  "name": "씨유 옥정인생역전점",
  "address": "경기 양주시 화합로 1657 1층 108호(율정동)",
  "combination": "자동",
  "lat": 37.838894,
  "lng": 127.09021
 },
 {
  "name": "운암로또",
  "address": "경기 오산시 운암로 123 1층 101호 (오산동,운암빌딩)",
  "combination": "수동",
  "lat": 37.15706,
  "lng": 127.07847
 },
 {
  "name": "로또",
  "address": "경기 포천시 죽엽산로196번길 4",
  "combination": "수동",
  "lat": 37.814644,
  "lng": 127.16044
 },
 {
  "name": "TO TO",
  "address": "강원 강릉시 주문로 55",
  "combination": "자동",
  "lat": 37.8889,
  "lng": 128.82555
 },
 {
  "name": "엠에스리테일점",
  "address": "강원 춘천시 춘천순환로 600 MS마트 상가",
  "combination": "자동",
  "lat": 37.892464,
  "lng": 127.757385
 },
 {
  "name": "로또명당해미점",
  "address": "충남 서산시 남문2로 108",
  "combination": "자동",
  "lat": 36.71344,
  "lng": 126.54419
 },
 {
  "name": "희망복권방",
  "address": "전남 나주시 풍물시장1길 3",
  "combination": "수동",
  "lat": 34.99262,
  "lng": 126.70952
 },
 {
  "name": "NG24",
  "address": "경북 칠곡군 북중리3길 59",
  "combination": "자동",
  "lat": 36.079823,
  "lng": 128.41183
 },
 {
  "name": "아리아리",
  "address": "경남 김해시 김해대로2491번길 28",
  "combination": "자동",
  "lat": 35.23053,
  "lng": 128.89868
 },
 {
  "name": "월드복권방",
  "address": "경남 통영시 북신시장1길 12 월드마트 내",
  "combination": "수동",
  "lat": 34.856834,
  "lng": 128.42749
 }
]