[
 {
  "name": "행운복권방",
  "address": "서울 도봉구 노해로63길 79 우림빌딩 112호",
  "combination": "수동",
  "lat": 37.65308,
  "lng": 127.0463
 },
 {
  "name": "보람복권",
  "address": "서울 서대문구 통일로39길 22-58",
  "combination": "수동",
  "lat": 37.589825,
  "lng": 126.94167
 },
 {
  "name": "인터넷 복권판매사이트",
  "address": "동행복권(dhlottery.co.kr)",
  "combination": "수동",
  "lat": 37.482063,
  "lng": 127.015785
 },
 {
  "name": "상승플러스",
  "address": "서울 영등포구 도림로139길 12-1 1층",
  "combination": "자동",
  "lat": 37.51391,
  "lng": 126.892715
 },
 {
  "name": "센타포인트명동앞복지가판점",
  "address": "서울 중구 남대문로 84 앞 가판점",
  "combination": "수동",
  "lat": 37.564682,
  "lng": 126.98284
 },
 {
  "name": "기장슈퍼",
  "address": "부산 기장군 차성동로 69",
  "combination": "자동",
  "lat": 35.243927,
  "lng": 129.2165
 },
 {
  "name": "송천복권방",
  "address": "부산 해운대구 선수촌로 108",
  "combination": "수동",
  "lat": 35.20331,
  "lng": 129.11983
 },
 {
  "name": "좋은터",
  "address": "인천 계양구 효서로 204 1층",
  "combination": "자동",
  "lat": 37.527794,
  "lng": 126.71853
 },
 {
  "name": "드림복권방",
  "address": "인천 중구 인중로 97-1 버스정류장 앞 GS편의점 옆",
  "combination": "수동",
  "lat": 37.464123,
  "lng": 126.633095
 },
 {
  "name": "아스타",
  "address": "광주 서구 상무대로 917",
  "combination": "반자동",
  "lat": 35.15136,
  "lng": 126.862305
 },
 {
  "name": "천하복권방",
  "address": "울산 동구 전하로 29",
  "combination": "수동",
  "lat": 35.512436,
  "lng": 129.4275
 },
 {
  "name": "사랑정보통신",
  "address": "울산 울주군 온덕2길 20",
  "combination": "수동",
  "lat": 35.435055,
  "lng": 129.3107
 },
 {
  "name": "호돌이복권방",
  "address": "경기 김포시 황금로109번길 80 101호",
  "combination": "반자동",
  "lat": 37.61496,
  "lng": 126.622765
 },
 {
  "name": "둔전행운복권방",
  "address": "경기 용인시 처인구 포곡로 110",
  "combination": "수동",
  "lat": 37.26922,
  "lng": 127.21764
 },
 {
  "name": "도깨비",
  "address": "경기 하남시 서하남로 136",
  "combination": "수동",
  "lat": 37.514194,
  "lng": 127.15894
 },
 {
  "name": "도깨비",
  "address": "경기 하남시 서하남로 136",
  "combination": "수동",
  "lat": 37.514194,
  "lng": 127.15894
 },
 {
  "name": "도깨비",
  "address": "경기 하남시 서하남로 136",
  "combination": "수동",
  "lat": 37.514194,
  "lng": 127.15894
 },
 {
  "name": "로또매니아",
  "address": "강원 춘천시 춘천순환로 790 1층",
  "combination": "수동",
  "lat": 37.909042,
  "lng": 127.752686
 },
 {
  "name": "피씨마트",
  "address": "전북 군산시 경기장로 20",
  "combination": "수동",
  "lat": 35.96469,
  "lng": 126.75007
 },
 {
  "name": "여수대박복권",
  "address": "전남 여수시 강남9길 24",
  "combination": "수동",
  "lat": 34.71885,
  "lng": 127.75279
 },
 {
  "name": "지에스(GS)25 신진주시티점",
  "address": "경남 진주시 개양로 100 107동 상가106호 GS편의점내",
  "combination": "수동",
  "lat": 35.153763,
  "lng": 128.11649
 }
]