[
 {
  "name": "영광생활유통",
  "address": "서울 금천구 범안로 1186",
  "combination": "자동",
  "lat": 37.46633,
  "lng": 126.89345
 },
 {
  "name": "매일로또",
  "address": "부산 부산진구 당감로50번길 6",
  "combination": "자동",
  "lat": 35.166065,
  "lng": 129.03937
 },
 {
  "name": "로또복권방",
  "address": "인천 부평구 마장로 287 한양프라자 104-1호",
  "combination": "자동",
  "lat": 37.50413,
  "lng": 126.703
 },
 {
  "name": "돼지상회",
  "address": "울산 북구 매산로 92 1층",
  "combination": "자동",
  "lat": 35.64014,
  "lng": 129.35919
 },
 {
  "name": "대성슈퍼",
  "address": "경기 김포시 사우중로11번길 7 초원빌딩1층",
  "combination": "반자동",
  "lat": 37.616528,
  "lng": 126.71615
 },
 {
  "name": "황금열매",
  "address": "경기 성남시 중원구 산성대로 432-1 1층",
  "combination": "자동",
  "lat": 37.450314,
  "lng": 127.1597
 },
 {
  "name": "도일복권방",
  "address": "경기 시흥시 도일로 111",
  "combination": "수동",
  "lat": 37.3404,
  "lng": 126.783646
 },
 {
  "name": "일공공일(CU편의점)",
  "address": "경기 안산시 단원구 예술대학로 82 중앙상가 102호",
  "combination": "자동",
  "lat": 37.32424,
  "lng": 126.83762
 },
 {
  "name": "돈나무복권",
  "address": "충남 논산시 중앙로479번길 3-2",
  "combination": "자동",
  "lat": 36.20541,
  "lng": 127.08357
 },
 {
  "name": "로또복권두정점",
  "address": "충남 천안시 서북구 두정로 251 대원빌딩104호",
  "combination": "자동",
  "lat": 36.833515,
  "lng": 127.14499
 },
 {
  "name": "천하명당복권방",
  "address": "경남 거제시 옥포성안로 60",
  "combination": "자동",
  "lat": 34.891693,
  "lng": 128.69492
 },
 {
  "name": "서창복권나라",
  "address": "경남 양산시 서창서2길 3",
  "combination": "수동",
  "lat": 35.416225,
  "lng": 129.17226
 },
 {
  "name": "행운\u0026빈센트",
  "address": "제주 서귀포시 동문로 64",
  "combination": "자동",
  "lat": 33.24906,
  "lng": 126.56697
 }
]