[
 {
  "name": "MS마트",
  "address": "서울 광진구 광나루로 546",
  "combination": "수동",
  "lat": 37.544514,
  "lng": 127.09013
 },
 {
  "name": "노다지 노원역점 복권방",
  "address": "서울 노원구 상계로 78",
  "combination": "수동",
  "lat": 37.656223,
  "lng": 127.06374
 },
 {
  "name": "인터넷 복권판매사이트",
  "address": "동행복권(dhlottery.co.kr)",
  "combination": "수동",
  "lat": 37.482063,
  "lng": 127.015785
 },
 {
  "name": "인터넷 복권판매사이트",
  "address": "동행복권(dhlottery.co.kr)",
  "combination": "수동",
  "lat": 37.482063,
  "lng": 127.015785
 },
 {
  "name": "인터넷 복권판매사이트",
  "address": "동행복권(dhlottery.co.kr)",
  "combination": "수동",
  "lat": 37.482063,
  "lng": 127.015785
 },
 {
  "name": "인터넷 복권판매사이트",
  "address": "동행복권(dhlottery.co.kr)",
  "combination": "수동",
  "lat": 37.482063,
  "lng": 127.015785
 },
 {
  "name": "인터넷 복권판매사이트",
  "address": "동행복권(dhlottery.co.kr)",
  "combination": "수동",
  "lat": 37.482063,
  "lng": 127.015785
 },
 {
  "name": "인터넷 복권판매사이트",
  "address": "동행복권(dhlottery.co.kr)",
  "combination": "자동",
  "lat": 37.482063,
  "lng": 127.015785
 },
 {
  "name": "행운복권방",
  "address": "서울 은평구 서오릉로 10",
  "combination": "자동",
  "lat": 37.602295,
  "lng": 126.92678
 },
 {
  "name": "평안당",
  "address": "서울 종로구 종로 219",
  "combination": "수동",
  "lat": 37.57123,
  "lng": 127.00219
 },
 {
  "name": "다다복권방",
  "address": "대구 달서구 월배로 32-1 1층 복권방",
  "combination": "자동",
  "lat": 35.812386,
  "lng": 128.51874
 },
 {
  "name": "서재강변로또",
  "address": "대구 달성군 서재로 172",
  "combination": "자동",
  "lat": 35.878708,
  "lng": 128.49748
 },
 {
  "name": "세진전자통신",
  "address": "대구 서구 서대구로 156",
  "combination": "자동",
  "lat": 35.8719,
  "lng": 128.5552
 },
 {
  "name": "다올공인중개사사무소",
  "address": "인천 서구 승학로512번길 26-1 1호실",
  "combination": "수동",
  "lat": 37.563683,
  "lng": 126.67706
 },
 {
  "name": "로또복권",
  "address": "울산 남구 꽃대나리로 71",
  "combination": "자동",
  "lat": 35.53376,
  "lng": 129.33797
 },
 {
  "name": "대박로또",
  "address": "경기 가평군 중앙로 35 1층",
  "combination": "자동",
  "lat": 37.827778,
  "lng": 127.51553
 },
 {
  "name": "복권판매점",
  "address": "경기 성남시 중원구 성남대로1130번길 3 제1층 제101호",
  "combination": "자동",
  "lat": 37.4307,
  "lng": 127.1296
 },
 {
  "name": "희망을주는사람",
  "address": "경기 용인시 처인구 양지로 111 1층 상가",
  "combination": "자동",
  "lat": 37.23453,
  "lng": 127.28051
 },
 {
  "name": "황금복권방",
  "address": "강원 원주시 봉화로 74 삼익아파트 상가 105호",
  "combination": "자동",
  "lat": 37.351143,
  "lng": 127.928955
 },
 {
  "name": "원대박",
  "address": "충북 음성군 대금로 1064-20 101호",
  "combination": "자동",
  "lat": 36.979347,
  "lng": 127.55461
 },
 {
  "name": "대산슈퍼",
  "address": "충남 천안시 동남구 복구정3길 1",
  "combination": "수동",
  "lat": 36.76989,
  "lng": 127.250206
 },
 {
  "name": "내가마트",
  "address": "전남 순천시 삼산로 98",
  "combination": "수동",
  "lat": 34.97304,
  "lng": 127.49395
 },
 {
  "name": "행운로또",
  "address": "경북 구미시 들성로 106 1층102호",
  "combination": "자동",
  "lat": 36.1556,
  "lng": 128.33386
 },
 {
  "name": "대동도기상사",
  "address": "경북 영천시 금완로 30",
  "combination": "자동",
  "lat": 35.960327,
  "lng": 128.93187
 }
]