[
 {
  "name": "신영슈퍼",
  "address": "서울 강남구 광평로51길 27 삼익아파트상가101호",
  "combination": "수동",
  "lat": 37.48915,
  "lng": 127.10092
 },
 {
  "name": "해바라기 복권방",
  "address": "부산 기장군 차성동로25번길 37 가동 100호",
  "combination": "자동",
  "lat": 35.24015,
  "lng": 129.21443
 },
 {
  "name": "삼성포토랜드",
  "address": "인천 강화군 북문길 6",
  "combination": "수동",
  "lat": 37.74834,
  "lng": 126.48402
 },
 {
  "name": "로또는내운명",
  "address": "대전 중구 대종로 277",
  "combination": "자동",
  "lat": 36.31158,
  "lng": 127.437355
 },
 {
  "name": "진대박 로또복권방",
  "address": "울산 동구 대송로 139",
  "combination": "수동",
  "lat": 35.495895,
  "lng": 129.4231
 },
 {
  "name": "진대박 로또복권방",
  "address": "울산 동구 대송로 139",
  "combination": "수동",
  "lat": 35.495895,
  "lng": 129.4231
 },
 {
  "name": "진대박 로또복권방",
  "address": "울산 동구 대송로 139",
  "combination": "수동",
  "lat": 35.495895,
  "lng": 129.4231
 },
 {
  "name": "영24시",
  "address": "울산 동구 월봉로 60",
  "combination": "자동",
  "lat": 35.493958,
  "lng": 129.42455
 },
 {
  "name": "1등복권방",
  "address": "울산 울주군 동문길 84",
  "combination": "자동",
  "lat": 35.564198,
  "lng": 129.1246
 },
 {
  "name": "대소원로또",
  "address": "충북 충주시 중원대로 4373 휴게소내 컨테이너",
  "combination": "자동",
  "lat": 36.973255,
  "lng": 127.82359
 },
 {
  "name": "파리스뷰티 복권",
  "address": "충남 천안시 동남구 개목8길 5 102호(파리스뷰티 내)",
  "combination": "수동",
  "lat": 36.81623,
  "lng": 127.13108
 },
 {
  "name": "대광복권방",
  "address": "전남 화순군 칠충로 55 대광그린상가동 1층109호",
  "combination": "수동",
  "lat": 35.05548,
  "lng": 126.97712
 },
 {
  "name": "창신할인마트",
  "address": "경북 경산시 경산로 136-3",
  "combination": "수동",
  "lat": 35.820923,
  "lng": 128.72902
 },
 {
  "name": "CU노서점",
  "address": "경북 경주시 금성로259번길 38 1층 CU 노서점 내",
  "combination": "자동",
  "lat": 35.841007,
  "lng": 129.20302
 },
 {
  "name": "씨유 창원역점",
  "address": "경남 창원시 의창구 의창대로 66 CU편의점",
  "combination": "자동",
  "lat": 35.256947,
  "lng": 128.6077
 }
]