[
 {
  "name": "미나식품(로또판매점)",
  "address": "서울 강서구 금낭화로 91-12",
  "combination": "자동",
  "lat": 37.5735,
  "lng": 126.81066
 },
 {
  "name": "행복한 꿈 이야기",
  "address": "서울 관악구 봉천로 612 1층",
  "combination": "자동",
  "lat": 37.47562,
  "lng": 126.96498
 },
 {
  "name": "복권방",
  "address": "서울 광진구 자양로18길 34",
  "combination": "자동",
  "lat": 37.537773,
  "lng": 127.08546
 },
 {
  "name": "88수퍼",
  "address": "서울 금천구 가산로 130",
  "combination": "자동",
  "lat": 37.47716,
  "lng": 126.892105
 },
 {
  "name": "라이프복권",
  "address": "부산 동구 고관로 106 1층 137~139호",
  "combination": "수동",
  "lat": 35.128258,
  "lng": 129.04639
 },
 {
  "name": "대구연쇄점",
  "address": "부산 부산진구 중앙대로783번길 8",
  "combination": "자동",
  "lat": 35.162384,
  "lng": 129.06238
 },
 {
  "name": "강서복권방",
  "address": "부산 사하구 대티로 80",
  "combination": "자동",
  "lat": 35.10677,
  "lng": 129.008
 },
 {
  "name": "로터리복권방",
  "address": "부산 서구 자갈치로 4",
  "combination": "수동",
  "lat": 35.096195,
  "lng": 129.02484
 },
 {
  "name": "GS로또(남대구IC점)",
  "address": "대구 달서구 성서공단로 346 1층 GS편의점",
  "combination": "반자동",
  "lat": 35.836327,
  "lng": 128.52068
 },
 {
  "name": "해피+24시편의점",
  "address": "광주 북구 하서로 330",
  "combination": "자동",
  "lat": 35.2045,
  "lng": 126.8739
 },
 {
  "name": "보람복권방",
  "address": "울산 남구 화합로194번길 18-1 1층",
  "combination": "수동",
  "lat": 35.541855,
  "lng": 129.34157
 },
 {
  "name": "코사마트",
  "address": "경기 부천시 오정로 203",
  "combination": "반자동",
  "lat": 37.52708,
  "lng": 126.78259
 },
 {
  "name": "럭키복권점",
  "address": "강원 강릉시 강릉대로 305",
  "combination": "자동",
  "lat": 37.76388,
  "lng": 128.90155
 },
 {
  "name": "해수로또",
  "address": "충북 청주시 상당구 산성로 22-1",
  "combination": "자동",
  "lat": 36.62615,
  "lng": 127.49938
 },
 {
  "name": "오사랑복권",
  "address": "충북 청주시 흥덕구 진재로 42",
  "combination": "수동",
  "lat": 36.634895,
  "lng": 127.42964
 },
 {
  "name": "만복복권",
  "address": "충남 계룡시 엄사중앙로 93",
  "combination": "자동",
  "lat": 36.289074,
  "lng": 127.24185
 },
 {
  "name": "금손로또판매점",
  "address": "충남 당진시 서해로 5772",
  "combination": "자동",
  "lat": 36.898495,
  "lng": 126.628784
 },
 {
  "name": "굿모닝",
  "address": "전남 순천시 중앙로 220 굿모닝",
  "combination": "수동",
  "lat": 34.965294,
  "lng": 127.484985
 },
 {
  "name": "복권나라",
  "address": "전남 여수시 중앙로 62 1층",
  "combination": "자동",
  "lat": 34.73992,
  "lng": 127.73436
 },
 {
  "name": "천하명당복권판매점",
  "address": "제주 제주시 서해안로 510",
  "combination": "자동",
  "lat": 33.5195,
  "lng": 126.49352
 }
]