[
 {
  "name": "스파",
  "address": "서울 노원구 동일로 1493 주공10단지종합상가111",
  "combination": "자동",
  "lat": 37.66166,
  "lng": 127.05787
 },
 {
  "name": "돼지복권명당",
  "address": "부산 기장군 해맞이로 365-1",
  "combination": "자동",
  "lat": 35.32655,
  "lng": 129.27667
 },
 {
  "name": "마치복권",
  "address": "대전 서구 구봉로 125",
  "combination": "자동",
  "lat": 36.296867,
  "lng": 127.33698
 },
 {
  "name": "어게인",
  "address": "경기 고양시 일산동구 중산로 105 현해프라자 113호",
  "combination": "수동",
  "lat": 37.681396,
  "lng": 126.78133
 },
 {
  "name": "어게인",
  "address": "경기 고양시 일산동구 중산로 105 현해프라자 113호",
  "combination": "수동",
  "lat": 37.681396,
  "lng": 126.78133
 },
 {
  "name": "신의 축복",
  "address": "경기 남양주시 사릉로34번길 24 (금곡동) 7호",
  "combination": "자동",
  "lat": 37.63618,
  "lng": 127.21107
 },
 {
  "name": "오늘도로또",
  "address": "경기 부천시 신흥로 190 1동 1층 120호",
  "combination": "자동",
  "lat": 37.500645,
  "lng": 126.777245
 },
 {
  "name": "로또통신",
  "address": "경기 안성시 장기로 36",
  "combination": "수동",
  "lat": 37.00587,
  "lng": 127.26738
 },
 {
  "name": "복권세상",
  "address": "경기 여주시 우암로 21-1 1층",
  "combination": "수동",
  "lat": 37.29685,
  "lng": 127.633064
 },
 {
  "name": "복권세상",
  "address": "경기 여주시 우암로 21-1 1층",
  "combination": "수동",
  "lat": 37.29685,
  "lng": 127.633064
 },
 {
  "name": "복권세상",
  "address": "경기 여주시 우암로 21-1 1층",
  "combination": "수동",
  "lat": 37.29685,
  "lng": 127.633064
 },
 {
  "name": "복권세상",
  "address": "경기 여주시 우암로 21-1 1층",
  "combination": "수동",
  "lat": 37.29685,
  "lng": 127.633064
 },
 {
  "name": "흥건슈퍼",
  "address": "전북 전주시 완산구 거마평로 25 흥건슈퍼",
  "combination": "자동",
  "lat": 35.794403,
  "lng": 127.11578
 }
]