[
 {
  "name": "주황이 복권방",
  "address": "서울 서초구 사임당로 178 110호",
  "combination": "자동",
  "lat": 37.492226,
  "lng": 127.02905
 },
 {
  "name": "가로판매점",
  "address": "서울 용산구 원효로 179",
  "combination": "자동",
  "lat": 37.536076,
  "lng": 126.96253
 },
 {
  "name": "승보슈퍼",
  "address": "서울 중구 마장로9길 49-19",
  "combination": "수동",
  "lat": 37.570137,
  "lng": 127.0184
 },
 {
  "name": "범일서적",
  "address": "부산 동구 진시장로 19-2 1층복권방",
  "combination": "반자동",
  "lat": 35.137386,
  "lng": 129.05898
 },
 {
  "name": "하영",
  "address": "인천 서구 청라에메랄드로 65 아파트 상가 102호",
  "combination": "수동",
  "lat": 37.53106,
  "lng": 126.6557
 },
 {
  "name": "하영",
  "address": "인천 서구 청라에메랄드로 65 아파트 상가 102호",
  "combination": "수동",
  "lat": 37.53106,
  "lng": 126.6557
 },
 {
  "name": "로또또",
  "address": "경기 김포시 봉수대로 1704 102호",
  "combination": "수동",
  "lat": 37.62097,
  "lng": 126.63304
 },
 {
  "name": "경춘마트",
  "address": "경기 남양주시 경춘로992번길 1",
  "combination": "수동",
  "lat": 37.634228,
  "lng": 127.21185
 },
 {
  "name": "이마트24 용두휴게소",
  "address": "충남 천안시 동남구 매봉로 210 용두휴게소 이마트24 내",
  "combination": "자동",
  "lat": 36.74836,
  "lng": 127.30957
 },
 {
  "name": "흥건슈퍼",
  "address": "전북 전주시 완산구 거마평로 25 흥건슈퍼",
  "combination": "자동",
  "lat": 35.794403,
  "lng": 127.11578
 },
 {
  "name": "로또복권",
  "address": "전남 순천시 오천4길 21 111동108호",
  "combination": "자동",
  "lat": 34.932903,
  "lng": 127.493416
 },
 {
  "name": "복권명당",
  "address": "경북 구미시 상사동로 163-8 송일빌102호",
  "combination": "자동",
  "lat": 36.09924,
  "lng": 128.35825
 },
 {
  "name": "믿음사복권방",
  "address": "경남 함양군 금성길 1",
  "combination": "수동",
  "lat": 35.628475,
  "lng": 127.812
 }
]