[
 {
  "name": "인터넷 복권판매사이트",
  "address": "동행복권(dhlottery.co.kr)",
  "combination": "자동",
  "lat": 37.482063,
  "lng": 127.015785
 },
 {
  "name": "성광복권명당",
  "address": "부산 연제구 과정로 335",
  "combination": "자동",
  "lat": 35.19,
  "lng": 129.0911
 },
 {
  "name": "대박",
  "address": "경기 구리시 안골로103번길 46",
  "combination": "자동",
  "lat": 37.599422,
  "lng": 127.14154
 },
 {
  "name": "행운드림로또\u0026토토",
  "address": "경기 김포시 초당로16번길 77 1층 106호",
  "combination": "수동",
  "lat": 37.63979,
  "lng": 126.67515
 },
 {
  "name": "내츄럴하우스복권판매점",
  "address": "경기 평택시 중앙로 1 1층 상가",
  "combination": "자동",
  "lat": 36.99572,
  "lng": 127.08358
 },
 {
  "name": "백억만로또",
  "address": "강원 춘천시 퇴계로 15 7B-3L",
  "combination": "자동",
  "lat": 37.866093,
  "lng": 127.72451
 },
 {
  "name": "오창중앙복권",
  "address": "충북 청주시 청원구 중심상업로 47 103호",
  "combination": "자동",
  "lat": 36.715076,
  "lng": 127.42894
 },
 {
  "name": "로또명당인주점",
  "address": "충남 아산시 서해로 519-2",
  "combination": "자동",
  "lat": 36.87784,
  "lng": 126.89828
 },
 {
  "name": "공단로또명당",
  "address": "경북 포항시 남구 철강로 200 1층(장흥동)",
  "combination": "자동",
  "lat": 35.98611,
  "lng": 129.3638
 },
 {
  "name": "해보라마트",
  "address": "경남 김해시 율하7로 22 101호",
  "combination": "자동",
  "lat": 35.17334,
  "lng": 128.82556
 },
 {
  "name": "공단로또점",
  "address": "경남 함안군 삼칠로 831 슈퍼 옆 1층",
  "combination": "자동",
  "lat": 35.360252,
  "lng": 128.48526
 }
]