[
 {
  "name": "고고GOGO로또",
  "address": "서울 광진구 자양로15길 34",
  "combination": "자동",
  "lat": 37.535645,
  "lng": 127.08174
 },
 {
  "name": "잠실매점",
  "address": "서울 송파구 올림픽로 269 잠실역 8번출구 앞 가판",
  "combination": "자동",
  "lat": 37.514446,
  "lng": 127.10071
 },
 {
  "name": "뉴빅마트",
  "address": "부산 기장군 정관중앙로 48 106호",
  "combination": "수동",
  "lat": 35.321114,
  "lng": 129.17929
 },
 {
  "name": "뉴빅마트",
  "address": "부산 기장군 정관중앙로 48 106호",
  "combination": "수동",
  "lat": 35.321114,
  "lng": 129.17929
 },
 {
  "name": "뉴빅마트",
  "address": "부산 기장군 정관중앙로 48 106호",
  "combination": "수동",
  "lat": 35.321114,
  "lng": 129.17929
 },
 {
  "name": "뉴빅마트",
  "address": "부산 기장군 정관중앙로 48 106호",
  "combination": "수동",
  "lat": 35.321114,
  "lng": 129.17929
 },
 {
  "name": "뉴빅마트",
  "address": "부산 기장군 정관중앙로 48 106호",
  "combination": "수동",
  "lat": 35.321114,
  "lng": 129.17929
 },
 {
  "name": "뉴빅마트",
  "address": "부산 기장군 정관중앙로 48 106호",
  "combination": "수동",
  "lat": 35.321114,
  "lng": 129.17929
 },
 {
  "name": "뉴빅마트",
  "address": "부산 기장군 정관중앙로 48 106호",
  "combination": "수동",
  "lat": 35.321114,
  "lng": 129.17929
 },
 {
  "name": "뉴빅마트",
  "address": "부산 기장군 정관중앙로 48 106호",
  "combination": "수동",
  "lat": 35.321114,
  "lng": 129.17929
 },
 {
  "name": "화신상사",
  "address": "부산 동래구 삼성대길 48",
  "combination": "자동",
  "lat": 35.205097,
  "lng": 129.08176
 },
 {
  "name": "빅세일복권방",
  "address": "부산 부산진구 서면문화로 6",
  "combination": "자동",
  "lat": 35.158302,
  "lng": 129.05809
 },
 {
  "name": "로터리복권방",
  "address": "부산 서구 자갈치로 4",
  "combination": "자동",
  "lat": 35.096195,
  "lng": 129.02484
 },
 {
  "name": "금집복권",
  "address": "광주 북구 첨단연신로108번길 134",
  "combination": "자동",
  "lat": 35.2088,
  "lng": 126.86471
 },
 {
  "name": "로또복권방",
  "address": "경기 의왕시 효행로 42",
  "combination": "수동",
  "lat": 37.351208,
  "lng": 126.97329
 },
 {
  "name": "행운로또",
  "address": "충북 진천군 대하로 151 106호",
  "combination": "자동",
  "lat": 36.9042,
  "lng": 127.53552
 },
 {
  "name": "봉서산로또토토",
  "address": "충남 천안시 서북구 봉명로 25 1층 4호",
  "combination": "수동",
  "lat": 36.807594,
  "lng": 127.131355
 }
]