[
 {
  "name": "행운의집",
  "address": "서울 강동구 구천면로 222",
  "combination": "자동",
  "lat": 37.540466,
  "lng": 127.1292
 },
 {
  "name": "일조로또",
  "address": "서울 은평구 은평로 101",
  "combination": "반자동",
  "lat": 37.600006,
  "lng": 126.91907
 },
 {
  "name": "꿈이현실로",
  "address": "서울 중구 청계천로 182",
  "combination": "자동",
  "lat": 37.568573,
  "lng": 126.99775
 },
 {
  "name": "종합가로판매점113호패션TV앞",
  "address": "서울 중구 을지로 264",
  "combination": "자동",
  "lat": 37.56575,
  "lng": 127.006966
 },
 {
  "name": "이유복권",
  "address": "인천 서구 이음대로 388 117호",
  "combination": "자동",
  "lat": 37.59308,
  "lng": 126.7127
 },
 {
  "name": "역전복권방",
  "address": "광주 광산구 상무대로 208 1층",
  "combination": "자동",
  "lat": 35.13774,
  "lng": 126.79203
 },
 {
  "name": "예가유통",
  "address": "울산 북구 화동로 6 1층 복권방",
  "combination": "자동",
  "lat": 35.59136,
  "lng": 129.36902
 },
 {
  "name": "송정복권",
  "address": "경기 군포시 송부로33번길 3-3 101호(도마교동)",
  "combination": "자동",
  "lat": 37.31574,
  "lng": 126.91756
 },
 {
  "name": "동행복권(로또복권)",
  "address": "경기 남양주시 퇴계원로 103-1 1층",
  "combination": "자동",
  "lat": 37.65555,
  "lng": 127.1442
 },
 {
  "name": "천하명당",
  "address": "경기 시흥시 신천3길 26-1 1층1호",
  "combination": "자동",
  "lat": 37.438892,
  "lng": 126.783295
 },
 {
  "name": "아이지에이마트 오산무지개점",
  "address": "경기 오산시 현충로 95",
  "combination": "자동",
  "lat": 37.160877,
  "lng": 127.07752
 },
 {
  "name": "훼미리마트",
  "address": "경기 포천시 중앙로 148 신읍동",
  "combination": "반자동",
  "lat": 37.8993,
  "lng": 127.205414
 },
 {
  "name": "학동복권나라",
  "address": "전남 여수시 흥국로 6",
  "combination": "자동",
  "lat": 34.763523,
  "lng": 127.663475
 }
]