[
 {
  "name": "오케이(O.K)로또",
  "address": "서울 도봉구 우이천로 486-1",
  "combination": "자동",
  "lat": 37.65648,
  "lng": 127.01571
 },
 {
  "name": "자갈치도깨비명당",
  "address": "부산 중구 자갈치로 33 501,502호",
  "combination": "수동",
  "lat": 35.09717,
  "lng": 129.0283
 },
 {
  "name": "청구마트",
  "address": "대구 북구 검단로 34 청구아파트상가108동102호",
  "combination": "자동",
  "lat": 35.90048,
  "lng": 128.6171
 },
 {
  "name": "오천억복권방",
  "address": "광주 서구 상무대로 1087",
  "combination": "자동",
  "lat": 35.15296,
  "lng": 126.880745
 },
 {
  "name": "돈벼락맞는곳",
  "address": "대전 서구 복수남로 16",
  "combination": "수동",
  "lat": 36.297783,
  "lng": 127.37957
 },
 {
  "name": "8888로또",
  "address": "대전 서구 월평북로 77",
  "combination": "자동",
  "lat": 36.362503,
  "lng": 127.37681
 },
 {
  "name": "세븐일레븐 평내지원점",
  "address": "경기 남양주시 경춘로1256번길 6 112,113호",
  "combination": "자동",
  "lat": 37.64595,
  "lng": 127.23437
 },
 {
  "name": "비휴 로또",
  "address": "경기 오산시 양산로410번길 10 양산동",
  "combination": "자동",
  "lat": 37.19544,
  "lng": 127.02996
 },
 {
  "name": "로또휴게실",
  "address": "경기 용인시 기흥구 용구대로 1885",
  "combination": "자동",
  "lat": 37.256386,
  "lng": 127.10432
 },
 {
  "name": "로또복권",
  "address": "경기 의정부시 신흥로 348",
  "combination": "수동",
  "lat": 37.74725,
  "lng": 127.042854
 },
 {
  "name": "로또복권슈퍼(국제꽃화원)",
  "address": "경기 의정부시 동일로 677 101호",
  "combination": "자동",
  "lat": 37.748566,
  "lng": 127.05282
 },
 {
  "name": "금호 동행복권",
  "address": "전남 영암군 대불주거로 159 1층",
  "combination": "자동",
  "lat": 34.75284,
  "lng": 126.45735
 },
 {
  "name": "씨유제주 제일점",
  "address": "제주 제주시 신산로 16 CU 제일점",
  "combination": "반자동",
  "lat": 33.511852,
  "lng": 126.53152
 }
]