[
 {
  "name": "가로판매점",
  "address": "서울 금천구 시흥대로 480 가판",
  "combination": "수동",
  "lat": 37.47635,
  "lng": 126.89906
 },
 {
  "name": "오케이상사",
  "address": "서울 서초구 신반포로 176 센트럴시티내100호매점",
  "combination": "자동",
  "lat": 37.50555,
  "lng": 127.00356
 },
 {
  "name": "5번가 로또",
  "address": "서울 송파구 올림픽로 249-2 가판(잠실역5번출구 바로 앞)",
  "combination": "자동",
  "lat": 37.513065,
  "lng": 127.09852
 },
 {
  "name": "천하명당복권방(행운을주는사람들)",
  "address": "부산 사상구 광장로38번길 25",
  "combination": "수동",
  "lat": 35.16115,
  "lng": 128.98048
 },
 {
  "name": "복권판매점",
  "address": "경기 광명시 광명로 908 (광명동)",
  "combination": "수동",
  "lat": 37.47988,
  "lng": 126.85494
 },
 {
  "name": "운수대통",
  "address": "경기 군포시 군포로745번길 24",
  "combination": "자동",
  "lat": 37.37093,
  "lng": 126.94142
 },
 {
  "name": "안성상회",
  "address": "경기 안성시 안성맞춤대로 1187",
  "combination": "수동",
  "lat": 37.018612,
  "lng": 127.26699
 },
 {
  "name": "행운복권방",
  "address": "경기 양평군 용문로 358-1 1층",
  "combination": "수동",
  "lat": 37.484356,
  "lng": 127.59362
 },
 {
  "name": "한방복권",
  "address": "경기 파주시 경의로 1100 연세프라자104호",
  "combination": "자동",
  "lat": 37.715324,
  "lng": 126.76012
 },
 {
  "name": "행운복권방",
  "address": "경기 포천시 솔모루로 86-1",
  "combination": "자동",
  "lat": 37.8288,
  "lng": 127.14748
 },
 {
  "name": "강경복권방",
  "address": "충남 논산시 계백로 126-1",
  "combination": "자동",
  "lat": 36.15601,
  "lng": 127.014854
 },
 {
  "name": "꿀사랑",
  "address": "충남 논산시 해월로179번길 10",
  "combination": "자동",
  "lat": 36.206383,
  "lng": 127.08685
 },
 {
  "name": "역전로또",
  "address": "경북 구미시 구미중앙로 72",
  "combination": "자동",
  "lat": 36.129063,
  "lng": 128.33061
 },
 {
  "name": "로또복권 하대점",
  "address": "경남 진주시 도동로 188",
  "combination": "자동",
  "lat": 35.18703,
  "lng": 128.12248
 },
 {
  "name": "소답시내버스매표소",
  "address": "경남 창원시 의창구 의안로2번길 17 가판",
  "combination": "자동",
  "lat": 35.261776,
  "lng": 128.62564
 }
]