[
 {
  "name": "희망드림(동행복권)",
  "address": "서울 광진구 뚝섬로30길 47",
  "combination": "반자동",
  "lat": 37.53488,
  "lng": 127.06755
 },
 {
  "name": "보성정보통신",
  "address": "서울 동대문구 장한로2길 24",
  "combination": "반자동",
  "lat": 37.56191,
  "lng": 127.06647
 },
 {
  "name": "한국인세계대박복권",
  "address": "인천 연수구 한나루로197번길 34",
  "combination": "자동",
  "lat": 37.42769,
  "lng": 126.65522
 },
 {
  "name": "미리 대박 복권",
  "address": "대전 서구 둔산남로105번길 19",
  "combination": "수동",
  "lat": 36.349957,
  "lng": 127.38909
 },
 {
  "name": "네잎클로버",
  "address": "울산 북구 당수골6길 20 1층",
  "combination": "수동",
  "lat": 35.63473,
  "lng": 129.36066
 },
 {
  "name": "씨월드",
  "address": "경기 남양주시 별내2로 64 109호",
  "combination": "자동",
  "lat": 37.646427,
  "lng": 127.12488
 },
 {
  "name": "광성슈퍼",
  "address": "경기 이천시 단월로 33",
  "combination": "자동",
  "lat": 37.221367,
  "lng": 127.44998
 },
 {
  "name": "복권마트 \u0026 씨스페이스 홍천점",
  "address": "강원 홍천군 홍천로 409 1층",
  "combination": "자동",
  "lat": 37.690258,
  "lng": 127.88947
 },
 {
  "name": "황금알복권방",
  "address": "충북 진천군 상산로 71",
  "combination": "수동",
  "lat": 36.854687,
  "lng": 127.44187
 },
 {
  "name": "행운복권방 보생당건강원",
  "address": "전북 익산시 무왕로 1268",
  "combination": "자동",
  "lat": 35.960304,
  "lng": 126.99727
 },
 {
  "name": "일레븐마트무선점",
  "address": "전남 여수시 성산로 19",
  "combination": "자동",
  "lat": 34.77387,
  "lng": 127.63973
 },
 {
  "name": "행복마트",
  "address": "경북 김천시 혁신로 185 메타폴리스상가 120호",
  "combination": "수동",
  "lat": 36.117535,
  "lng": 128.18396
 },
 {
  "name": "창원로또명당",
  "address": "경남 창원시 성산구 용지로113번길 8",
  "combination": "자동",
  "lat": 35.226368,
  "lng": 128.67827
 },
 {
  "name": "만물할인슈퍼",
  "address": "경남 창원시 성산구 대정로 145 개나리1차상가107호",
  "combination": "자동",
  "lat": 35.21318,
  "lng": 128.7085
 }
]