[
 {
  "name": "인터넷 복권판매사이트",
  "address": "동행복권(dhlottery.co.kr)",
  "combination": "수동",
  "lat": 37.482063,
  "lng": 127.015785
 },
 {
  "name": "인터넷 복권판매사이트",
  "address": "동행복권(dhlottery.co.kr)",
  "combination": "자동",
  "lat": 37.482063,
  "lng": 127.015785
 },
 {
  "name": "가든파이브 복권",
  "address": "서울 송파구 충민로 52 가든파이브웍스 제지1층 제비에프10777-2호",
  "combination": "자동",
  "lat": 37.47772,
  "lng": 127.12275
 },
 {
  "name": "셀피아",
  "address": "울산 북구 무룡로 29 울산광역시 북구 연암동 417-1, 1층",
  "combination": "자동",
  "lat": 35.58109,
  "lng": 129.36357
 },
 {
  "name": "1번지복권방",
  "address": "경기 성남시 중원구 희망로 448 1층일부 (금광동)",
  "combination": "자동",
  "lat": 37.444973,
  "lng": 127.15739
 },
 {
  "name": "꿈이있는로또",
  "address": "경기 여주시 경충대로 1490 오일뱅크 주유소",
  "combination": "자동",
  "lat": 37.21828,
  "lng": 127.531334
 },
 {
  "name": "코사마트역전점",
  "address": "경기 평택시 중앙2로 1",
  "combination": "자동",
  "lat": 36.991993,
  "lng": 127.08722
 },
 {
  "name": "하당복권방",
  "address": "전남 목포시 옥암로 46",
  "combination": "자동",
  "lat": 34.803894,
  "lng": 126.429474
 },
 {
  "name": "대풍로또판매점",
  "address": "경남 김해시 번화2로 36",
  "combination": "자동",
  "lat": 35.192284,
  "lng": 128.80525
 },
 {
  "name": "진빈레코드",
  "address": "경남 밀양시 북성로 7",
  "combination": "자동",
  "lat": 35.498558,
  "lng": 128.74329
 },
 {
  "name": "나눔로또봉평점",
  "address": "경남 통영시 도남로 81",
  "combination": "수동",
  "lat": 34.831635,
  "lng": 128.41365
 }
]