[
 {
  "name": "구일 로또 전자담배",
  "address": "서울 구로구 구일로8길 63 한신상가 102호",
  "combination": "자동",
  "lat": 37.487312,
  "lng": 126.82406
 },
 {
  "name": "또와요로또방",
  "address": "서울 동대문구 왕산로 270-1 1층",
  "combination": "수동",
  "lat": 37.584694,
  "lng": 127.05096
 },
 {
  "name": "천하명당복권방",
  "address": "서울 송파구 백제고분로41길 7 1층",
  "combination": "수동",
  "lat": 37.506783,
  "lng": 127.10817
 },
 {
  "name": "부일카서비스",
  "address": "부산 동구 자성로133번길 35",
  "combination": "자동",
  "lat": 35.140015,
  "lng": 129.06306
 },
 {
  "name": "다시 꿈꾸는 미래 동행복권",
  "address": "부산 부산진구 백양대로208번길 38-9 상가동13호",
  "combination": "자동",
  "lat": 35.16136,
  "lng": 129.02824
 },
 {
  "name": "로또(카페)",
  "address": "대구 달서구 대명천로 89 1층",
  "combination": "수동",
  "lat": 35.83919,
  "lng": 128.5499
 },
 {
  "name": "일등복권편의점",
  "address": "대구 달서구 대명천로 220 1층",
  "combination": "자동",
  "lat": 35.84214,
  "lng": 128.53621
 },
 {
  "name": "대박슈퍼",
  "address": "인천 부평구 경원대로 1438",
  "combination": "수동",
  "lat": 37.490837,
  "lng": 126.728645
 },
 {
  "name": "대박슈퍼",
  "address": "인천 부평구 경원대로 1438",
  "combination": "수동",
  "lat": 37.490837,
  "lng": 126.728645
 },
 {
  "name": "대박슈퍼",
  "address": "인천 부평구 경원대로 1438",
  "combination": "수동",
  "lat": 37.490837,
  "lng": 126.728645
 },
 {
  "name": "대박슈퍼",
  "address": "인천 부평구 경원대로 1438",
  "combination": "수동",
  "lat": 37.490837,
  "lng": 126.728645
 },
 {
  "name": "대박슈퍼",
  "address": "인천 부평구 경원대로 1438",
  "combination": "수동",
  "lat": 37.490837,
  "lng": 126.728645
 },
 {
  "name": "와따복권방",
  "address": "인천 서구 검단로 490 1층",
  "combination": "수동",
  "lat": 37.6023,
  "lng": 126.6586
 },
 {
  "name": "와따복권방",
  "address": "인천 서구 검단로 490 1층",
  "combination": "수동",
  "lat": 37.6023,
  "lng": 126.6586
 },
 {
  "name": "행운복권방",
  "address": "경기 고양시 덕양구 꽃마을로 66 1층105호",
  "combination": "수동",
  "lat": 37.60126,
  "lng": 126.89335
 },
 {
  "name": "하늘로또",
  "address": "경기 여주시 세종로475번길 2 1층",
  "combination": "수동",
  "lat": 37.257896,
  "lng": 127.646416
 },
 {
  "name": "하늘로또",
  "address": "경기 여주시 세종로475번길 2 1층",
  "combination": "수동",
  "lat": 37.257896,
  "lng": 127.646416
 },
 {
  "name": "하늘로또",
  "address": "경기 여주시 세종로475번길 2 1층",
  "combination": "수동",
  "lat": 37.257896,
  "lng": 127.646416
 },
 {
  "name": "하늘로또",
  "address": "경기 여주시 세종로475번길 2 1층",
  "combination": "수동",
  "lat": 37.257896,
  "lng": 127.646416
 },
 {
  "name": "하늘로또",
  "address": "경기 여주시 세종로475번길 2 1층",
  "combination": "수동",
  "lat": 37.257896,
  "lng": 127.646416
 },
 {
  "name": "드림복권전문점",
  "address": "경기 평택시 평남로 651",
  "combination": "수동",
  "lat": 36.991936,
  "lng": 127.10693
 },
 {
  "name": "성강동인",
  "address": "경기 하남시 신장로 212 1층 2호",
  "combination": "자동",
  "lat": 37.543922,
  "lng": 127.19827
 },
 {
  "name": "영일대 복권방",
  "address": "경북 포항시 북구 학전로 26 1층,항구동",
  "combination": "자동",
  "lat": 36.055035,
  "lng": 129.37462
 },
 {
  "name": "동아슈퍼",
  "address": "경남 김해시 전하로 253 동아그린아파트상가 103동 101호",
  "combination": "수동",
  "lat": 35.22628,
  "lng": 128.87253
 }
]