[
 {
  "name": "태양 명당 복권방",
  "address": "서울 금천구 독산로 211 세진상가103호",
  "combination": "자동",
  "lat": 37.46546,
  "lng": 126.90202
 },
 {
  "name": "인터넷 복권판매사이트",
  "address": "동행복권(dhlottery.co.kr)",
  "combination": "자동",
  "lat": 37.482063,
  "lng": 127.015785
 },
 {
  "name": "중구-가로가판대-37",
  "address": "서울 중구 남대문로 20-2",
  "combination": "자동",
  "lat": 37.56083,
  "lng": 126.97805
 },
 {
  "name": "행복드림 복권",
  "address": "인천 서구 청라라임로 85 판매시설 비동 131호 후면(청라동, 청라린스트라우스)",
  "combination": "자동",
  "lat": 37.53516,
  "lng": 126.65313
 },
 {
  "name": "동키호테편의점",
  "address": "광주 서구 풍금로38번길 23",
  "combination": "자동",
  "lat": 35.123924,
  "lng": 126.864746
 },
 {
  "name": "영화유통(1등복권방)",
  "address": "울산 남구 신정로 19 삼성아파트 상가 204-101",
  "combination": "자동",
  "lat": 35.533833,
  "lng": 129.32205
 },
 {
  "name": "천하명당복권방",
  "address": "경기 수원시 팔달구 매산로 2",
  "combination": "자동",
  "lat": 37.26661,
  "lng": 127.00185
 },
 {
  "name": "우리로또복권",
  "address": "경기 연천군 청신로 91",
  "combination": "자동",
  "lat": 37.982903,
  "lng": 127.06913
 },
 {
  "name": "당첨쑥쑥복권",
  "address": "경기 의왕시 고산로 88",
  "combination": "자동",
  "lat": 37.351463,
  "lng": 126.961395
 },
 {
  "name": "로또야놀자",
  "address": "경북 경주시 양정로 211",
  "combination": "수동",
  "lat": 35.85151,
  "lng": 129.22398
 },
 {
  "name": "목화휴게소",
  "address": "경남 사천시 사천대로 912",
  "combination": "자동",
  "lat": 35.0018,
  "lng": 128.05415
 },
 {
  "name": "명당",
  "address": "경남 진주시 동부로 1356 1층 일부호",
  "combination": "자동",
  "lat": 35.18731,
  "lng": 128.22482
 },
 {
  "name": "세븐일레븐진해경화위브점",
  "address": "경남 창원시 진해구 조천로 29 세븐일레븐",
  "combination": "자동",
  "lat": 35.1603,
  "lng": 128.68478
 }
]