[
 {
  "name": "운좋은날",
  "address": "서울 강동구 풍성로 187 102호",
  "combination": "수동",
  "lat": 37.53,
  "lng": 127.13284
 },
 {
  "name": "운좋은날",
  "address": "서울 강동구 풍성로 187 102호",
  "combination": "수동",
  "lat": 37.53,
  "lng": 127.13284
 },
 {
  "name": "운좋은날",
  "address": "서울 강동구 풍성로 187 102호",
  "combination": "수동",
  "lat": 37.53,
  "lng": 127.13284
 },
 {
  "name": "운좋은날",
  "address": "서울 강동구 풍성로 187 102호",
  "combination": "수동",
  "lat": 37.53,
  "lng": 127.13284
 },
 {
  "name": "운좋은날",
  "address": "서울 강동구 풍성로 187 102호",
  "combination": "수동",
  "lat": 37.53,
  "lng": 127.13284
 },
 {
  "name": "도로시",
  "address": "서울 강동구 아리수로93길 19 108호",
  "combination": "수동",
  "lat": 37.56538,
  "lng": 127.17412
 },
 {
  "name": "사당",
  "address": "서울 관악구 과천대로 953",
  "combination": "자동",
  "lat": 37.475727,
  "lng": 126.981445
 },
 {
  "name": "인터넷 복권판매사이트",
  "address": "동행복권(dhlottery.co.kr)",
  "combination": "자동",
  "lat": 37.482063,
  "lng": 127.015785
 },
 {
  "name": "우정식품",
  "address": "부산 동래구 온천장로 33 1층",
  "combination": "자동",
  "lat": 35.21531,
  "lng": 129.07925
 },
 {
  "name": "행운나눔",
  "address": "부산 사하구 사하로 204",
  "combination": "자동",
  "lat": 35.099873,
  "lng": 128.99347
 },
 {
  "name": "반달커피대구침산점",
  "address": "대구 북구 칠성남로 100 대구역한라하우젠트센텀상가102호",
  "combination": "자동",
  "lat": 35.878113,
  "lng": 128.5917
 },
 {
  "name": "메트로센터점",
  "address": "대구 중구 달구벌대로 지하 2100 메트로센터C412호",
  "combination": "자동",
  "lat": 35.86582,
  "lng": 128.59314
 },
 {
  "name": "씨유 방어행복점",
  "address": "울산 동구 꽃바위로 35",
  "combination": "반자동",
  "lat": 35.49189,
  "lng": 129.41109
 },
 {
  "name": "행운로또 굴화점",
  "address": "울산 울주군 굴화2길 26 1층",
  "combination": "수동",
  "lat": 35.55459,
  "lng": 129.26051
 },
 {
  "name": "행복충전소",
  "address": "경기 안양시 만안구 안양로 228 1층",
  "combination": "수동",
  "lat": 37.39359,
  "lng": 126.9261
 },
 {
  "name": "북부슈퍼",
  "address": "경기 의정부시 가능로125번길 22",
  "combination": "자동",
  "lat": 37.74797,
  "lng": 127.04477
 },
 {
  "name": "리버스 편의점",
  "address": "경기 하남시 미사대로 520 현대지식산업센터 한강미사2차 D동 125호",
  "combination": "자동",
  "lat": 37.558865,
  "lng": 127.20458
 },
 {
  "name": "GS25석문센트럴점",
  "address": "충남 당진시 산단7로 94-9 106,107호 GS편의점 내",
  "combination": "자동",
  "lat": 36.99936,
  "lng": 126.59489
 }
]