[
 {
  "name": "미나식품(로또판매점)",
  "address": "서울 강서구 금낭화로 91-12",
  "combination": "자동",
  "lat": 37.5735,
  "lng": 126.81066
 },
 {
  "name": "스파",
  "address": "서울 노원구 동일로 1493 주공10단지종합상가111",
  "combination": "자동",
  "lat": 37.66166,
  "lng": 127.05787
 },
 {
  "name": "행운복권",
  "address": "서울 영등포구 도신로65길 2 1층(신길동)",
  "combination": "수동",
  "lat": 37.512917,
  "lng": 126.91745
 },
 {
  "name": "지에스(GS)25 신길센트럴점",
  "address": "서울 영등포구 도림로 308 1층",
  "combination": "자동",
  "lat": 37.505123,
  "lng": 126.90278
 },
 {
  "name": "오거리복권방",
  "address": "서울 용산구 소월로20길 12",
  "combination": "수동",
  "lat": 37.545994,
  "lng": 126.985245
 },
 {
  "name": "코리아슈퍼",
  "address": "대구 달서구 달구벌대로 1130 1층  코리아마트내",
  "combination": "자동",
  "lat": 35.850815,
  "lng": 128.49092
 },
 {
  "name": "메트로센터점",
  "address": "대구 중구 달구벌대로 지하 2100 메트로센터C412호",
  "combination": "수동",
  "lat": 35.86582,
  "lng": 128.59314
 },
 {
  "name": "희망복권",
  "address": "인천 서구 가정로151번길 11 삼성홈플러스가좌점1층",
  "combination": "자동",
  "lat": 37.497604,
  "lng": 126.67071
 },
 {
  "name": "보경복권",
  "address": "울산 북구 명촌6길 7",
  "combination": "수동",
  "lat": 35.558064,
  "lng": 129.36029
 },
 {
  "name": "고양월드식품복권",
  "address": "경기 고양시 덕양구 혜음로 8 삼라마이다스프라자 제1층 제115호",
  "combination": "수동",
  "lat": 37.701103,
  "lng": 126.901794
 },
 {
  "name": "소망복권판매점",
  "address": "경기 김포시 청송로 26 102-1호",
  "combination": "수동",
  "lat": 37.64776,
  "lng": 126.6667
 },
 {
  "name": "조은하루",
  "address": "경기 용인시 처인구 낙은로 22",
  "combination": "수동",
  "lat": 37.23934,
  "lng": 127.19856
 },
 {
  "name": "복권백화점",
  "address": "경기 파주시 평화로 70",
  "combination": "자동",
  "lat": 37.763588,
  "lng": 126.76989
 },
 {
  "name": "유성로또복권상회",
  "address": "강원 원주시 평원로 45 1층",
  "combination": "자동",
  "lat": 37.35008,
  "lng": 127.95144
 },
 {
  "name": "합천우리복권방",
  "address": "경남 합천군 핫들2로 8 1층",
  "combination": "자동",
  "lat": 35.56843,
  "lng": 128.16539
 },
 {
  "name": "돈벼락 복권",
  "address": "제주 제주시 흥운길 12",
  "combination": "자동",
  "lat": 33.510105,
  "lng": 126.511345
 }
]