[
 {
  "name": "미나식품(로또판매점)",
  "address": "서울 강서구 금낭화로 91-12",
  "combination": "수동",
  "lat": 37.5735,
  "lng": 126.81066
 },
 {
  "name": "종로3가1호선역2번출구가로판매점82호",
  "address": "서울 종로구 돈화문로 23 가판",
  "combination": "수동",
  "lat": 37.5707,
  "lng": 126.991875
 },
 {
  "name": "지에스(GS)25 기장읍내로",
  "address": "부산 기장군 읍내로94번길 2",
  "combination": "수동",
  "lat": 35.24467,
  "lng": 129.21439
 },
 {
  "name": "로또성지",
  "address": "부산 부산진구 백양관문로 104-1",
  "combination": "수동",
  "lat": 35.168537,
  "lng": 129.02856
 },
 {
  "name": "희망복권판매점",
  "address": "인천 서구 보듬5로 5 104호일부",
  "combination": "수동",
  "lat": 37.594208,
  "lng": 126.61228
 },
 {
  "name": "1등복권방",
  "address": "인천 연수구 해돋이로 168 (송도동 21-13 혜인프라자 104호)",
  "combination": "반자동",
  "lat": 37.395416,
  "lng": 126.64522
 },
 {
  "name": "씨유 송도점",
  "address": "인천 연수구 인권로 9 1층 CU",
  "combination": "수동",
  "lat": 37.418644,
  "lng": 126.65144
 },
 {
  "name": "알리바이",
  "address": "광주 광산구 수등로 253 1층 알리바이",
  "combination": "수동",
  "lat": 35.185387,
  "lng": 126.83668
 },
 {
  "name": "황금열쇠복권방",
  "address": "울산 북구 신기15길 2",
  "combination": "수동",
  "lat": 35.645832,
  "lng": 129.35484
 },
 {
  "name": "행복나눔로또",
  "address": "경기 남양주시 마석로 37 101호",
  "combination": "자동",
  "lat": 37.654255,
  "lng": 127.306145
 },
 {
  "name": "버스표가판점",
  "address": "경기 안양시 동안구 동안로 125-2 범계역4-1출구앞 버스표가판점",
  "combination": "자동",
  "lat": 37.389736,
  "lng": 126.95106
 },
 {
  "name": "황금마트",
  "address": "경기 평택시 현신3길 5-9",
  "combination": "수동",
  "lat": 36.996082,
  "lng": 127.13491
 },
 {
  "name": "행운슈퍼",
  "address": "경기 화성시 병점3로 37 106호",
  "combination": "수동",
  "lat": 37.20829,
  "lng": 127.03755
 },
 {
  "name": "왕대박복권전문점",
  "address": "강원 동해시 중앙로 234 이주민상가1층18호",
  "combination": "수동",
  "lat": 37.52171,
  "lng": 129.115
 },
 {
  "name": "왕대박복권",
  "address": "강원 속초시 번영로 142 1층, 102호",
  "combination": "수동",
  "lat": 38.211353,
  "lng": 128.58932
 },
 {
  "name": "속초등대로또복권",
  "address": "강원 속초시 영금정로 23",
  "combination": "자동",
  "lat": 38.212677,
  "lng": 128.59906
 },
 {
  "name": "복드림로또판매점",
  "address": "충북 충주시 첨단산업9로 13 1충",
  "combination": "반자동",
  "lat": 36.9995,
  "lng": 127.83492
 },
 {
  "name": "153로또판매점",
  "address": "충남 아산시 배방로 57-23",
  "combination": "수동",
  "lat": 36.772297,
  "lng": 127.05734
 },
 {
  "name": "예스복권방",
  "address": "충남 천안시 동남구 천안천공원6길 14-5 1층",
  "combination": "자동",
  "lat": 36.795994,
  "lng": 127.147995
 },
 {
  "name": "농산물직판장",
  "address": "전북 군산시 백토로 128",
  "combination": "수동",
  "lat": 35.96753,
  "lng": 126.70487
 },
 {
  "name": "부안복권방",
  "address": "전북 부안군 번영로 135",
  "combination": "수동",
  "lat": 35.72623,
  "lng": 126.73543
 },
 {
  "name": "행운복권방",
  "address": "전북 부안군 번영로 109",
  "combination": "수동",
  "lat": 35.72662,
  "lng": 126.73255
 },
 {
  "name": "로또로복권",
  "address": "전북 전주시 완산구 모악로 4729",
  "combination": "수동",
  "lat": 35.791546,
  "lng": 127.131294
 },
 {
  "name": "로타리상회",
  "address": "경북 구미시 산호대로 199 상가1층4호",
  "combination": "수동",
  "lat": 36.10139,
  "lng": 128.38504
 },
 {
  "name": "복권나라",
  "address": "경북 포항시 북구 장량로140번길 9",
  "combination": "수동",
  "lat": 36.08086,
  "lng": 129.39603
 },
 {
  "name": "로또행운마트",
  "address": "경남 김해시 능동로 177 복권판매점",
  "combination": "자동",
  "lat": 35.203793,
  "lng": 128.81001
 },
 {
  "name": "로또복권판매 초전점",
  "address": "경남 진주시 대신로457번길 9 1층",
  "combination": "반자동",
  "lat": 35.201275,
  "lng": 128.11505
 },
 {
  "name": "범섬로또",
  "address": "제주 서귀포시 월드컵로 169",
  "combination": "수동",
  "lat": 33.23481,
  "lng": 126.50678
 }
]