[
 {
  "name": "편의점사랑",
  "address": "서울 강서구 곰달래로25길 57 1층",
  "combination": "자동",
  "lat": 37.533108,
  "lng": 126.848274
 },
 {
  "name": "금두꺼비 복권방",
  "address": "부산 동래구 안남로 89-1 1층(안락동)",
  "combination": "자동",
  "lat": 35.193626,
  "lng": 129.10184
 },
 {
  "name": "제우스테크",
  "address": "대전 서구 원도안로 30",
  "combination": "자동",
  "lat": 36.306774,
  "lng": 127.348656
 },
 {
  "name": "똥광 로또 복권방",
  "address": "경기 안산시 단원구 화랑로 98 바동 102호",
  "combination": "자동",
  "lat": 37.32695,
  "lng": 126.79981
 },
 {
  "name": "주몽동명",
  "address": "경기 용인시 수지구 포은대로 319 중앙빌딩 104호",
  "combination": "자동",
  "lat": 37.315742,
  "lng": 127.08753
 },
 {
  "name": "주택복권방",
  "address": "경기 용인시 수지구 풍덕천로 144-1 103호",
  "combination": "수동",
  "lat": 37.323883,
  "lng": 127.09745
 },
 {
  "name": "작은신부",
  "address": "충남 서산시 구진로 6",
  "combination": "수동",
  "lat": 36.936096,
  "lng": 126.43599
 },
 {
  "name": "행복자리",
  "address": "전북 군산시 칠성1길 33",
  "combination": "자동",
  "lat": 35.958336,
  "lng": 126.67308
 },
 {
  "name": "대동복권방",
  "address": "경남 김해시 월산로 112-57 이마트편의점 좌측 복권판매점",
  "combination": "자동",
  "lat": 35.206844,
  "lng": 128.80473
 },
 {
  "name": "명당",
  "address": "경남 진주시 동부로 1356 1층 일부호",
  "combination": "자동",
  "lat": 35.18731,
  "lng": 128.22482
 }
]