[
 {
  "name": "일등",
  "address": "서울 강동구 양재대로 1500 101호",
  "combination": "자동",
  "lat": 37.539463,
  "lng": 127.14085
 },
 {
  "name": "다람쥐로또",
  "address": "서울 마포구 동교로 40 1층",
  "combination": "자동",
  "lat": 37.55247,
  "lng": 126.90672
 },
 {
  "name": "인터넷 복권판매사이트",
  "address": "동행복권(dhlottery.co.kr)",
  "combination": "자동",
  "lat": 37.482063,
  "lng": 127.015785
 },
 {
  "name": "오케이상사",
  "address": "서울 서초구 신반포로 176 센트럴시티내100호매점",
  "combination": "자동",
  "lat": 37.50555,
  "lng": 127.00356
 },
 {
  "name": "하영",
  "address": "인천 서구 청라에메랄드로 65 아파트 상가 102호",
  "combination": "자동",
  "lat": 37.53106,
  "lng": 126.6557
 },
 {
  "name": "대전우표사",
  "address": "대전 동구 중앙로204번길 16-1",
  "combination": "자동",
  "lat": 36.330036,
  "lng": 127.432076
 },
 {
  "name": "로토피아",
  "address": "경기 광명시 오리로 371 상가1층102호",
  "combination": "자동",
  "lat": 37.435596,
  "lng": 126.87925
 },
 {
  "name": "그린마트",
  "address": "경기 성남시 분당구 대왕판교로 255 107호",
  "combination": "자동",
  "lat": 37.366467,
  "lng": 127.10083
 },
 {
  "name": "정통복권방",
  "address": "경기 수원시 팔달구 매산로116번길 32",
  "combination": "자동",
  "lat": 37.269806,
  "lng": 127.01393
 },
 {
  "name": "로또 복권방",
  "address": "경기 양주시 칠봉산로 195-7 102호(봉양동)",
  "combination": "수동",
  "lat": 37.851795,
  "lng": 127.07751
 },
 {
  "name": "로또복권방",
  "address": "경기 의정부시 평화로 223",
  "combination": "수동",
  "lat": 37.711758,
  "lng": 127.0473
 },
 {
  "name": "대박찬스",
  "address": "충북 청주시 흥덕구 가경로161번길 3",
  "combination": "자동",
  "lat": 36.628975,
  "lng": 127.43644
 },
 {
  "name": "춘향로또",
  "address": "전북 남원시 동림로 102-1",
  "combination": "자동",
  "lat": 35.41707,
  "lng": 127.384926
 }
]