[
 {
  "name": "인터넷 복권판매사이트",
  "address": "동행복권(dhlottery.co.kr)",
  "combination": "수동",
  "lat": 37.482063,
  "lng": 127.015785
 },
 {
  "name": "여명슈퍼마켓",
  "address": "서울 성북구 장위로15길 4",
  "combination": "자동",
  "lat": 37.61431,
  "lng": 127.04147
 },
 {
  "name": "돈벼락맞는곳",
  "address": "부산 해운대구 양운로 55 두산위브센티움상가102호",
  "combination": "수동",
  "lat": 35.168194,
  "lng": 129.17624
 },
 {
  "name": "행운 로또복권",
  "address": "부산 해운대구 좌동로 107-10",
  "combination": "자동",
  "lat": 35.17356,
  "lng": 129.17668
 },
 {
  "name": "돈벼락맞는곳",
  "address": "부산 해운대구 양운로 55 두산위브센티움상가102호",
  "combination": "수동",
  "lat": 35.168194,
  "lng": 129.17624
 },
 {
  "name": "대박로또",
  "address": "대전 중구 대종로 174 1층",
  "combination": "자동",
  "lat": 36.30706,
  "lng": 127.447525
 },
 {
  "name": "복권판매점",
  "address": "경기 고양시 일산서구 일산로 502 분산상가동 1층 4호(일산동, 후곡마을14단지)",
  "combination": "자동",
  "lat": 37.67617,
  "lng": 126.77196
 },
 {
  "name": "돈벼락",
  "address": "경기 부천시 범안로 220 제근린생활시설2동 1층 103호",
  "combination": "수동",
  "lat": 37.46042,
  "lng": 126.81241
 },
 {
  "name": "온누리로또",
  "address": "경기 수원시 권선구 세권로 122 1층 102호",
  "combination": "자동",
  "lat": 37.25713,
  "lng": 127.017456
 },
 {
  "name": "새말편의점",
  "address": "경기 안성시 신령로 209",
  "combination": "자동",
  "lat": 37.027336,
  "lng": 127.22271
 },
 {
  "name": "신의한수",
  "address": "경기 화성시 떡전골로 86 103호",
  "combination": "자동",
  "lat": 37.20643,
  "lng": 127.03415
 },
 {
  "name": "진평양행",
  "address": "강원 강릉시 임영로 107",
  "combination": "자동",
  "lat": 37.751263,
  "lng": 128.89407
 },
 {
  "name": "복권명당",
  "address": "강원 태백시 황지로 32",
  "combination": "수동",
  "lat": 37.161564,
  "lng": 128.99089
 },
 {
  "name": "참깨열쇠.복권",
  "address": "전북 전주시 완산구 용리로 43 1층",
  "combination": "수동",
  "lat": 35.798843,
  "lng": 127.11466
 },
 {
  "name": "행복나눔",
  "address": "전남 담양군 무정로 42",
  "combination": "자동",
  "lat": 35.30844,
  "lng": 126.98514
 },
 {
  "name": "로또명당",
  "address": "경북 의성군 중앙길 10-1 1층",
  "combination": "자동",
  "lat": 36.34501,
  "lng": 128.69894
 },
 {
  "name": "승원롯또판매",
  "address": "경남 창원시 의창구 천주로 506 복권판매점",
  "combination": "자동",
  "lat": 35.301727,
  "lng": 128.60196
 }
]