[
 {
  "name": "굴러들어온 복권",
  "address": "서울 강남구 논현로72길 20 1층 102호",
  "combination": "수동",
  "lat": 37.495804,
  "lng": 127.04116
 },
 {
  "name": "신일",
  "address": "서울 강서구 까치산로 177 1층 101호",
  "combination": "자동",
  "lat": 37.553062,
  "lng": 126.85334
 },
 {
  "name": "인터넷 복권판매사이트",
  "address": "동행복권(dhlottery.co.kr)",
  "combination": "수동",
  "lat": 37.482063,
  "lng": 127.015785
 },
 {
  "name": "신가로판매점",
  "address": "서울 중구 세종대로 26",
  "combination": "자동",
  "lat": 37.558704,
  "lng": 126.97442
 },
 {
  "name": "백금당",
  "address": "부산 중구 중구로29번길 26",
  "combination": "자동",
  "lat": 35.100513,
  "lng": 129.02731
 },
 {
  "name": "천하명당복권방",
  "address": "광주 서구 풍암순환로 5 대주파크빌아파트상가1층102호",
  "combination": "자동",
  "lat": 35.12602,
  "lng": 126.876625
 },
 {
  "name": "세종로또방",
  "address": "세종   용포로 32",
  "combination": "수동",
  "lat": 36.461655,
  "lng": 127.280685
 },
 {
  "name": "복권판매점",
  "address": "경기 광명시 광명로 908 (광명동)",
  "combination": "자동",
  "lat": 37.47988,
  "lng": 126.85494
 },
 {
  "name": "동남운천복권",
  "address": "충북 청주시 상당구 중고개로125번길 17",
  "combination": "자동",
  "lat": 36.61543,
  "lng": 127.51741
 },
 {
  "name": "비하로또명당",
  "address": "충북 청주시 흥덕구 2순환로 1052 1층 휴대폰싸게파는집 내부",
  "combination": "자동",
  "lat": 36.64092,
  "lng": 127.421906
 },
 {
  "name": "로또로복권",
  "address": "전북 전주시 완산구 모악로 4729",
  "combination": "자동",
  "lat": 35.791546,
  "lng": 127.131294
 },
 {
  "name": "복권나라동성점",
  "address": "전남 순천시 연향번영길 94 동성아파트 상가113호",
  "combination": "자동",
  "lat": 34.950096,
  "lng": 127.51894
 },
 {
  "name": "대불로또판매점",
  "address": "전남 영암군 대불주거1로9길 3 1층 101호",
  "combination": "수동",
  "lat": 34.751568,
  "lng": 126.45539
 },
 {
  "name": "노다지구미황상",
  "address": "경북 구미시 수출대로 555",
  "combination": "수동",
  "lat": 36.110912,
  "lng": 128.42572
 },
 {
  "name": "로또복권",
  "address": "대구 군위군 중앙길 32",
  "combination": "자동",
  "lat": 36.231487,
  "lng": 128.56749
 },
 {
  "name": "터미널복권판매점",
  "address": "경남 창원시 마산회원구 3·15대로 756 1층 102호(마산시외버스터미널)",
  "combination": "자동",
  "lat": 35.23916,
  "lng": 128.58353
 },
 {
  "name": "제이에이치마켓",
  "address": "경남 창원시 의창구 의창대로 914",
  "combination": "자동",
  "lat": 35.278957,
  "lng": 128.69046
 },
 {
  "name": "행운로또복권방",
  "address": "경남 창원시 진해구 용원로 89",
  "combination": "자동",
  "lat": 35.098915,
  "lng": 128.81892
 },
 {
  "name": "영화복권",
  "address": "경남 창원시 진해구 안청남로 14",
  "combination": "수동",
  "lat": 35.10107,
  "lng": 128.8045
 }
]