[
 {
  "name": "월드로또복권 판매점",
  "address": "서울 강남구 논현로63길 16 1층 102호",
  "combination": "자동",
  "lat": 37.493008,
  "lng": 127.03915
 },
 {
  "name": "사당",
  "address": "서울 관악구 과천대로 953",
  "combination": "수동",
  "lat": 37.475727,
  "lng": 126.981445
 },
 {
  "name": "성지로또",
  "address": "서울 송파구 마천로7길 6 대림아파트상가115호",
  "combination": "자동",
  "lat": 37.49927,
  "lng": 127.102005
 },
 {
  "name": "태릉시장복권방",
  "address": "서울 중랑구 중랑역로 47",
  "combination": "자동",
  "lat": 37.598118,
  "lng": 127.07667
 },
 {
  "name": "로또까페",
  "address": "인천 계양구 길마로 35 1층 102호",
  "combination": "수동",
  "lat": 37.534027,
  "lng": 126.70959
 },
 {
  "name": "좋은터",
  "address": "인천 계양구 효서로 204 1층",
  "combination": "수동",
  "lat": 37.527794,
  "lng": 126.71853
 },
 {
  "name": "대운복권",
  "address": "경기 성남시 중원구 성남대로 1149",
  "combination": "자동",
  "lat": 37.432377,
  "lng": 127.12866
 },
 {
  "name": "드림복권방",
  "address": "경기 수원시 권선구 정조로 515",
  "combination": "자동",
  "lat": 37.25527,
  "lng": 127.011055
 },
 {
  "name": "머니머니",
  "address": "경기 시흥시 월곶중앙로14번길 100",
  "combination": "자동",
  "lat": 37.394455,
  "lng": 126.739426
 },
 {
  "name": "선경로또",
  "address": "충북 제천시 용두대로 59 1층",
  "combination": "자동",
  "lat": 37.13622,
  "lng": 128.19936
 },
 {
  "name": "땅끝 로또",
  "address": "전남 해남군 산정1길 111 세븐일레븐",
  "combination": "수동",
  "lat": 34.36887,
  "lng": 126.5191
 },
 {
  "name": "KOREA마트",
  "address": "경북 구미시 임은길 64",
  "combination": "자동",
  "lat": 36.088997,
  "lng": 128.36955
 },
 {
  "name": "씨스페이스 어방점",
  "address": "경남 김해시 인제로170번길 15-6 편의점 내",
  "combination": "수동",
  "lat": 35.244053,
  "lng": 128.90582
 },
 {
  "name": "씨스페이스 어방점",
  "address": "경남 김해시 인제로170번길 15-6 편의점 내",
  "combination": "수동",
  "lat": 35.244053,
  "lng": 128.90582
 }
]