[
 {
  "name": "대왕로또",
  "address": "부산 영도구 남항로 35",
  "combination": "수동",
  "lat": 35.088993,
  "lng": 129.04027
 },
 {
  "name": "와이에스컴퍼니",
  "address": "대구 남구 두류공원로 105 1층",
  "combination": "자동",
  "lat": 35.84577,
  "lng": 128.56767
 },
 {
  "name": "일등커피로또판매점",
  "address": "대구 수성구 동대구로 371 1층,일등커피숍내",
  "combination": "자동",
  "lat": 35.863514,
  "lng": 128.62642
 },
 {
  "name": "대박슈퍼",
  "address": "인천 부평구 경원대로 1438",
  "combination": "수동",
  "lat": 37.490837,
  "lng": 126.728645
 },
 {
  "name": "동성슈퍼",
  "address": "울산 울주군 북문1길 7 101호",
  "combination": "자동",
  "lat": 35.570965,
  "lng": 129.12039
 },
 {
  "name": "지에스25(울산우정선경점)로또",
  "address": "울산 중구 우정3길 12",
  "combination": "자동",
  "lat": 35.55905,
  "lng": 129.31126
 },
 {
  "name": "행복점빵",
  "address": "경기 고양시 덕양구 지축1로 41 108호",
  "combination": "수동",
  "lat": 37.64868,
  "lng": 126.91496
 },
 {
  "name": "두근두근로또복권",
  "address": "경기 고양시 일산동구 일산로 453 1층 106호",
  "combination": "자동",
  "lat": 37.673714,
  "lng": 126.77627
 },
 {
  "name": "동하인터내셔날",
  "address": "경기 남양주시 진건오남로884번길 23 105,106호",
  "combination": "수동",
  "lat": 37.70544,
  "lng": 127.19809
 },
 {
  "name": "만물전파사",
  "address": "경기 남양주시 마석중앙로 74",
  "combination": "자동",
  "lat": 37.652023,
  "lng": 127.307846
 },
 {
  "name": "영앤로또",
  "address": "경기 남양주시 다산중앙로123번길 47 메트로3단지 상기 106호",
  "combination": "자동",
  "lat": 37.622902,
  "lng": 127.147575
 },
 {
  "name": "행운모아 복권방",
  "address": "경기 수원시 권선구 서수원로577번길 305 제상가동 비205호(금곡동, 수원모아미래도센트럴타운2단지)",
  "combination": "수동",
  "lat": 37.27444,
  "lng": 126.94018
 },
 {
  "name": "일주일행복로또(파장매표소)",
  "address": "경기 수원시 장안구 파장로82번길 3",
  "combination": "반자동",
  "lat": 37.30682,
  "lng": 126.99182
 },
 {
  "name": "행운복권방",
  "address": "경기 의정부시 충의로 55",
  "combination": "자동",
  "lat": 37.73674,
  "lng": 127.08712
 },
 {
  "name": "터미널식품",
  "address": "경기 의정부시 동일로 640",
  "combination": "자동",
  "lat": 37.745457,
  "lng": 127.05505
 },
 {
  "name": "진평양행",
  "address": "강원 강릉시 임영로 107",
  "combination": "자동",
  "lat": 37.751263,
  "lng": 128.89407
 },
 {
  "name": "노다지복권",
  "address": "강원 횡성군 문정로 52",
  "combination": "수동",
  "lat": 37.488537,
  "lng": 127.98868
 },
 {
  "name": "행복한복권방",
  "address": "전북 전주시 덕진구 혁신로 465",
  "combination": "자동",
  "lat": 35.8545,
  "lng": 127.06591
 },
 {
  "name": "행복한복권방",
  "address": "전북 전주시 덕진구 혁신로 465",
  "combination": "자동",
  "lat": 35.8545,
  "lng": 127.06591
 },
 {
  "name": "황금알복권",
  "address": "전남 광양시 광포로 39 1층 (광영동)",
  "combination": "수동",
  "lat": 34.962803,
  "lng": 127.72284
 },
 {
  "name": "행복로또방",
  "address": "경남 김해시 김해대로2529번길 31 100-3호 복권판매점",
  "combination": "수동",
  "lat": 35.23111,
  "lng": 128.90291
 }
]