[
 {
  "name": "행운로또복권방",
  "address": "서울 성북구 보국문로 34-1",
  "combination": "자동",
  "lat": 37.607548,
  "lng": 127.01053
 },
 {
  "name": "방이먹자골목 천하명당 일등복권",
  "address": "서울 송파구 오금로11길 24 제1층 주차장 옆",
  "combination": "수동",
  "lat": 37.514874,
  "lng": 127.10982
 },
 {
  "name": "가판100호",
  "address": "서울 중구 을지로 113-4",
  "combination": "자동",
  "lat": 37.56644,
  "lng": 126.990746
 },
 {
  "name": "로터리 클럽",
  "address": "인천 미추홀구 인하로 250-1 1층",
  "combination": "자동",
  "lat": 37.44812,
  "lng": 126.67594
 },
 {
  "name": "대박복권방",
  "address": "인천 부평구 영성로 50-1 1층",
  "combination": "수동",
  "lat": 37.52011,
  "lng": 126.74498
 },
 {
  "name": "인현동지하가판",
  "address": "인천 중구 참외전로 132-2 동인천역 7,8번 출구 지하1층 가판대",
  "combination": "자동",
  "lat": 37.475266,
  "lng": 126.63103
 },
 {
  "name": "로또편의점",
  "address": "경기 김포시 김포한강11로 288-32 골든스퀘어101호",
  "combination": "자동",
  "lat": 37.654293,
  "lng": 126.68418
 },
 {
  "name": "초이스 복권판매점",
  "address": "경기 안성시 석정2길 20 1층 104호",
  "combination": "자동",
  "lat": 37.00919,
  "lng": 127.26089
 },
 {
  "name": "한빛3단지 천지인",
  "address": "경기 파주시 와석순환로 66 103호",
  "combination": "자동",
  "lat": 37.71032,
  "lng": 126.75176
 },
 {
  "name": "스마일로또",
  "address": "충북 제천시 신죽하로 83-11 1층 GS25 편의점 내",
  "combination": "자동",
  "lat": 37.15993,
  "lng": 128.22205
 },
 {
  "name": "로또복권방",
  "address": "충북 청주시 청원구 내수로 725-1 디지털프라자 옆",
  "combination": "자동",
  "lat": 36.726448,
  "lng": 127.53578
 },
 {
  "name": "썬마트",
  "address": "충북 청주시 흥덕구 진재로23번길 25",
  "combination": "자동",
  "lat": 36.632607,
  "lng": 127.42811
 },
 {
  "name": "대박마트복권방",
  "address": "충남 아산시 음봉로 844 태화상가1층103호",
  "combination": "자동",
  "lat": 36.826485,
  "lng": 127.09925
 },
 {
  "name": "로또명당인주점",
  "address": "충남 아산시 서해로 519-2",
  "combination": "자동",
  "lat": 36.87784,
  "lng": 126.89828
 },
 {
  "name": "희망복권방",
  "address": "충남 예산군 예산로 241 1층",
  "combination": "수동",
  "lat": 36.680325,
  "lng": 126.85139
 },
 {
  "name": "조례로또복권방",
  "address": "전남 순천시 봉화2길 58 조례로또복권방",
  "combination": "자동",
  "lat": 34.95842,
  "lng": 127.51815
 },
 {
  "name": "복슈퍼",
  "address": "경남 김해시 가야로 19 푸르지오상가 111호 복권판매점",
  "combination": "자동",
  "lat": 35.27011,
  "lng": 128.86241
 },
 {
  "name": "제일복권",
  "address": "경남 양산시 양산역2길 7 103호 복권판매점",
  "combination": "반자동",
  "lat": 35.335594,
  "lng": 129.02797
 }
]