[
 {
  "name": "기장슈퍼",
  "address": "부산 기장군 차성동로 69",
  "combination": "자동",
  "lat": 35.243927,
  "lng": 129.2165
 },
 {
  "name": "평생꽃길대연점",
  "address": "부산 남구 수영로266번길 37",
  "combination": "자동",
  "lat": 35.13507,
  "lng": 129.09718
 },
 {
  "name": "부일카서비스",
  "address": "부산 동구 자성로133번길 35",
  "combination": "자동",
  "lat": 35.140015,
  "lng": 129.06306
 },
 {
  "name": "복권명당신기점",
  "address": "대구 동구 율하동로24길 49",
  "combination": "자동",
  "lat": 35.869595,
  "lng": 128.70769
 },
 {
  "name": "황금대박점",
  "address": "대구 수성구 지범로 62",
  "combination": "자동",
  "lat": 35.826054,
  "lng": 128.62749
 },
 {
  "name": "대박복권판매점",
  "address": "인천 남동구 구월남로 190",
  "combination": "자동",
  "lat": 37.452675,
  "lng": 126.71069
 },
 {
  "name": "행운강림 로또방",
  "address": "경기 안산시 상록구 반석로 54",
  "combination": "자동",
  "lat": 37.296513,
  "lng": 126.8657
 },
 {
  "name": "별복권방",
  "address": "충북 청주시 흥덕구 덕암로114번길 28",
  "combination": "자동",
  "lat": 36.65003,
  "lng": 127.46118
 },
 {
  "name": "운수대통복권방",
  "address": "충남 천안시 동남구 대흥로 122",
  "combination": "수동",
  "lat": 36.80049,
  "lng": 127.14926
 },
 {
  "name": "명당",
  "address": "경남 진주시 동부로 1356",
  "combination": "자동",
  "lat": 35.18731,
  "lng": 128.22482
 }
]