[
 {
  "name": "잉크와복권",
  "address": "서울 강서구 가로공원로76가길 12",
  "combination": "자동",
  "lat": 37.53307,
  "lng": 126.83962
 },
 {
  "name": "복권세계",
  "address": "서울 동작구 신대방길 8",
  "combination": "수동",
  "lat": 37.487953,
  "lng": 126.912155
 },
 {
  "name": "신세계슈퍼",
  "address": "서울 영등포구 대림로 191",
  "combination": "자동",
  "lat": 37.49777,
  "lng": 126.89829
 },
 {
  "name": "로또킹",
  "address": "서울 영등포구 영중로 2",
  "combination": "자동",
  "lat": 37.516743,
  "lng": 126.906746
 },
 {
  "name": "대박천하복권방",
  "address": "서울 은평구 연서로 150",
  "combination": "수동",
  "lat": 37.60352,
  "lng": 126.91597
 },
 {
  "name": "에스비 상사",
  "address": "서울 중구 퇴계로86길 29",
  "combination": "반자동",
  "lat": 37.564255,
  "lng": 127.019806
 },
 {
  "name": "청솔서점",
  "address": "부산 사하구 하신번영로 195",
  "combination": "자동",
  "lat": 35.098824,
  "lng": 128.95897
 },
 {
  "name": "우성 명당 복권방",
  "address": "경기 안산시 상록구 본오로 133",
  "combination": "수동",
  "lat": 37.2973,
  "lng": 126.86652
 },
 {
  "name": "로또육사오",
  "address": "경기 안산시 상록구 일동로 22",
  "combination": "수동",
  "lat": 37.310066,
  "lng": 126.86888
 },
 {
  "name": "대운로또(씨스페이스)",
  "address": "경기 화성시 사랑길 90",
  "combination": "자동",
  "lat": 37.078716,
  "lng": 126.82305
 },
 {
  "name": "불티나",
  "address": "강원 춘천시 후석로462번길 94-1",
  "combination": "자동",
  "lat": 37.890953,
  "lng": 127.751976
 },
 {
  "name": "스타복권판매점",
  "address": "강원 춘천시 방송길 104",
  "combination": "수동",
  "lat": 37.867527,
  "lng": 127.72083
 },
 {
  "name": "로또명당인주점",
  "address": "충남 아산시 서해로 519-2",
  "combination": "자동",
  "lat": 36.87784,
  "lng": 126.89828
 },
 {
  "name": "천만불로또복권",
  "address": "전북 남원시 용성로 207",
  "combination": "반자동",
  "lat": 35.41606,
  "lng": 127.39496
 },
 {
  "name": "화신복권방",
  "address": "제주 제주시 중앙로 183",
  "combination": "반자동",
  "lat": 33.502876,
  "lng": 126.52785
 }
]