[
 {
  "name": "편의점사랑",
  "address": "서울 강서구 곰달래로25길 57",
  "combination": "수동",
  "lat": 37.533108,
  "lng": 126.848274
 },
 {
  "name": "편의점사랑",
  "address": "서울 강서구 곰달래로25길 57",
  "combination": "수동",
  "lat": 37.533108,
  "lng": 126.848274
 },
 {
  "name": "천하명당초량점",
  "address": "부산 동구 중앙대로221번길 3",
  "combination": "자동",
  "lat": 35.116898,
  "lng": 129.04013
 },
 {
  "name": "후연로또점",
  "address": "인천 계양구 황어로 130",
  "combination": "수동",
  "lat": 37.579365,
  "lng": 126.73476
 },
 {
  "name": "로또명당진하점",
  "address": "울산 울주군 해맞이로 1578",
  "combination": "자동",
  "lat": 35.382607,
  "lng": 129.34232
 },
 {
  "name": "고양행복복권",
  "address": "경기 고양시 덕양구 삼송로 142",
  "combination": "자동",
  "lat": 37.652287,
  "lng": 126.8898
 },
 {
  "name": "삼성복권방",
  "address": "경기 동두천시 어수로 100-1",
  "combination": "자동",
  "lat": 37.902187,
  "lng": 127.05362
 },
 {
  "name": "대박복권방",
  "address": "경기 안산시 단원구 신길중앙로1길 40",
  "combination": "자동",
  "lat": 37.336105,
  "lng": 126.76227
 },
 {
  "name": "행운복권방",
  "address": "경기 의정부시 충의로 55",
  "combination": "자동",
  "lat": 37.73674,
  "lng": 127.08712
 },
 {
  "name": "로또카페",
  "address": "경기 평택시 관광특구로 13",
  "combination": "자동",
  "lat": 37.06724,
  "lng": 127.06053
 },
 {
  "name": "영월로또명당",
  "address": "강원 영월군 중앙로 44",
  "combination": "자동",
  "lat": 37.18335,
  "lng": 128.46846
 },
 {
  "name": "옥천로또",
  "address": "충북 옥천군 삼양로 8",
  "combination": "수동",
  "lat": 36.308056,
  "lng": 127.56306
 },
 {
  "name": "행운의명당로-토토",
  "address": "충북 청주시 서원구 모충로 36",
  "combination": "자동",
  "lat": 36.62487,
  "lng": 127.46841
 },
 {
  "name": "터미널분식",
  "address": "충남 부여군 부장대로 65",
  "combination": "자동",
  "lat": 36.280716,
  "lng": 126.90962
 },
 {
  "name": "대산슈퍼",
  "address": "충남 천안시 동남구 복구정3길 1",
  "combination": "수동",
  "lat": 36.76989,
  "lng": 127.250206
 },
 {
  "name": "제일마트",
  "address": "전북 군산시 진포로 145",
  "combination": "자동",
  "lat": 35.971558,
  "lng": 126.73285
 },
 {
  "name": "대청행복복권",
  "address": "경남 김해시 대청로 121",
  "combination": "자동",
  "lat": 35.18577,
  "lng": 128.79791
 }
]