[
 {
  "name": "그린슈퍼",
  "address": "서울 동대문구 왕산로 138",
  "combination": "자동",
  "lat": 37.57798,
  "lng": 127.038635
 },
 {
  "name": "쌍둥이네복권방",
  "address": "서울 중구 청파로 451-1 1층",
  "combination": "자동",
  "lat": 37.559643,
  "lng": 126.96806
 },
 {
  "name": "복드림 복권방",
  "address": "부산 북구 기찰로 155 (덕천동)",
  "combination": "자동",
  "lat": 35.214546,
  "lng": 129.02159
 },
 {
  "name": "오천억복권방",
  "address": "광주 서구 상무대로 1087",
  "combination": "자동",
  "lat": 35.152924,
  "lng": 126.88073
 },
 {
  "name": "현대마트점",
  "address": "광주 서구 상무대로 871 1층(쌍촌동)",
  "combination": "자동",
  "lat": 35.150517,
  "lng": 126.85729
 },
 {
  "name": "8888로또",
  "address": "대전 서구 월평북로 77",
  "combination": "자동",
  "lat": 36.362503,
  "lng": 127.37681
 },
 {
  "name": "홈런1등로또",
  "address": "경기 수원시 장안구 송원로 13 1층(송죽동)",
  "combination": "자동",
  "lat": 37.297134,
  "lng": 127.0053
 },
 {
  "name": "씨유용인청덕중앙점",
  "address": "경기 용인시 기흥구 구성3로28번길 12 101호",
  "combination": "자동",
  "lat": 37.2946,
  "lng": 127.15173
 },
 {
  "name": "화랑로또판매점",
  "address": "경기 화성시 푸른들판로 660",
  "combination": "자동",
  "lat": 37.167336,
  "lng": 126.89571
 },
 {
  "name": "영유통(로또복권)",
  "address": "전북 군산시 미룡로 45",
  "combination": "자동",
  "lat": 35.944042,
  "lng": 126.68995
 },
 {
  "name": "영유통(로또복권)",
  "address": "전북 군산시 미룡로 45",
  "combination": "자동",
  "lat": 35.944042,
  "lng": 126.68995
 },
 {
  "name": "나눔로또편의점",
  "address": "전남 광양시 공영로 90",
  "combination": "자동",
  "lat": 34.935658,
  "lng": 127.699066
 },
 {
  "name": "대우 행복 복권",
  "address": "경남 거제시 장승포로 11 1층",
  "combination": "자동",
  "lat": 34.867863,
  "lng": 128.72533
 },
 {
  "name": "나나 복권판매소",
  "address": "경남 양산시 상북중앙로 319 복권판매점",
  "combination": "수동",
  "lat": 35.4122,
  "lng": 129.05919
 }
]