[
 {
  "name": "지원물산",
  "address": "서울 노원구 공릉로 108",
  "combination": "자동",
  "lat": 37.61983,
  "lng": 127.078094
 },
 {
  "name": "인터넷 복권판매사이트",
  "address": "동행복권(dhlottery.co.kr)",
  "combination": "수동",
  "lat": 37.482063,
  "lng": 127.015785
 },
 {
  "name": "묵동식품",
  "address": "서울 중랑구 동일로 919",
  "combination": "자동",
  "lat": 37.612457,
  "lng": 127.07704
 },
 {
  "name": "동해마트",
  "address": "부산 동래구 사직북로57번길 58 애니타임 내",
  "combination": "자동",
  "lat": 35.19739,
  "lng": 129.05884
 },
 {
  "name": "모라행운로또",
  "address": "부산 사상구 백양대로 924 상가 2동 102호",
  "combination": "자동",
  "lat": 35.18791,
  "lng": 128.99176
 },
 {
  "name": "로또복권방",
  "address": "인천 부평구 광장로 16 지하 2층 223호",
  "combination": "자동",
  "lat": 37.489662,
  "lng": 126.722664
 },
 {
  "name": "대전하이퍼",
  "address": "대전 중구 보문산로 76",
  "combination": "자동",
  "lat": 36.305202,
  "lng": 127.388824
 },
 {
  "name": "행운복권",
  "address": "경기 군포시 대야1로 3 1동",
  "combination": "자동",
  "lat": 37.32638,
  "lng": 126.91891
 },
 {
  "name": "노다지복권방",
  "address": "경기 시흥시 복지로 103-1 1층상가",
  "combination": "자동",
  "lat": 37.44823,
  "lng": 126.79206
 },
 {
  "name": "로또N삭스",
  "address": "경기 의정부시 오목로205번길 39 골든프라자101호",
  "combination": "자동",
  "lat": 37.74548,
  "lng": 127.09645
 },
 {
  "name": "씨유 파주신촌점",
  "address": "경기 파주시 소라지로 79-3",
  "combination": "자동",
  "lat": 37.734715,
  "lng": 126.70249
 },
 {
  "name": "복권전문점(고흥)",
  "address": "전남 고흥군 고흥로 1740-2 복권전문점",
  "combination": "자동",
  "lat": 34.607407,
  "lng": 127.28464
 }
]