[
 {
  "name": "믿음복권방",
  "address": "서울 서대문구 가좌로4길 32 1층",
  "combination": "자동",
  "lat": 37.5857,
  "lng": 126.92487
 },
 {
  "name": "인터넷 복권판매사이트",
  "address": "동행복권(dhlottery.co.kr)",
  "combination": "자동",
  "lat": 37.482063,
  "lng": 127.015785
 },
 {
  "name": "예지행복",
  "address": "서울 양천구 월정로 59 가동 101호",
  "combination": "자동",
  "lat": 37.524853,
  "lng": 126.84132
 },
 {
  "name": "월드24시",
  "address": "서울 은평구 통일로 855-15",
  "combination": "자동",
  "lat": 37.61925,
  "lng": 126.919785
 },
 {
  "name": "묵동식품",
  "address": "서울 중랑구 동일로 919",
  "combination": "자동",
  "lat": 37.612457,
  "lng": 127.07704
 },
 {
  "name": "화신상사",
  "address": "부산 동래구 삼성대길 48",
  "combination": "자동",
  "lat": 35.205097,
  "lng": 129.08176
 },
 {
  "name": "럭키로또",
  "address": "대구 수성구 수성로 127 1층 (상동)",
  "combination": "자동",
  "lat": 35.83687,
  "lng": 128.61163
 },
 {
  "name": "메트로센터점",
  "address": "대구 중구 달구벌대로 지하 2100 메트로센터C412호",
  "combination": "자동",
  "lat": 35.86582,
  "lng": 128.59314
 },
 {
  "name": "제일슈퍼",
  "address": "인천 연수구 앵고개로 242 제일상가112호",
  "combination": "자동",
  "lat": 37.408646,
  "lng": 126.670815
 },
 {
  "name": "드림 복권판매점",
  "address": "경기 부천시 계남로 297 1층 102호",
  "combination": "자동",
  "lat": 37.50439,
  "lng": 126.781296
 },
 {
  "name": "골드러시",
  "address": "경기 성남시 중원구 도촌로7번길 4-2 102호",
  "combination": "자동",
  "lat": 37.414917,
  "lng": 127.15021
 },
 {
  "name": "즉석복권방",
  "address": "경기 수원시 영통구 산남로 2",
  "combination": "자동",
  "lat": 37.263893,
  "lng": 127.04714
 },
 {
  "name": "복권백화점",
  "address": "경기 파주시 평화로 70",
  "combination": "자동",
  "lat": 37.763588,
  "lng": 126.76989
 },
 {
  "name": "다복복권",
  "address": "충북 진천군 덕금로 792 1층 (세븐일레븐내)",
  "combination": "수동",
  "lat": 36.911865,
  "lng": 127.50574
 },
 {
  "name": "돈나무 복권",
  "address": "전북 군산시 공단대로 612",
  "combination": "수동",
  "lat": 35.97317,
  "lng": 126.68029
 },
 {
  "name": "팡팡복권방",
  "address": "전북 익산시 인북로 99",
  "combination": "자동",
  "lat": 35.93792,
  "lng": 126.95264
 },
 {
  "name": "별별마트",
  "address": "경북 성주군 성주로 4190 1층 복권방",
  "combination": "수동",
  "lat": 35.88126,
  "lng": 128.37099
 },
 {
  "name": "만물가게",
  "address": "제주 제주시 신성로10길 3",
  "combination": "자동",
  "lat": 33.49649,
  "lng": 126.53005
 }
]