[
 {
  "name": "크린토피아/최강로또",
  "address": "서울 은평구 갈현로11길 16 1층",
  "combination": "자동",
  "lat": 37.605473,
  "lng": 126.90866
 },
 {
  "name": "인터넷 복권판매사이트",
  "address": "동행복권(dhlottery.co.kr)",
  "combination": "자동",
  "lat": 37.482063,
  "lng": 127.015785
 },
 {
  "name": "국물이시원해",
  "address": "부산 금정구 금강로335번길 17 복권판매점",
  "combination": "자동",
  "lat": 35.237804,
  "lng": 129.08554
 },
 {
  "name": "오천억복권방",
  "address": "광주 서구 상무대로 1087",
  "combination": "자동",
  "lat": 35.152924,
  "lng": 126.88073
 },
 {
  "name": "차밍플라워 로또",
  "address": "광주 광산구 풍영로 41 동구빌딩1층",
  "combination": "자동",
  "lat": 35.175617,
  "lng": 126.811584
 },
 {
  "name": "세븐일레븐 울산동진점",
  "address": "울산 동구 동진로 4 1층 편의점",
  "combination": "자동",
  "lat": 35.486736,
  "lng": 129.42564
 },
 {
  "name": "동탄복권방",
  "address": "경기 화성시 동탄순환대로 702 성산타워 B동 101호",
  "combination": "자동",
  "lat": 37.20735,
  "lng": 127.11097
 },
 {
  "name": "씨유 포천인생역전점",
  "address": "경기 포천시 호국로 2538",
  "combination": "자동",
  "lat": 37.97084,
  "lng": 127.24985
 },
 {
  "name": "내츄럴하우스복권판매점",
  "address": "경기 평택시 중앙로 1 1층 상가",
  "combination": "자동",
  "lat": 36.99572,
  "lng": 127.08358
 },
 {
  "name": "복권전문점",
  "address": "경기 시흥시 중심상가로 323",
  "combination": "자동",
  "lat": 37.337162,
  "lng": 126.748276
 },
 {
  "name": "불티나",
  "address": "강원 춘천시 후석로462번길 94-1 1층",
  "combination": "반자동",
  "lat": 37.890953,
  "lng": 127.751976
 },
 {
  "name": "독천 로또",
  "address": "전남 영암군 영산로 27 1층",
  "combination": "수동",
  "lat": 34.72577,
  "lng": 126.56782
 },
 {
  "name": "독천 로또",
  "address": "전남 영암군 영산로 27 1층",
  "combination": "수동",
  "lat": 34.72577,
  "lng": 126.56782
 },
 {
  "name": "왕릉복권",
  "address": "경북 고령군 왕릉로 102 1층  복권방",
  "combination": "자동",
  "lat": 35.72868,
  "lng": 128.26704
 },
 {
  "name": "꿈의가게",
  "address": "경남 김해시 계동로 220 102호 복권판매점",
  "combination": "자동",
  "lat": 35.190304,
  "lng": 128.8022
 },
 {
  "name": "네잎크로버복권방",
  "address": "제주 서귀포시 고성오조로 9",
  "combination": "수동",
  "lat": 33.44472,
  "lng": 126.91338
 }
]