[
 {
  "name": "인터넷 복권판매사이트",
  "address": "동행복권(dhlottery.co.kr)",
  "combination": "수동",
  "lat": 37.482063,
  "lng": 127.015785
 },
 {
  "name": "정안 복권방",
  "address": "서울 노원구 동일로 1308 정안프라자 102호 일부",
  "combination": "자동",
  "lat": 37.645973,
  "lng": 127.06416
 },
 {
  "name": "돈방석",
  "address": "인천 남동구 남동대로765번길 26",
  "combination": "자동",
  "lat": 37.451057,
  "lng": 126.70622
 },
 {
  "name": "우리들공업탑점",
  "address": "울산 남구 수암로 21",
  "combination": "자동",
  "lat": 35.532272,
  "lng": 129.3106
 },
 {
  "name": "부자상회",
  "address": "경기 이천시 사동로 128 복권방",
  "combination": "수동",
  "lat": 37.232204,
  "lng": 127.494354
 },
 {
  "name": "부자상회",
  "address": "경기 이천시 사동로 128 복권방",
  "combination": "수동",
  "lat": 37.232204,
  "lng": 127.494354
 },
 {
  "name": "부자상회",
  "address": "경기 이천시 사동로 128 복권방",
  "combination": "수동",
  "lat": 37.232204,
  "lng": 127.494354
 },
 {
  "name": "서울로또",
  "address": "경기 의정부시 신흥로 93",
  "combination": "자동",
  "lat": 37.724426,
  "lng": 127.043526
 },
 {
  "name": "양평 대명점",
  "address": "경기 양평군 신내길7번길 48 1층 세븐일레븐",
  "combination": "자동",
  "lat": 37.468357,
  "lng": 127.532074
 },
 {
  "name": "153나눔로또편의점",
  "address": "경기 성남시 분당구 황새울로360번길 35 2층 231호",
  "combination": "자동",
  "lat": 37.38492,
  "lng": 127.12465
 },
 {
  "name": "카베",
  "address": "경기 부천시 부일로221번길 26 삼원타운1층-120",
  "combination": "자동",
  "lat": 37.489494,
  "lng": 126.75507
 },
 {
  "name": "오창중앙복권",
  "address": "충북 청주시 청원구 중심상업로 47 103호",
  "combination": "반자동",
  "lat": 36.715076,
  "lng": 127.42894
 },
 {
  "name": "원호대박복권",
  "address": "경북 구미시 문장로25길 7 GS25구미원호점",
  "combination": "수동",
  "lat": 36.151474,
  "lng": 128.32925
 },
 {
  "name": "지에스(GS)25 진동에이스점",
  "address": "경남 창원시 마산합포구 신서촌1길 49",
  "combination": "자동",
  "lat": 35.11601,
  "lng": 128.4864
 }
]