[
 {
  "name": "꿈이있는 로또점(복권판매점)",
  "address": "서울 은평구 통일로 699 1층",
  "combination": "자동",
  "lat": 37.60838,
  "lng": 126.931465
 },
 {
  "name": "웨이스탑(전농점)",
  "address": "서울 동대문구 전농로 129",
  "combination": "수동",
  "lat": 37.576496,
  "lng": 127.05751
 },
 {
  "name": "행운복권방",
  "address": "서울 도봉구 노해로63길 79 우림빌딩 112호",
  "combination": "자동",
  "lat": 37.65308,
  "lng": 127.0463
 },
 {
  "name": "돈벼락맞는곳 부산서면점",
  "address": "부산 부산진구 서전로 18-1 1층",
  "combination": "자동",
  "lat": 35.15759,
  "lng": 129.06168
 },
 {
  "name": "돈벼락복권방",
  "address": "대구 북구 동변로 82-1 1층",
  "combination": "수동",
  "lat": 35.920517,
  "lng": 128.60385
 },
 {
  "name": "복권명당(서부점)",
  "address": "대구 달서구 월배로 452",
  "combination": "자동",
  "lat": 35.833633,
  "lng": 128.55486
 },
 {
  "name": "골든벨 복권판매점",
  "address": "인천 미추홀구 경인로 372 1층 (아인병원 상가 1043호)",
  "combination": "자동",
  "lat": 37.458183,
  "lng": 126.68125
 },
 {
  "name": "복권맛집",
  "address": "경기 포천시 부흥로 409",
  "combination": "자동",
  "lat": 37.805984,
  "lng": 127.15953
 },
 {
  "name": "황금복권판매점",
  "address": "경기 양주시 부흥로 994",
  "combination": "자동",
  "lat": 37.806816,
  "lng": 126.99815
 },
 {
  "name": "로또복권편의점",
  "address": "경기 수원시 권선구 세류로 51 1층",
  "combination": "자동",
  "lat": 37.263878,
  "lng": 127.00759
 },
 {
  "name": "로또복권방",
  "address": "경기 성남시 분당구 대왕판교로 660 1층 136호",
  "combination": "반자동",
  "lat": 37.400684,
  "lng": 127.106964
 },
 {
  "name": "다들복권방",
  "address": "경기 부천시 고리울로 51 고강빌딩1층",
  "combination": "자동",
  "lat": 37.527355,
  "lng": 126.8216
 },
 {
  "name": "오남 로또택배",
  "address": "경기 남양주시 진건오남로 814 B동 1층 5호",
  "combination": "자동",
  "lat": 37.69933,
  "lng": 127.20243
 },
 {
  "name": "지바",
  "address": "경기 광명시 금당로 36 1층 118호",
  "combination": "자동",
  "lat": 37.45919,
  "lng": 126.88237
 },
 {
  "name": "대관령복권방",
  "address": "강원 평창군 대관령로 74-4 1층 B호",
  "combination": "자동",
  "lat": 37.6732,
  "lng": 128.70439
 },
 {
  "name": "복권나라",
  "address": "전북 군산시 번영로 891",
  "combination": "자동",
  "lat": 35.94672,
  "lng": 126.81039
 },
 {
  "name": "필승로또복권판매점",
  "address": "경북 상주시 왕산로 349 1층",
  "combination": "자동",
  "lat": 36.42096,
  "lng": 128.16156
 },
 {
  "name": "복권판매점",
  "address": "경남 고성군 남포로 62 2동 101호(덕성아파트)",
  "combination": "자동",
  "lat": 34.968727,
  "lng": 128.32092
 }
]