[
 {
  "name": "스파",
  "address": "서울 노원구 동일로 1493 주공10단지종합상가111",
  "combination": "반자동",
  "lat": 37.66167,
  "lng": 127.05789
 },
 {
  "name": "서재강변로또",
  "address": "대구 달성군 서재로 172",
  "combination": "자동",
  "lat": 35.878708,
  "lng": 128.49748
 },
 {
  "name": "황금복권방",
  "address": "인천 연수구 컨벤시아대로 81 송도동 드림시티 113-2호",
  "combination": "자동",
  "lat": 37.394943,
  "lng": 126.65016
 },
 {
  "name": "우리복권",
  "address": "인천 남동구 논고개로123번길 17 109호",
  "combination": "자동",
  "lat": 37.401684,
  "lng": 126.72308
 },
 {
  "name": "또로또",
  "address": "울산 남구 신정로68번길 47 1층 신화부동산",
  "combination": "자동",
  "lat": 35.53926,
  "lng": 129.3261
 },
 {
  "name": "봉담복자리복권과편의점",
  "address": "경기 화성시 삼천병마로 1276",
  "combination": "수동",
  "lat": 37.219654,
  "lng": 126.94878
 },
 {
  "name": "황금복권마트",
  "address": "경기 이천시 증신로325번길 5 1층",
  "combination": "자동",
  "lat": 37.299416,
  "lng": 127.43798
 },
 {
  "name": "도원로또방",
  "address": "경기 시흥시 은계중앙로 65 상가동 제1층 제1호",
  "combination": "수동",
  "lat": 37.43513,
  "lng": 126.80098
 },
 {
  "name": "한아름 복권",
  "address": "경기 김포시 장차로 19 102호",
  "combination": "자동",
  "lat": 37.60372,
  "lng": 126.77057
 },
 {
  "name": "바다 복권판매점",
  "address": "충북 청주시 청원구 직지대로 855",
  "combination": "자동",
  "lat": 36.649757,
  "lng": 127.48512
 },
 {
  "name": "세븐복권",
  "address": "충북 증평군 초중6길 19 1층(세븐일레븐 내)",
  "combination": "자동",
  "lat": 36.776863,
  "lng": 127.569046
 },
 {
  "name": "로또 계룡에스파",
  "address": "충남 계룡시 대실남북3길 16 계룡 한라비발디센트럴 상가 5호",
  "combination": "반자동",
  "lat": 36.265476,
  "lng": 127.25871
 },
 {
  "name": "로또복권보성점",
  "address": "경북 포항시 북구 용흥로 126 보성아파트상가101호",
  "combination": "자동",
  "lat": 36.039135,
  "lng": 129.3482
 },
 {
  "name": "로또명당",
  "address": "경북 의성군 중앙길 10-1 1층",
  "combination": "자동",
  "lat": 36.345303,
  "lng": 128.69849
 }
]