[
 {
  "name": "인터넷 복권판매사이트",
  "address": "동행복권(dhlottery.co.kr)",
  "combination": "자동",
  "lat": 37.482063,
  "lng": 127.015785
 },
 {
  "name": "인터넷 복권판매사이트",
  "address": "동행복권(dhlottery.co.kr)",
  "combination": "자동",
  "lat": 37.482063,
  "lng": 127.015785
 },
 {
  "name": "가판대",
  "address": "서울 도봉구 마들로 859-19 도봉산역 1번출구앞 가판대",
  "combination": "자동",
  "lat": 37.68569,
  "lng": 127.04937
 },
 {
  "name": "로또복권",
  "address": "부산 사하구 낙동대로 327-1 1층복권방",
  "combination": "자동",
  "lat": 35.10004,
  "lng": 128.98119
 },
 {
  "name": "럭키",
  "address": "부산 북구 시랑로 137",
  "combination": "자동",
  "lat": 35.19547,
  "lng": 129.01039
 },
 {
  "name": "메트로센터점",
  "address": "대구 중구 달구벌대로 지하 2100 메트로센터C412호",
  "combination": "자동",
  "lat": 35.86501,
  "lng": 128.59372
 },
 {
  "name": "일등복권편의점",
  "address": "대구 달서구 대명천로 220 1층",
  "combination": "자동",
  "lat": 35.842205,
  "lng": 128.5362
 },
 {
  "name": "한마음병원앞버스매표소",
  "address": "인천 계양구 계양대로 53",
  "combination": "자동",
  "lat": 37.52858,
  "lng": 126.72211
 },
 {
  "name": "한꿈복권방",
  "address": "울산 중구 번영로 586",
  "combination": "자동",
  "lat": 35.56877,
  "lng": 129.34587
 },
 {
  "name": "하남시청 세븐일레븐 로또",
  "address": "경기 하남시 대청로 15 103호 세븐일레븐 편의점",
  "combination": "자동",
  "lat": 37.54058,
  "lng": 127.21392
 },
 {
  "name": "씨유 팽성공원",
  "address": "경기 평택시 안정순환로 275 1층 CU편의점 내",
  "combination": "수동",
  "lat": 36.95931,
  "lng": 127.05164
 },
 {
  "name": "대운상사",
  "address": "경기 남양주시 장현로 178 장현리 229-4외 1필지 주2동 106호",
  "combination": "자동",
  "lat": 37.723408,
  "lng": 127.18993
 },
 {
  "name": "행운로또방",
  "address": "강원 화천군 상승로 46 1층",
  "combination": "자동",
  "lat": 38.104862,
  "lng": 127.70453
 },
 {
  "name": "로또판매점",
  "address": "충북 음성군 신내로 443 거성모터스 1층",
  "combination": "수동",
  "lat": 36.976543,
  "lng": 127.52929
 },
 {
  "name": "행운드림복권",
  "address": "경북 안동시 경동로 465",
  "combination": "수동",
  "lat": 36.567177,
  "lng": 128.70996
 },
 {
  "name": "황금로또명당",
  "address": "경남 양산시 덕계로 101",
  "combination": "수동",
  "lat": 35.376335,
  "lng": 129.15309
 }
]