[
 {
  "name": "현대비디오",
  "address": "서울 동대문구 장한로25길 45",
  "combination": "자동",
  "lat": 37.571854,
  "lng": 127.06866
 },
 {
  "name": "가로판매점",
  "address": "서울 관악구 과천대로 955",
  "combination": "자동",
  "lat": 37.475956,
  "lng": 126.98117
 },
 {
  "name": "삼정그린환경",
  "address": "서울 강동구 양재대로 1355 오스카상가136호",
  "combination": "자동",
  "lat": 37.527393,
  "lng": 127.13561
 },
 {
  "name": "돈벼락 로또 판매점",
  "address": "서울 강동구 천호대로159길 43 1층",
  "combination": "자동",
  "lat": 37.53945,
  "lng": 127.12804
 },
 {
  "name": "돈벼락맞는곳",
  "address": "부산 동구 조방로49번길 18-1",
  "combination": "자동",
  "lat": 35.13916,
  "lng": 129.05994
 },
 {
  "name": "드림마트",
  "address": "인천 미추홀구 인하로 211",
  "combination": "자동",
  "lat": 37.44875,
  "lng": 126.67145
 },
 {
  "name": "복권전문점",
  "address": "대전 유성구 유성대로694번길 84",
  "combination": "수동",
  "lat": 36.35407,
  "lng": 127.33617
 },
 {
  "name": "복권명당(대청점)",
  "address": "대전 동구 용운로 67",
  "combination": "자동",
  "lat": 36.32691,
  "lng": 127.45002
 },
 {
  "name": "복권방",
  "address": "울산 울주군 덕남로 87",
  "combination": "자동",
  "lat": 35.42934,
  "lng": 129.30669
 },
 {
  "name": "대박나라",
  "address": "경기 시흥시 함송로 15 111호(정왕동화신프라자)",
  "combination": "반자동",
  "lat": 37.364037,
  "lng": 126.73029
 },
 {
  "name": "한아름복권방(매탄점)",
  "address": "경기 수원시 영통구 권선로 808",
  "combination": "자동",
  "lat": 37.255314,
  "lng": 127.03867
 },
 {
  "name": "돼지꿈복권",
  "address": "경기 고양시 일산서구 덕이로 222-30 1층 105호",
  "combination": "자동",
  "lat": 37.698456,
  "lng": 126.73759
 },
 {
  "name": "비엠복권",
  "address": "충북 청주시 흥덕구 대신로 108",
  "combination": "자동",
  "lat": 36.64259,
  "lng": 127.43547
 },
 {
  "name": "통정로또명당마트",
  "address": "충남 천안시 동남구 통정4로 49 위너타워 맞은편",
  "combination": "자동",
  "lat": 36.774986,
  "lng": 127.13471
 },
 {
  "name": "터미널복권방",
  "address": "전북 정읍시 연지8길 6",
  "combination": "자동",
  "lat": 35.57233,
  "lng": 126.84496
 },
 {
  "name": "구룡포명당",
  "address": "경북 포항시 남구 구룡포길 90-3 1층 (대로변0",
  "combination": "자동",
  "lat": 35.991238,
  "lng": 129.55574
 },
 {
  "name": "로또 휴게",
  "address": "제주 제주시 연삼로 626",
  "combination": "수동",
  "lat": 33.506298,
  "lng": 126.55472
 }
]