[
 {
  "name": "GS25(관악한일)",
  "address": "서울 관악구 남현동  602-11 한일빌딩 1층",
  "combination": "자동",
  "lat": 37.473976,
  "lng": 126.981316
 },
 {
  "name": "-",
  "address": "서울 서초구 서초동  1591-3 탑스벤처빌딩 1층 서초마트내",
  "combination": "자동",
  "lat": 37.48711,
  "lng": 127.01316
 },
 {
  "name": "왕대박로또방",
  "address": "부산 해운대구 좌동  998-7 1층",
  "combination": "자동",
  "lat": 35.160866,
  "lng": 129.15546
 },
 {
  "name": "하나편의점",
  "address": "인천 남동구 구월로 281 세븐일레븐편의점내",
  "combination": "자동",
  "lat": 37.455925,
  "lng": 126.72196
 },
 {
  "name": "예스24",
  "address": "경기 고양시 덕양구 화정동 화정동 977 밀레니엄타워105",
  "combination": "자동",
  "lat": 37.632137,
  "lng": 126.83306
 },
 {
  "name": "로또",
  "address": "경기 김포시 사우동  872 청원프라자 107",
  "combination": "자동",
  "lat": 37.62242,
  "lng": 126.72175
 }
]