[
 {
  "name": "팬레코드",
  "address": "부산 남구 수영로 253",
  "combination": "수동",
  "lat": 35.135506,
  "lng": 129.09416
 },
 {
  "name": "대원슈퍼마켓",
  "address": "부산 수영구 수영로 524",
  "combination": "수동",
  "lat": 35.152473,
  "lng": 129.112
 },
 {
  "name": "선마트로또점",
  "address": "대구 달서구 월성동  275-2    105",
  "combination": "자동",
  "lat": 35.83159,
  "lng": 128.53317
 },
 {
  "name": "GS25(안산팔곡)",
  "address": "경기 안산시 상록구 본오동 본오동 741-5 1층 101",
  "combination": "수동",
  "lat": 37.294895,
  "lng": 126.87601
 },
 {
  "name": "복권나라",
  "address": "충북 청주시 청원구 율봉로176번길 8-2",
  "combination": "자동",
  "lat": 36.668503,
  "lng": 127.488235
 },
 {
  "name": "로터리편의마트",
  "address": "경북 포항시 북구 서동로 85 육거리",
  "combination": "자동",
  "lat": 36.040768,
  "lng": 129.36725
 }
]