[
 {
  "name": "Yes할인마트",
  "address": "서울 강남구 개포로 202 1층 이마트 24",
  "combination": "자동",
  "lat": 37.478157,
  "lng": 127.04497
 },
 {
  "name": "대창",
  "address": "서울 강동구 상암로 211 1층",
  "combination": "자동",
  "lat": 37.546654,
  "lng": 127.14613
 },
 {
  "name": "오거리마트",
  "address": "서울 은평구 응암로14길 6,(응암동)",
  "combination": "수동",
  "lat": 37.590076,
  "lng": 126.9179
 },
 {
  "name": "훼밀리복권",
  "address": "부산 금정구 중앙대로1719번길 37 우측 복권판매점",
  "combination": "자동",
  "lat": 35.237713,
  "lng": 129.09015
 },
 {
  "name": "청솔서점",
  "address": "부산 사하구 하신번영로 195",
  "combination": "자동",
  "lat": 35.098824,
  "lng": 128.95897
 },
 {
  "name": "승리 로또당리점",
  "address": "부산 사하구 당리동  324-19",
  "combination": "수동",
  "lat": 35.096386,
  "lng": 128.994
 },
 {
  "name": "복권명당",
  "address": "대구 동구 효동로 45,(효목동)",
  "combination": "자동",
  "lat": 35.881493,
  "lng": 128.6462
 },
 {
  "name": "대박복권방",
  "address": "울산 동구 진성8길 133",
  "combination": "수동",
  "lat": 35.511425,
  "lng": 129.42975
 },
 {
  "name": "로또판매업",
  "address": "경남 양산시 북정로 31 CU편의점 내",
  "combination": "수동",
  "lat": 35.35902,
  "lng": 129.04372
 }
]