[
 {
  "name": "로또잭팟",
  "address": "서울 관악구 신림동  727-5",
  "combination": "자동",
  "lat": 37.474384,
  "lng": 126.9164
 },
 {
  "name": "신수칼라",
  "address": "서울 마포구 동교로27길 53",
  "combination": "자동",
  "lat": 37.56015,
  "lng": 126.92083
 },
 {
  "name": "GS25(양재공원)",
  "address": "서울 서초구 양재동  321-2",
  "combination": "자동",
  "lat": 37.47102,
  "lng": 127.04134
 },
 {
  "name": "원스탑",
  "address": "서울 송파구 백제고분로7길 39",
  "combination": "자동",
  "lat": 37.510902,
  "lng": 127.08321
 },
 {
  "name": "조이풀이삭토스트",
  "address": "부산 동래구 중앙대로 1520 북쪽출구 빵집",
  "combination": "자동",
  "lat": 35.213894,
  "lng": 129.08134
 },
 {
  "name": "㈜ Cspace 중앙제일점",
  "address": "부산 중구 동광동3가  17-2",
  "combination": "수동",
  "lat": 35.10116,
  "lng": 129.03479
 },
 {
  "name": "대광슈퍼",
  "address": "경기 군포시 고산로 679 미성프라자106호",
  "combination": "수동",
  "lat": 37.371067,
  "lng": 126.93395
 },
 {
  "name": "로또판매점",
  "address": "경기 안산시 상록구 안산천동로1길 29 현대2차아파트상가18호",
  "combination": "자동",
  "lat": 37.330612,
  "lng": 126.848595
 },
 {
  "name": "신봤다대박복권방",
  "address": "경기 안산시 상록구 본오동 본오동 882-2  1층 우측상가",
  "combination": "자동",
  "lat": 37.29337,
  "lng": 126.861465
 },
 {
  "name": "행운복권방",
  "address": "경기 포천시 솔모루로 86-1",
  "combination": "자동",
  "lat": 37.8288,
  "lng": 127.14748
 },
 {
  "name": "원동슈퍼",
  "address": "충남 보령시 대천로 28",
  "combination": "자동",
  "lat": 36.35113,
  "lng": 126.59745
 },
 {
  "name": "명성복권방",
  "address": "전남 순천시 기적의도서관길 25 명성복권방",
  "combination": "자동",
  "lat": 34.948273,
  "lng": 127.52518
 },
 {
  "name": "훼미리마트(구미사곡)",
  "address": "경북 구미시 사곡동  481-7",
  "combination": "수동",
  "lat": 36.098217,
  "lng": 128.35858
 }
]