[
 {
  "name": "세계주류백화점",
  "address": "서울 성동구 금호동4가  614번지",
  "combination": "수동",
  "lat": 37.55358,
  "lng": 127.01957
 },
 {
  "name": "버스판매소",
  "address": "서울 영등포구 영중로 2 1층(영등포동3가)",
  "combination": "수동",
  "lat": 37.516743,
  "lng": 126.906746
 },
 {
  "name": "도로가판집",
  "address": "서울 용산구 한강대로 55",
  "combination": "자동",
  "lat": 37.5259,
  "lng": 126.96439
 },
 {
  "name": "로또복권",
  "address": "서울 중구 을지로2가  157 가판대98호",
  "combination": "자동",
  "lat": 37.565742,
  "lng": 126.98729
 },
 {
  "name": "정원상회",
  "address": "부산 남구 대연2동  1757-2",
  "combination": "자동",
  "lat": 35.13446,
  "lng": 129.08789
 },
 {
  "name": "대동슈퍼",
  "address": "인천 남동구 만수로 81",
  "combination": "수동",
  "lat": 37.46275,
  "lng": 126.73616
 },
 {
  "name": "훼미리마트(일산동문)",
  "address": "경기 고양시 일산서구 일산동 일산동 957-3",
  "combination": "수동",
  "lat": 37.685947,
  "lng": 126.76501
 },
 {
  "name": "대성식품",
  "address": "경기 수원시 팔달구 교동 교동 90-7",
  "combination": "수동",
  "lat": 37.272495,
  "lng": 127.01505
 },
 {
  "name": "한아름알뜰매장",
  "address": "경기 안산시 단원구 화정천서로5길 38",
  "combination": "수동",
  "lat": 37.345257,
  "lng": 126.81658
 },
 {
  "name": "복권방",
  "address": "경기 평택시 평택항로 1-6 1층 개그스토리편의점",
  "combination": "수동",
  "lat": 36.961807,
  "lng": 126.85373
 },
 {
  "name": "동부매점",
  "address": "강원 강릉시 홍제동  992-2 고속버스터미널 동부매점",
  "combination": "수동",
  "lat": 37.754555,
  "lng": 128.88014
 },
 {
  "name": "봉의산마트",
  "address": "강원 춘천시 춘천로 326 1층",
  "combination": "수동",
  "lat": 37.88261,
  "lng": 127.74867
 },
 {
  "name": "복권나라",
  "address": "충북 청주시 청원구 율봉로176번길 8-2",
  "combination": "자동",
  "lat": 36.668503,
  "lng": 127.488235
 },
 {
  "name": "덕산24시슈퍼",
  "address": "경남 창원시 진해구 충장로 505",
  "combination": "자동",
  "lat": 35.1442,
  "lng": 128.70134
 }
]