[
 {
  "name": "교통카드판매대",
  "address": "서울 강동구 성내동  56-14 동인의원앞",
  "combination": "자동",
  "lat": 37.54225,
  "lng": 127.13089
 },
 {
  "name": "경남마트",
  "address": "서울 구로구 고척로52길 21 경남상가201호",
  "combination": "자동",
  "lat": 37.50424,
  "lng": 126.85668
 },
 {
  "name": "오케이상사",
  "address": "서울 서초구 신반포로 176 센트럴시티내100호매점",
  "combination": "자동",
  "lat": 37.504353,
  "lng": 127.00359
 },
 {
  "name": "라이프25복권",
  "address": "인천 부평구 산곡동  181-69 외1필지 1층",
  "combination": "자동",
  "lat": 37.518158,
  "lng": 126.74386
 },
 {
  "name": "터미널 편의점 1층",
  "address": "경기 수원시 권선구 권선동 권선동 1189 수원복합터미널 1301",
  "combination": "자동",
  "lat": 37.25043,
  "lng": 127.02087
 },
 {
  "name": "복권천국",
  "address": "경남 양산시 중주동  693-2",
  "combination": "자동",
  "lat": 35.33519,
  "lng": 129.02783
 }
]