[
 {
  "name": "노다지 복권방",
  "address": "서울 도봉구 도봉동  623-1",
  "combination": "수동",
  "lat": 37.672604,
  "lng": 127.04473
 },
 {
  "name": "행운복권",
  "address": "부산 남구 석포로 132",
  "combination": "자동",
  "lat": 35.1288,
  "lng": 129.09175
 },
 {
  "name": "풍전수퍼",
  "address": "경기 부천시 조마루로 428,(원미동)",
  "combination": "자동",
  "lat": 37.49708,
  "lng": 126.79113
 },
 {
  "name": "운수대통",
  "address": "경기 수원시 권선구 매실로 73",
  "combination": "수동",
  "lat": 37.269012,
  "lng": 126.95872
 },
 {
  "name": "엠에스 슈퍼",
  "address": "경기 안산시 단원구 와동 와동 713-2",
  "combination": "수동",
  "lat": 37.33758,
  "lng": 126.82831
 },
 {
  "name": "복권방",
  "address": "충북 청주시 흥덕구 송화로166번길 14 편의점",
  "combination": "수동",
  "lat": 36.665695,
  "lng": 127.45193
 },
 {
  "name": "대원로또판매점",
  "address": "경북 고령군 고령읍 지산리 지산리 3-1번지",
  "combination": "수동",
  "lat": 35.727325,
  "lng": 128.26604
 },
 {
  "name": "훼미리마트 상도점",
  "address": "경북 포항시 남구 문예로 68 우측상가",
  "combination": "자동",
  "lat": 36.013435,
  "lng": 129.36417
 }
]