[
 {
  "name": "로또복권판매소",
  "address": "서울 구로구 디지털로27길 90",
  "combination": "자동",
  "lat": 37.48446,
  "lng": 126.88917
 },
 {
  "name": "부일카서비스",
  "address": "부산 동구 자성로133번길 35",
  "combination": "자동",
  "lat": 35.140015,
  "lng": 129.06306
 },
 {
  "name": "쿨복권방",
  "address": "대구 달서구 대명천로 220 1층",
  "combination": "수동",
  "lat": 35.84214,
  "lng": 128.53621
 },
 {
  "name": "로또복권",
  "address": "대구 동구 아양로 294 1층",
  "combination": "자동",
  "lat": 35.88992,
  "lng": 128.6426
 },
 {
  "name": "로또복권신매체인점",
  "address": "대구 수성구 달구벌대로 3233 신매동 효성백년가약상가 401동7호",
  "combination": "수동",
  "lat": 35.8391,
  "lng": 128.71039
 },
 {
  "name": "풍향동복권나라",
  "address": "광주 북구 필문대로 79",
  "combination": "자동",
  "lat": 35.162693,
  "lng": 126.92831
 },
 {
  "name": "오렌지25",
  "address": "경기 고양시 일산서구 고봉로 291 양우에이스스타디움109",
  "combination": "자동",
  "lat": 37.68528,
  "lng": 126.777145
 },
 {
  "name": "일록로또복권방",
  "address": "경기 수원시 장안구 파장로 70 임채순베이커리",
  "combination": "수동",
  "lat": 37.306053,
  "lng": 126.99316
 },
 {
  "name": "일록로또복권방",
  "address": "경기 수원시 장안구 파장로 70 임채순베이커리",
  "combination": "수동",
  "lat": 37.306053,
  "lng": 126.99316
 },
 {
  "name": "행운방",
  "address": "경기 용인시 기흥구 보정동 1804-4엔림프라자101호",
  "combination": "자동",
  "lat": 37.320713,
  "lng": 127.115105
 },
 {
  "name": "천하명당 복권방",
  "address": "경남 거제시 옥포성안로 60",
  "combination": "자동",
  "lat": 34.891693,
  "lng": 128.69492
 },
 {
  "name": "훼미리마트함양한주점",
  "address": "경남 함양군 고운로 80-1",
  "combination": "자동",
  "lat": 35.520874,
  "lng": 127.73024
 }
]