[
 {
  "name": "다모아복권방",
  "address": "서울 구로구 서해안로30길 13-7 1층",
  "combination": "자동",
  "lat": 37.4933,
  "lng": 126.844315
 },
 {
  "name": "가판",
  "address": "서울 마포구 마포대로 58 가든호텔정문옆가판",
  "combination": "수동",
  "lat": 37.540684,
  "lng": 126.94833
 },
 {
  "name": "복권나라",
  "address": "서울 성동구 용답중앙15길 12-1 1층",
  "combination": "자동",
  "lat": 37.56443,
  "lng": 127.05383
 },
 {
  "name": "잠실매점",
  "address": "서울 송파구 올림픽로 269 잠실역 8번출구 앞 가판",
  "combination": "자동",
  "lat": 37.514446,
  "lng": 127.10071
 },
 {
  "name": "1001안경콘텍트",
  "address": "서울 양천구 신월4동  517-4",
  "combination": "수동",
  "lat": 37.521046,
  "lng": 126.83872
 },
 {
  "name": "장흥로또",
  "address": "전남 장흥군 장흥읍 건산리 건산리 722-1",
  "combination": "수동",
  "lat": 34.67984,
  "lng": 126.90773
 }
]