[
 {
  "name": "신명",
  "address": "서울 강서구 방화동로3길 1",
  "combination": "자동",
  "lat": 37.562435,
  "lng": 126.80841
 },
 {
  "name": "경성식품",
  "address": "서울 동대문구 망우로21길 52",
  "combination": "자동",
  "lat": 37.590435,
  "lng": 127.06028
 },
 {
  "name": "부일카서비스",
  "address": "부산 동구 자성로133번길 35",
  "combination": "자동",
  "lat": 35.140015,
  "lng": 129.06306
 },
 {
  "name": "꿈의나라",
  "address": "부산 동래구 명륜동  533-49",
  "combination": "수동",
  "lat": 35.205193,
  "lng": 129.07956
 },
 {
  "name": "복권명당",
  "address": "대구 수성구 천을로 180 동서1차아파트상가108-112호",
  "combination": "자동",
  "lat": 35.842495,
  "lng": 128.71007
 },
 {
  "name": "미니슈퍼",
  "address": "인천 남동구 호구포로 874",
  "combination": "자동",
  "lat": 37.460365,
  "lng": 126.720314
 },
 {
  "name": "로또복권벽산블루밍",
  "address": "대전 서구 갈마로 262",
  "combination": "자동",
  "lat": 36.33321,
  "lng": 127.38101
 },
 {
  "name": "복권왕국",
  "address": "대전 서구 동서대로1047번길 2",
  "combination": "자동",
  "lat": 36.330875,
  "lng": 127.37787
 },
 {
  "name": "행운방",
  "address": "경기 용인시 기흥구 보정동 1804-4엔림프라자101호",
  "combination": "자동",
  "lat": 37.320713,
  "lng": 127.115105
 },
 {
  "name": "로또복권",
  "address": "경기 의정부시 장암동  20-9",
  "combination": "수동",
  "lat": 37.726334,
  "lng": 127.05454
 },
 {
  "name": "홈짱",
  "address": "충북 청주시 흥덕구 서경로28번길 19 휴대폰매장내",
  "combination": "자동",
  "lat": 36.617184,
  "lng": 127.44338
 }
]