[
 {
  "name": "가로매로또",
  "address": "서울 관악구 신림동  1640-5",
  "combination": "자동",
  "lat": 37.483337,
  "lng": 126.929405
 },
 {
  "name": "우선식품",
  "address": "서울 영등포구 도신로 231-2",
  "combination": "자동",
  "lat": 37.512466,
  "lng": 126.91666
 },
 {
  "name": "인생역전복권방",
  "address": "인천 부평구 청천2동  10-17상가1층",
  "combination": "자동",
  "lat": 37.518665,
  "lng": 126.7047
 },
 {
  "name": "형제상회",
  "address": "대전 서구 계룡로 664-1,(용문동)",
  "combination": "자동",
  "lat": 36.336784,
  "lng": 127.39472
 },
 {
  "name": "로또판매점",
  "address": "경기 고양시 일산동구 장항동 752삼성메르헨상가102-2",
  "combination": "자동",
  "lat": 37.660133,
  "lng": 126.76643
 },
 {
  "name": "아이리스",
  "address": "경기 고양시 일산동구 백석동 백석동 1232 일산병원 지하 1층",
  "combination": "자동",
  "lat": 37.645493,
  "lng": 126.793015
 },
 {
  "name": "-",
  "address": "경기 성남시 수정구 수정로 128",
  "combination": "자동",
  "lat": 37.44143,
  "lng": 127.13456
 },
 {
  "name": "GS25(익산부송)",
  "address": "전북 익산시 부송동  235-7",
  "combination": "자동",
  "lat": 35.95814,
  "lng": 126.99704
 }
]