[
 {
  "name": "신화복권방",
  "address": "서울 강동구 길동  347-61",
  "combination": "수동",
  "lat": 37.542053,
  "lng": 127.14185
 },
 {
  "name": "한솔사",
  "address": "인천 미추홀구 경인로 384 1층 1호",
  "combination": "자동",
  "lat": 37.45807,
  "lng": 126.68257
 },
 {
  "name": "1등로또복권",
  "address": "광주 서구 무진대로 904 광주종합터미널 내 영풍문고 앞",
  "combination": "자동",
  "lat": 35.160297,
  "lng": 126.88015
 },
 {
  "name": "로또복권방",
  "address": "대전 서구 갈마중로 28,(갈마동)",
  "combination": "수동",
  "lat": 36.347527,
  "lng": 127.37245
 },
 {
  "name": "로또복권",
  "address": "울산 울주군 해맞이로 1578",
  "combination": "수동",
  "lat": 35.382607,
  "lng": 129.34232
 },
 {
  "name": "제일복권",
  "address": "강원 춘천시 중앙로 45 스탠다드차타드은행앞 가판",
  "combination": "자동",
  "lat": 37.880833,
  "lng": 127.72832
 },
 {
  "name": "참깨열쇠.복권",
  "address": "전북 전주시 완산구 용리로 43 1층",
  "combination": "자동",
  "lat": 35.798843,
  "lng": 127.11466
 },
 {
  "name": "로또",
  "address": "경남 고성군 고성읍 동외로167번길 11",
  "combination": "수동",
  "lat": 34.97608,
  "lng": 128.3255
 }
]