[
 {
  "name": "GS25(삼성역)",
  "address": "서울 강남구 삼성동  168번지",
  "combination": "수동",
  "lat": 37.510536,
  "lng": 127.06286
 },
 {
  "name": "뉴골드나라",
  "address": "서울 광진구 광나루로 521",
  "combination": "수동",
  "lat": 37.545128,
  "lng": 127.08744
 },
 {
  "name": "주택복권사랑방",
  "address": "서울 구로구 경인로53길 15 중앙유통지하B55-02호",
  "combination": "자동",
  "lat": 37.500893,
  "lng": 126.874565
 },
 {
  "name": "구포라인점",
  "address": "부산 북구 구포동  700-148",
  "combination": "수동",
  "lat": 35.202557,
  "lng": 129.00429
 },
 {
  "name": "스파편의점",
  "address": "부산 사상구 가야대로 288 창조상가106호",
  "combination": "수동",
  "lat": 35.15001,
  "lng": 129.00414
 },
 {
  "name": "동인마트",
  "address": "대구 중구 태평로 266",
  "combination": "수동",
  "lat": 35.87241,
  "lng": 128.60635
 },
 {
  "name": "로또복권방",
  "address": "인천 동구 송현동  67-78",
  "combination": "수동",
  "lat": 37.478172,
  "lng": 126.63461
 },
 {
  "name": "용두천하",
  "address": "광주 북구 하서로 373",
  "combination": "수동",
  "lat": 35.20835,
  "lng": 126.87351
 },
 {
  "name": "대한복권",
  "address": "경기 부천시 부천로 52",
  "combination": "자동",
  "lat": 37.489605,
  "lng": 126.7842
 },
 {
  "name": "대호상사",
  "address": "경기 성남시 분당구 야탑동 355-1세화2001빌딩107",
  "combination": "수동",
  "lat": 37.411163,
  "lng": 127.12681
 },
 {
  "name": "성광복권방",
  "address": "경기 수원시 팔달구 인계동 인계동 968",
  "combination": "수동",
  "lat": 37.27159,
  "lng": 127.02644
 },
 {
  "name": "119복권방",
  "address": "경기 안양시 만안구 안양2동 823-15",
  "combination": "수동",
  "lat": 37.40586,
  "lng": 126.911835
 },
 {
  "name": "진안로또",
  "address": "전북 진안군 진안읍 군상리 군상리 403-102",
  "combination": "자동",
  "lat": 35.791924,
  "lng": 127.42988
 },
 {
  "name": "북마산복권전문점",
  "address": "경남 창원시 마산합포구 북성로 98",
  "combination": "수동",
  "lat": 35.215973,
  "lng": 128.5708
 },
 {
  "name": "GS25(서귀중문)",
  "address": "제주 서귀포시 천제연로 210",
  "combination": "수동",
  "lat": 33.25145,
  "lng": 126.42701
 }
]