[
 {
  "name": "천하명당복권방화곡점",
  "address": "서울 강서구 화곡동  836-4",
  "combination": "자동",
  "lat": 37.532097,
  "lng": 126.85771
 },
 {
  "name": "행운복권방",
  "address": "서울 강서구 화곡동  1068-32",
  "combination": "자동",
  "lat": 37.540215,
  "lng": 126.83419
 },
 {
  "name": "해태24시",
  "address": "서울 양천구 곰달래로 11 1층 2호",
  "combination": "자동",
  "lat": 37.529907,
  "lng": 126.83391
 },
 {
  "name": "부일카서비스",
  "address": "부산 동구 자성로133번길 35",
  "combination": "자동",
  "lat": 35.140015,
  "lng": 129.06306
 },
 {
  "name": "보람복권방",
  "address": "울산 남구 화합로 194 18-1",
  "combination": "자동",
  "lat": 35.541786,
  "lng": 129.34166
 },
 {
  "name": "GS25(안산산호)",
  "address": "경기 안산시 단원구 선부동 1081산호한양상가101호",
  "combination": "자동",
  "lat": 37.336678,
  "lng": 126.81326
 },
 {
  "name": "대박복권방",
  "address": "경기 연천군 전곡읍 온골로 57-1,(전곡리)",
  "combination": "자동",
  "lat": 38.02602,
  "lng": 127.06766
 },
 {
  "name": "다솜방제과슈퍼",
  "address": "경남 진주시 진주대로 883 1층",
  "combination": "자동",
  "lat": 35.17919,
  "lng": 128.09067
 }
]