[
 {
  "name": "럭키슈퍼",
  "address": "서울 용산구 후암로 52",
  "combination": "수동",
  "lat": 37.550594,
  "lng": 126.97736
 },
 {
  "name": "왕대박",
  "address": "부산 동래구 여고로113번길 59-4",
  "combination": "수동",
  "lat": 35.201073,
  "lng": 129.0741
 },
 {
  "name": "훼미리마트관음점",
  "address": "대구 북구 칠곡중앙대로 475",
  "combination": "수동",
  "lat": 35.938194,
  "lng": 128.54906
 },
 {
  "name": "버스매표소",
  "address": "인천 부평구 부평대로 3 가판",
  "combination": "수동",
  "lat": 37.49181,
  "lng": 126.722725
 },
 {
  "name": "훼미리마트(광주우산점)",
  "address": "광주 광산구 우산동  1573-1",
  "combination": "자동",
  "lat": 35.163925,
  "lng": 126.802605
 },
 {
  "name": "태안로또복권방",
  "address": "충남 태안군 독샘로 57",
  "combination": "자동",
  "lat": 36.75318,
  "lng": 126.29935
 }
]