[
 {
  "name": "서울구가-17가판",
  "address": "서울 구로구 구로동로 130-2 구로4동우체국앞가판",
  "combination": "자동",
  "lat": 37.490326,
  "lng": 126.88439
 },
 {
  "name": "-",
  "address": "서울 서초구 방배동  765-28",
  "combination": "수동",
  "lat": 37.493843,
  "lng": 126.98309
 },
 {
  "name": "로또하우스",
  "address": "서울 양천구 목동  907-10현대파리지앙107호",
  "combination": "자동",
  "lat": 37.536663,
  "lng": 126.87982
 },
 {
  "name": "갑부복권",
  "address": "서울 용산구 한남동  631-5",
  "combination": "자동",
  "lat": 37.53211,
  "lng": 127.005646
 },
 {
  "name": "로또복권방",
  "address": "인천 서구 신현로 44 1층102호",
  "combination": "자동",
  "lat": 37.51731,
  "lng": 126.67237
 },
 {
  "name": "안산삼성홈플러스로또복권판매점",
  "address": "경기 안산시 단원구 광덕대로 175 홈플러스 내 1층",
  "combination": "자동",
  "lat": 37.311886,
  "lng": 126.828896
 },
 {
  "name": "범계가판",
  "address": "경기 안양시 동안구 호계동 호계동 1039희망공원가판대",
  "combination": "자동",
  "lat": 37.390217,
  "lng": 126.95044
 },
 {
  "name": "돈벼락복권방",
  "address": "충남 아산시 서해로 654",
  "combination": "자동",
  "lat": 36.88196,
  "lng": 126.91078
 },
 {
  "name": "신나라레코드",
  "address": "전남 여수시 망마로 107",
  "combination": "수동",
  "lat": 34.757214,
  "lng": 127.67405
 }
]