[
 {
  "name": "경성식품",
  "address": "서울 동대문구 망우로21길 52",
  "combination": "자동",
  "lat": 37.590435,
  "lng": 127.06028
 },
 {
  "name": "회현역7번출구신세계백화점아웃백옆",
  "address": "서울 중구 회현동1가  194-3login25편의점내",
  "combination": "자동",
  "lat": 37.56713,
  "lng": 126.980316
 },
 {
  "name": "로또복권문수점",
  "address": "울산 남구 무거동  1195",
  "combination": "자동",
  "lat": 35.551674,
  "lng": 129.27457
 },
 {
  "name": "온천로또복권",
  "address": "충남 예산군 덕산면  사동리 15덕산온천관광호텔매점",
  "combination": "자동",
  "lat": 36.689205,
  "lng": 126.65954
 },
 {
  "name": "흥건슈퍼",
  "address": "전북 전주시 완산구 거마평로 25 흥건1차아파트상가 흥건슈퍼",
  "combination": "자동",
  "lat": 35.794403,
  "lng": 127.11578
 },
 {
  "name": "대동도기상사",
  "address": "경북 영천시 금완로 30",
  "combination": "자동",
  "lat": 35.960327,
  "lng": 128.93187
 }
]