[
 {
  "name": "버스토큰판매소",
  "address": "서울 구로구 경인로 323",
  "combination": "자동",
  "lat": 37.497646,
  "lng": 126.85616
 },
 {
  "name": "신정마트",
  "address": "서울 양천구 신목로 70-1 신통빌딩 1층",
  "combination": "자동",
  "lat": 37.521122,
  "lng": 126.87375
 },
 {
  "name": "조일상회",
  "address": "부산 동래구 명륜1동  529-3",
  "combination": "자동",
  "lat": 35.20344,
  "lng": 129.07982
 },
 {
  "name": "공원복권방",
  "address": "울산 남구 대학로 60 제에이동 1층 가운데",
  "combination": "자동",
  "lat": 35.54068,
  "lng": 129.25827
 },
 {
  "name": "우리들공업탑점",
  "address": "울산 남구 수암로 21",
  "combination": "자동",
  "lat": 35.532272,
  "lng": 129.3106
 },
 {
  "name": "복권나라",
  "address": "강원 원주시 원일로 219 1층",
  "combination": "자동",
  "lat": 37.355988,
  "lng": 127.94392
 },
 {
  "name": "하나로슈퍼",
  "address": "충남 보령시 주공로 65",
  "combination": "자동",
  "lat": 36.34183,
  "lng": 126.60737
 },
 {
  "name": "대흥당",
  "address": "전북 정읍시 관통로 102",
  "combination": "수동",
  "lat": 35.558918,
  "lng": 126.85565
 }
]