[
 {
  "name": "셀프카메라",
  "address": "부산 부산진구 가야대로443번길 30",
  "combination": "자동",
  "lat": 35.154446,
  "lng": 129.02167
 },
 {
  "name": "대림서점",
  "address": "대구 남구 중앙대로 158 대림서점",
  "combination": "자동",
  "lat": 35.847366,
  "lng": 128.59087
 },
 {
  "name": "천하명당복권",
  "address": "대구 북구 칠곡중앙대로 545,(읍내동)",
  "combination": "수동",
  "lat": 35.94432,
  "lng": 128.55064
 },
 {
  "name": "아이러브복권방",
  "address": "울산 중구 유곡로 19-1",
  "combination": "자동",
  "lat": 35.55638,
  "lng": 129.30725
 },
 {
  "name": "복권명당",
  "address": "경기 용인시 처인구 용문로 142 1층",
  "combination": "수동",
  "lat": 37.23621,
  "lng": 127.20159
 },
 {
  "name": "훼미리마트함양한주점",
  "address": "경남 함양군 고운로 80-1",
  "combination": "자동",
  "lat": 35.520874,
  "lng": 127.73024
 }
]