[
 {
  "name": "노다지복권방",
  "address": "서울 강동구 천호대로170길 47 1층",
  "combination": "수동",
  "lat": 37.53326,
  "lng": 127.132614
 },
 {
  "name": "복권나라",
  "address": "서울 중구 남대문로5가  12-5",
  "combination": "수동",
  "lat": 37.55862,
  "lng": 126.975
 },
 {
  "name": "대성기획",
  "address": "경기 용인시 기흥구 구성로 75-1",
  "combination": "자동",
  "lat": 37.29493,
  "lng": 127.1179
 },
 {
  "name": "대박복권",
  "address": "경기 의왕시 내손동  683-10",
  "combination": "자동",
  "lat": 37.386047,
  "lng": 126.98088
 },
 {
  "name": "올인(allin)",
  "address": "경기 화성시 3.1만세로 1147",
  "combination": "자동",
  "lat": 37.135284,
  "lng": 126.910614
 },
 {
  "name": "반딧불로또",
  "address": "전북 무주군 무주읍 읍내리 읍내리 249-4",
  "combination": "수동",
  "lat": 36.007782,
  "lng": 127.663
 },
 {
  "name": "복권나라",
  "address": "전남 목포시 당가두로14번길 47-1 103호 복권나라",
  "combination": "자동",
  "lat": 34.807583,
  "lng": 126.43719
 },
 {
  "name": "GS25(양산문성)",
  "address": "경남 양산시 평산동  31-5",
  "combination": "수동",
  "lat": 35.384815,
  "lng": 129.15508
 },
 {
  "name": "GS25(양산문성)",
  "address": "경남 양산시 평산동  31-5",
  "combination": "수동",
  "lat": 35.384815,
  "lng": 129.15508
 },
 {
  "name": "GS25(양산문성)",
  "address": "경남 양산시 평산동  31-5",
  "combination": "수동",
  "lat": 35.384815,
  "lng": 129.15508
 },
 {
  "name": "GS25(양산문성)",
  "address": "경남 양산시 평산동  31-5",
  "combination": "수동",
  "lat": 35.384815,
  "lng": 129.15508
 },
 {
  "name": "GS25(양산문성)",
  "address": "경남 양산시 평산동  31-5",
  "combination": "수동",
  "lat": 35.384815,
  "lng": 129.15508
 }
]