[
 {
  "name": "소리창고",
  "address": "서울 강서구 강서로 306",
  "combination": "자동",
  "lat": 37.552868,
  "lng": 126.83675
 },
 {
  "name": "행운복권방",
  "address": "서울 은평구 서오릉로 10,(녹번동)",
  "combination": "자동",
  "lat": 37.602295,
  "lng": 126.92678
 },
 {
  "name": "로또복권방",
  "address": "인천 남구 주안동  238-1리베로빌딩103",
  "combination": "자동",
  "lat": 37.464348,
  "lng": 126.67928
 },
 {
  "name": "굿프랜드로또",
  "address": "경기 고양시 덕양구 주교동 주교동 568-1",
  "combination": "수동",
  "lat": 37.62182,
  "lng": 126.845726
 },
 {
  "name": "희망유통",
  "address": "경기 평택시 평택1로20번길 39 1층 복권방",
  "combination": "자동",
  "lat": 36.99426,
  "lng": 127.08929
 },
 {
  "name": "행운복권방",
  "address": "경기 포천시 솔모루로 86-1",
  "combination": "수동",
  "lat": 37.8288,
  "lng": 127.14748
 }
]