[
 {
  "name": "대성복권방",
  "address": "서울 금천구 독산동  1008-11층대성식품내",
  "combination": "자동",
  "lat": 37.47889,
  "lng": 126.90353
 },
 {
  "name": "광명식품",
  "address": "서울 중구 만리동1가  50-2",
  "combination": "자동",
  "lat": 37.557186,
  "lng": 126.96827
 },
 {
  "name": "가로판매대제18호",
  "address": "서울 중구 소공로 51",
  "combination": "자동",
  "lat": 37.559227,
  "lng": 126.98148
 },
 {
  "name": "복권판매소(서문큰장네거리)",
  "address": "대구 서구 국채보상로 438,(내당동)",
  "combination": "수동",
  "lat": 35.870575,
  "lng": 128.5788
 },
 {
  "name": "종합복권나라",
  "address": "경기 양평군 북한강로 12 1층",
  "combination": "자동",
  "lat": 37.54495,
  "lng": 127.32051
 },
 {
  "name": "로또복권방동백점",
  "address": "경기 용인시 기흥구 동백동 동백동 2205-1월드프라자101서진슈퍼내",
  "combination": "자동",
  "lat": 37.27663,
  "lng": 127.15243
 }
]