[
 {
  "name": "가로판매점",
  "address": "서울 서초구 신반포로 189 한신4차입구",
  "combination": "수동",
  "lat": 37.506565,
  "lng": 127.00488
 },
 {
  "name": "오목미니슈퍼",
  "address": "서울 양천구 신목로 119",
  "combination": "자동",
  "lat": 37.525066,
  "lng": 126.87626
 },
 {
  "name": "빌딩매점",
  "address": "서울 영등포구 신길로 108 남서울아파트상가 13동 103-나호",
  "combination": "자동",
  "lat": 37.500977,
  "lng": 126.90988
 },
 {
  "name": "노다지복권방",
  "address": "부산 해운대구 신반송로 179",
  "combination": "수동",
  "lat": 35.229137,
  "lng": 129.1601
 },
 {
  "name": "따봉복권방",
  "address": "인천 부평구 주부토로 109",
  "combination": "수동",
  "lat": 37.50489,
  "lng": 126.72531
 },
 {
  "name": "욱일슈퍼",
  "address": "인천 부평구 경인로 1144",
  "combination": "자동",
  "lat": 37.484604,
  "lng": 126.746704
 },
 {
  "name": "행운복권",
  "address": "경기 수원시 권선구 권선로 774-1",
  "combination": "수동",
  "lat": 37.256557,
  "lng": 127.03559
 },
 {
  "name": "행운이가득한집",
  "address": "경기 안산시 상록구 건건로 28 동호상가B-14호",
  "combination": "수동",
  "lat": 37.303696,
  "lng": 126.90144
 },
 {
  "name": "서창복권나라",
  "address": "경남 양산시 서창서2길 3",
  "combination": "수동",
  "lat": 35.416225,
  "lng": 129.17226
 }
]