[
 {
  "name": "대박로또",
  "address": "서울 영등포구 영등포로53길  17 1층 (영등포동2가)",
  "combination": "자동",
  "lat": 37.51938,
  "lng": 126.90869
 },
 {
  "name": "신간판",
  "address": "서울 중구 무교로 24",
  "combination": "자동",
  "lat": 37.568092,
  "lng": 126.979454
 },
 {
  "name": "김영로또",
  "address": "인천 옹진군 영흥북로 3 105호",
  "combination": "수동",
  "lat": 37.25634,
  "lng": 126.49667
 },
 {
  "name": "정기사",
  "address": "경기 동두천시 동광로 88,(생연동)",
  "combination": "수동",
  "lat": 37.908875,
  "lng": 127.05794
 },
 {
  "name": "대박복권방",
  "address": "경기 연천군 전곡읍 온골로 57-1,(전곡리)",
  "combination": "수동",
  "lat": 38.02602,
  "lng": 127.06766
 },
 {
  "name": "행운복권방 보생당건강원",
  "address": "전북 익산시 무왕로 1268",
  "combination": "자동",
  "lat": 35.960304,
  "lng": 126.99727
 },
 {
  "name": "종합자동차매매상사",
  "address": "전남 해남군 해남로 34 종합복권방편의점",
  "combination": "수동",
  "lat": 34.570763,
  "lng": 126.61092
 },
 {
  "name": "목화휴게소",
  "address": "경남 사천시 사천대로 912",
  "combination": "자동",
  "lat": 35.0018,
  "lng": 128.05415
 }
]