[
 {
  "name": "GS25(만평)",
  "address": "대구 서구 비산동  1210-2",
  "combination": "자동",
  "lat": 35.888996,
  "lng": 128.56564
 },
 {
  "name": "마이마트",
  "address": "인천 서구 탁옥로 76 한국상가제1층101호",
  "combination": "자동",
  "lat": 37.54315,
  "lng": 126.67822
 },
 {
  "name": "GS25오리점",
  "address": "경기 성남시 분당구 구미동 구미동 158하나이지타워107호",
  "combination": "자동",
  "lat": 37.340015,
  "lng": 127.10778
 },
 {
  "name": "배스트로또(수원탑동)",
  "address": "경기 수원시 권선구 탑동 탑동 749-1",
  "combination": "자동",
  "lat": 37.274883,
  "lng": 126.973366
 },
 {
  "name": "찬스로또방",
  "address": "경남 창원시 내동  456-17번지내동상가1층7-8호",
  "combination": "자동",
  "lat": 35.218735,
  "lng": 128.6614
 },
 {
  "name": "청룡",
  "address": "제주 제주시 신북로 255",
  "combination": "자동",
  "lat": 33.53805,
  "lng": 126.63927
 }
]