[
 {
  "name": "명진슈퍼",
  "address": "서울 송파구 새말로 142",
  "combination": "수동",
  "lat": 37.483517,
  "lng": 127.12962
 },
 {
  "name": "묵동식품",
  "address": "서울 중랑구 동일로 919",
  "combination": "자동",
  "lat": 37.612457,
  "lng": 127.07704
 },
 {
  "name": "훼미리마트(입석강변점)",
  "address": "대구 동구 입석동  933-2",
  "combination": "자동",
  "lat": 35.890266,
  "lng": 128.64635
 },
 {
  "name": "영화사랑",
  "address": "인천 부평구 청천동  15-9",
  "combination": "자동",
  "lat": 37.517715,
  "lng": 126.703674
 },
 {
  "name": "복권나라",
  "address": "인천 서구 거북로 80",
  "combination": "자동",
  "lat": 37.503014,
  "lng": 126.670654
 },
 {
  "name": "효원복권방",
  "address": "경북 경산시 공단4로 145 1층  씨스페이스",
  "combination": "자동",
  "lat": 35.87031,
  "lng": 128.82817
 },
 {
  "name": "훼미리마트(포항중앙상가점)",
  "address": "경북 포항시 북구 신흥동 신흥동 819-1",
  "combination": "자동",
  "lat": 36.03948,
  "lng": 129.36514
 },
 {
  "name": "행운복권방(동아마트연일점)",
  "address": "경북 포항시 남구 연일읍 생지리408",
  "combination": "자동",
  "lat": 35.99958,
  "lng": 129.34491
 },
 {
  "name": "훼미리마트(통영항남점)",
  "address": "경남 통영시 항남동  197-25",
  "combination": "자동",
  "lat": 34.842373,
  "lng": 128.42258
 }
]