[
 {
  "name": "씨스페이스(명지성모점)",
  "address": "서울 영등포구 대림동  7091층",
  "combination": "자동",
  "lat": 37.486954,
  "lng": 126.90428
 },
 {
  "name": "종로슈퍼",
  "address": "서울 종로구 돈화문로10길 14",
  "combination": "자동",
  "lat": 37.572502,
  "lng": 126.99242
 },
 {
  "name": "영화유통(1등복권방)",
  "address": "울산 남구 신정로 19 삼성아파트 상가 204-101",
  "combination": "자동",
  "lat": 35.533833,
  "lng": 129.32205
 },
 {
  "name": "천하복권방",
  "address": "울산 동구 전하로 29",
  "combination": "수동",
  "lat": 35.512436,
  "lng": 129.4275
 },
 {
  "name": "에덴로또",
  "address": "전북 전주시 덕진구 쪽구름로 34,(동산동)",
  "combination": "자동",
  "lat": 35.868675,
  "lng": 127.077835
 },
 {
  "name": "남평로또점",
  "address": "전남 나주시 남평1로 12 파평회관 1층",
  "combination": "자동",
  "lat": 35.046345,
  "lng": 126.8391
 }
]