[
 {
  "name": "GS25(이문중앙점)",
  "address": "서울 동대문구 이문동  345-8 외 1필지 (346-118)",
  "combination": "자동",
  "lat": 37.599773,
  "lng": 127.06849
 },
 {
  "name": "데스콤㈜영등포영업소",
  "address": "서울 영등포구 영중로 48",
  "combination": "자동",
  "lat": 37.520576,
  "lng": 126.905136
 },
 {
  "name": "노다지복권방",
  "address": "서울 종로구 종로 333",
  "combination": "자동",
  "lat": 37.572903,
  "lng": 127.01451
 },
 {
  "name": "갤러리마트",
  "address": "서울 중랑구 사가정로 387",
  "combination": "자동",
  "lat": 37.580944,
  "lng": 127.087715
 },
 {
  "name": "대박찬스",
  "address": "광주 북구 서하로 196,(오치동)",
  "combination": "자동",
  "lat": 35.18705,
  "lng": 126.901886
 },
 {
  "name": "이플러스",
  "address": "경기 수원시 영통구 매탄동 153-14",
  "combination": "자동",
  "lat": 37.274273,
  "lng": 127.04432
 },
 {
  "name": "공원슈퍼",
  "address": "경기 수원시 장안구 팔달로 257-1 1층(영화동)",
  "combination": "자동",
  "lat": 37.288837,
  "lng": 127.01324
 },
 {
  "name": "로또복권방",
  "address": "경기 안양시 동안구 호계동 721-3",
  "combination": "자동",
  "lat": 37.367393,
  "lng": 126.95475
 },
 {
  "name": "오또로또",
  "address": "경기 이천시 마장면 오천리 283-15",
  "combination": "자동",
  "lat": 37.253742,
  "lng": 127.35232
 }
]