[
 {
  "name": "복권천국",
  "address": "대구 남구 대명로 269-3",
  "combination": "자동",
  "lat": 35.84328,
  "lng": 128.58566
 },
 {
  "name": "버스판매소",
  "address": "경기 고양시 덕양구 화정동 1045번지 865 선신안아파트 앞",
  "combination": "자동",
  "lat": 37.643604,
  "lng": 126.8322
 },
 {
  "name": "나이키로또복권방",
  "address": "경기 광주시 경충대로 899 1층 111-1호(초월프라자)",
  "combination": "자동",
  "lat": 37.362164,
  "lng": 127.3133
 },
 {
  "name": "빙고복권점",
  "address": "경기 평택시 송탄로 191",
  "combination": "자동",
  "lat": 37.061375,
  "lng": 127.05822
 },
 {
  "name": "로또복권",
  "address": "경기 화성시 사강로 172",
  "combination": "수동",
  "lat": 37.21268,
  "lng": 126.73488
 }
]