[
 {
  "name": "한냉매점",
  "address": "서울 동작구 노들로 674 노량진수산물도매시장 2층 10호",
  "combination": "수동",
  "lat": 37.51461,
  "lng": 126.93681
 },
 {
  "name": "가로판매점",
  "address": "서울 용산구 원효로 166",
  "combination": "수동",
  "lat": 37.53501,
  "lng": 126.961555
 },
 {
  "name": "제이복권방",
  "address": "서울 종로구 종로 225-1 평창빌딩 1층 103호",
  "combination": "수동",
  "lat": 37.571293,
  "lng": 127.00283
 },
 {
  "name": "버스매표소447",
  "address": "인천 동구 송림동  50-120",
  "combination": "자동",
  "lat": 37.477295,
  "lng": 126.645164
 },
 {
  "name": "GS25(수원행복)",
  "address": "경기 수원시 영통구 영통동 974-6 세일빌딩 111",
  "combination": "자동",
  "lat": 37.24678,
  "lng": 127.06075
 },
 {
  "name": "공단로또복권방",
  "address": "경기 안성시 미양면 계륵리 271-9",
  "combination": "자동",
  "lat": 36.979202,
  "lng": 127.25985
 },
 {
  "name": "로또휴게실",
  "address": "경기 용인시 기흥구 용구대로 1885",
  "combination": "자동",
  "lat": 37.256386,
  "lng": 127.10432
 },
 {
  "name": "로또복권판매점",
  "address": "경기 평택시 서정로 237",
  "combination": "자동",
  "lat": 37.06594,
  "lng": 127.059685
 },
 {
  "name": "시외버스터미널로또복권방",
  "address": "충남 논산시 계백로 1000",
  "combination": "자동",
  "lat": 36.203087,
  "lng": 127.088264
 }
]