[
 {
  "name": "당신대박",
  "address": "부산 북구 금곡대로285번길 19 리버사이드빌딩103-1호",
  "combination": "자동",
  "lat": 35.233795,
  "lng": 129.01233
 },
 {
  "name": "로또는내운명",
  "address": "대전 중구 대종로 277",
  "combination": "자동",
  "lat": 36.31158,
  "lng": 127.437355
 },
 {
  "name": "권선로또복권방",
  "address": "경기 수원시 권선구 탑동로 22 천림빌딩 천림빌딩102호",
  "combination": "수동",
  "lat": 37.270844,
  "lng": 126.97501
 },
 {
  "name": "로또휴게실",
  "address": "경기 용인시 기흥구 용구대로 1885",
  "combination": "자동",
  "lat": 37.256386,
  "lng": 127.10432
 },
 {
  "name": "복권천하 미스터잉크동해점",
  "address": "강원 동해시 발한로 35",
  "combination": "수동",
  "lat": 37.535885,
  "lng": 129.10315
 },
 {
  "name": "로또복권장항점",
  "address": "충남 서천군 장항읍  창선리   632-2",
  "combination": "수동",
  "lat": 36.0262,
  "lng": 126.6999
 },
 {
  "name": "로또경주고속점",
  "address": "경북 경주시 태종로 695",
  "combination": "자동",
  "lat": 35.83873,
  "lng": 129.2042
 }
]