[
 {
  "name": "팔도로또",
  "address": "부산 수영구 수영로 709-1 청백도서내",
  "combination": "수동",
  "lat": 35.16824,
  "lng": 129.11705
 },
 {
  "name": "경기상회",
  "address": "인천 남동구 장승남로 42 은빛프라자 104호",
  "combination": "수동",
  "lat": 37.443142,
  "lng": 126.73679
 },
 {
  "name": "코리아세븐 대전오정오거리점",
  "address": "대전 대덕구 오정동  449-1번지",
  "combination": "자동",
  "lat": 36.347725,
  "lng": 127.41602
 },
 {
  "name": "한꿈복권방",
  "address": "울산 중구 번영로 586",
  "combination": "자동",
  "lat": 35.568794,
  "lng": 129.34589
 },
 {
  "name": "복권방",
  "address": "경기 가평군 청평중앙로 35 프라자약국 1층",
  "combination": "수동",
  "lat": 37.73741,
  "lng": 127.418495
 },
 {
  "name": "명당골복권방",
  "address": "경기 수원시 권선구 동수원로242번길 15 104호",
  "combination": "자동",
  "lat": 37.251095,
  "lng": 127.03546
 },
 {
  "name": "공림로또판매점",
  "address": "충남 서산시 남원1길 107",
  "combination": "수동",
  "lat": 36.761387,
  "lng": 126.45487
 },
 {
  "name": "행운마트",
  "address": "충남 아산시 서해로 654",
  "combination": "수동",
  "lat": 36.88196,
  "lng": 126.91078
 },
 {
  "name": "GS25(김해중앙점)",
  "address": "경남 김해시 서상동  152-10 1층",
  "combination": "수동",
  "lat": 35.233288,
  "lng": 128.88136
 }
]