[
 {
  "name": "새로나슈퍼",
  "address": "서울 강서구 강서로5나길 10",
  "combination": "수동",
  "lat": 37.52875,
  "lng": 126.84772
 },
 {
  "name": "현대복권방",
  "address": "서울 양천구 목2동  514-5",
  "combination": "자동",
  "lat": 37.546604,
  "lng": 126.87449
 },
 {
  "name": "쿨마트영남네오빌점",
  "address": "대구 달서구 대명천로 250 영남네오빌비스타상가201동101호",
  "combination": "수동",
  "lat": 35.842274,
  "lng": 128.5331
 },
 {
  "name": "금주의명당",
  "address": "대구 수성구 청호로 365",
  "combination": "수동",
  "lat": 35.849728,
  "lng": 128.6381
 },
 {
  "name": "로또복권판매소",
  "address": "인천 계양구 계양산로 186 102호",
  "combination": "수동",
  "lat": 37.54739,
  "lng": 126.73643
 },
 {
  "name": "로또명당",
  "address": "인천 미추홀구 인주대로 423 101호",
  "combination": "수동",
  "lat": 37.45115,
  "lng": 126.68826
 },
 {
  "name": "로또복권",
  "address": "인천 남구 용현동  459-16",
  "combination": "수동",
  "lat": 37.45719,
  "lng": 126.65
 },
 {
  "name": "인천역버스매표소",
  "address": "인천 중구 북성동1가  3",
  "combination": "자동",
  "lat": 37.47601,
  "lng": 126.617065
 },
 {
  "name": "GS25(대전노은)",
  "address": "대전 유성구 지족동  901-1월드코아빌딩",
  "combination": "자동",
  "lat": 36.314342,
  "lng": 127.321075
 },
 {
  "name": "행운복권방",
  "address": "경기 성남시 중원구 금상로 118",
  "combination": "수동",
  "lat": 37.442444,
  "lng": 127.16793
 },
 {
  "name": "1등로또복권방",
  "address": "경기 의정부시 용현동  266-10",
  "combination": "수동",
  "lat": 37.734592,
  "lng": 127.08003
 },
 {
  "name": "승리복권방",
  "address": "경기 파주시 청송로 1029",
  "combination": "수동",
  "lat": 37.95495,
  "lng": 126.919014
 },
 {
  "name": "로또복권",
  "address": "경기 화성시 사강로 172",
  "combination": "자동",
  "lat": 37.21268,
  "lng": 126.73488
 },
 {
  "name": "예술로또",
  "address": "강원 영월군 중앙로 44",
  "combination": "수동",
  "lat": 37.18335,
  "lng": 128.46846
 },
 {
  "name": "대박마트복권방",
  "address": "충남 아산시 음봉로 844 행복한순복음교회 태화상가1층103호",
  "combination": "수동",
  "lat": 36.826508,
  "lng": 127.09927
 },
 {
  "name": "또또복권방",
  "address": "전북 익산시 고봉로32길 3",
  "combination": "수동",
  "lat": 35.95982,
  "lng": 126.971695
 },
 {
  "name": "운수대통",
  "address": "경남 거제시 능포동  727-2동헌상가가-111",
  "combination": "자동",
  "lat": 34.873497,
  "lng": 128.73126
 },
 {
  "name": "대박복권방",
  "address": "경남 김해시 활천로36번길 28-6 복권판매점",
  "combination": "수동",
  "lat": 35.23212,
  "lng": 128.89607
 },
 {
  "name": "로또판매업",
  "address": "경남 양산시 북정로 31 CU편의점 내",
  "combination": "자동",
  "lat": 35.35902,
  "lng": 129.04372
 }
]