[
 {
  "name": "영훈슈퍼마켓",
  "address": "서울 도봉구 덕릉로 222,(창동)",
  "combination": "자동",
  "lat": 37.63781,
  "lng": 127.03763
 },
 {
  "name": "만복당",
  "address": "서울 성동구 행당로 1 신한은행 앞",
  "combination": "자동",
  "lat": 37.554836,
  "lng": 127.020294
 },
 {
  "name": "로또복권판매업",
  "address": "서울 송파구 삼전동  181-6해광빌딩108",
  "combination": "자동",
  "lat": 37.498604,
  "lng": 127.098946
 },
 {
  "name": "부일카서비스",
  "address": "부산 동구 자성로133번길 35",
  "combination": "자동",
  "lat": 35.140015,
  "lng": 129.06306
 },
 {
  "name": "고향슈퍼",
  "address": "대구 달서구 이곡동  1000-147",
  "combination": "자동",
  "lat": 35.83864,
  "lng": 128.55267
 },
 {
  "name": "동수원매표소",
  "address": "경기 수원시 팔달구 인계동 953주택은행옆",
  "combination": "자동",
  "lat": 37.27622,
  "lng": 127.02981
 },
 {
  "name": "일등로또방",
  "address": "전북 전주시 완산구 장승배기로 203",
  "combination": "수동",
  "lat": 35.796608,
  "lng": 127.13483
 },
 {
  "name": "재운로또복권",
  "address": "경북 포항시 북구 아치로 46 8호 1층",
  "combination": "수동",
  "lat": 36.05116,
  "lng": 129.35692
 }
]