[
 {
  "name": "행복슈퍼",
  "address": "서울 성북구 동소문로 49",
  "combination": "자동",
  "lat": 37.591003,
  "lng": 127.01112
 },
 {
  "name": "훼미리마트(장위미래점)",
  "address": "서울 성북구 장위동  158-43",
  "combination": "수동",
  "lat": 37.597256,
  "lng": 127.03547
 },
 {
  "name": "훼미리마트(당산한강점)",
  "address": "서울 영등포구 당산동4가  29",
  "combination": "수동",
  "lat": 37.52795,
  "lng": 126.90272
 },
 {
  "name": "G마트",
  "address": "서울 영등포구 디지털로 387",
  "combination": "수동",
  "lat": 37.491634,
  "lng": 126.902115
 },
 {
  "name": "GS25(종로낙원)",
  "address": "서울 종로구 낙원동  230",
  "combination": "자동",
  "lat": 37.57223,
  "lng": 126.98859
 },
 {
  "name": "복권전문점",
  "address": "인천 부평구 원적로 437",
  "combination": "자동",
  "lat": 37.50383,
  "lng": 126.7151
 },
 {
  "name": "1등복권방",
  "address": "울산 울주군 동문길 84",
  "combination": "자동",
  "lat": 35.564198,
  "lng": 129.1246
 },
 {
  "name": "로또복권방",
  "address": "충남 공주시 신관동  22-19",
  "combination": "자동",
  "lat": 36.47379,
  "lng": 127.1464
 },
 {
  "name": "행운의집제1호점",
  "address": "경북 안동시 영가로 24",
  "combination": "수동",
  "lat": 36.56516,
  "lng": 128.7333
 }
]