[
 {
  "name": "근대화슈퍼",
  "address": "부산 부산진구 개금동  53-2개금주공상가101",
  "combination": "자동",
  "lat": 35.15921,
  "lng": 129.02698
 },
 {
  "name": "대림통상",
  "address": "울산 중구 신기14길 1 일신아파트 일신아파트상가102호",
  "combination": "자동",
  "lat": 35.55233,
  "lng": 129.29778
 },
 {
  "name": "영통매표소",
  "address": "경기 수원시 영통구 청명북로 61 청명마을주공아파트 청명역3번출구 매표소",
  "combination": "수동",
  "lat": 37.257996,
  "lng": 127.079384
 },
 {
  "name": "영통매표소",
  "address": "경기 수원시 영통구 청명북로 61 청명마을주공아파트 청명역3번출구 매표소",
  "combination": "수동",
  "lat": 37.257996,
  "lng": 127.079384
 },
 {
  "name": "노다지복권방",
  "address": "경기 시흥시 복지로 103-1 1층상가",
  "combination": "자동",
  "lat": 37.44823,
  "lng": 126.79206
 },
 {
  "name": "다니엘사",
  "address": "경기 안산시 단원구 원선1로 38 두산위브아파트 101호",
  "combination": "자동",
  "lat": 37.326073,
  "lng": 126.80417
 },
 {
  "name": "한국타이어서산대리점",
  "address": "충남 서산시 예천동  502-5",
  "combination": "수동",
  "lat": 36.774513,
  "lng": 126.44311
 },
 {
  "name": "토니모리 광양점",
  "address": "전남 광양시 공영로 90",
  "combination": "수동",
  "lat": 34.935658,
  "lng": 127.699066
 },
 {
  "name": "NG24",
  "address": "경북 칠곡군 북중리3길 59",
  "combination": "자동",
  "lat": 36.079823,
  "lng": 128.41183
 }
]