[
 {
  "name": "지원물산",
  "address": "서울 노원구 공릉로 108,(공릉동)",
  "combination": "자동",
  "lat": 37.61983,
  "lng": 127.078094
 },
 {
  "name": "행복자슈퍼",
  "address": "서울 서초구 강남대로30길 63",
  "combination": "수동",
  "lat": 37.48276,
  "lng": 127.04056
 },
 {
  "name": "황금복권방",
  "address": "서울 중구 만리동2가  214 1층",
  "combination": "수동",
  "lat": 37.552944,
  "lng": 126.9639
 },
 {
  "name": "제일식품",
  "address": "서울 중랑구 상봉동  108",
  "combination": "자동",
  "lat": 37.594753,
  "lng": 127.085655
 },
 {
  "name": "복권방",
  "address": "부산 사하구 감천동  541-5",
  "combination": "수동",
  "lat": 35.08887,
  "lng": 129.00533
 },
 {
  "name": "금산인삼엑스포",
  "address": "대전 대덕구 비래동  125-6",
  "combination": "자동",
  "lat": 36.354298,
  "lng": 127.44996
 },
 {
  "name": "로또휴게실",
  "address": "경기 용인시 기흥구 용구대로 1885",
  "combination": "수동",
  "lat": 37.256386,
  "lng": 127.10432
 },
 {
  "name": "광성슈퍼",
  "address": "경기 이천시 단월로 33",
  "combination": "자동",
  "lat": 37.221367,
  "lng": 127.44998
 },
 {
  "name": "온천로또복권",
  "address": "충남 예산군 덕산면  사동리 15덕산온천관광호텔매점",
  "combination": "자동",
  "lat": 36.689205,
  "lng": 126.65954
 },
 {
  "name": "로또복권황성점",
  "address": "경북 경주시 금성로259번길 38 1층 CU 노서점 내",
  "combination": "자동",
  "lat": 35.841015,
  "lng": 129.20303
 },
 {
  "name": "연합복권",
  "address": "경남 김해시 함박로101번길 22 삼우빌딩104호 복권판매점",
  "combination": "자동",
  "lat": 35.234215,
  "lng": 128.86583
 },
 {
  "name": "채널큐",
  "address": "경남 창원시 마산합포구 산호남로 11-1",
  "combination": "수동",
  "lat": 35.21755,
  "lng": 128.58145
 }
]