[
 {
  "name": "복권방",
  "address": "부산 부산진구 부암동  133-39훼미리마트(부암점)",
  "combination": "자동",
  "lat": 35.152344,
  "lng": 129.03827
 },
 {
  "name": "일등복권편의점",
  "address": "대구 달서구 대명천로 220 1층",
  "combination": "수동",
  "lat": 35.84214,
  "lng": 128.53621
 },
 {
  "name": "복권명당(서부점)",
  "address": "대구 달서구 월배로 452",
  "combination": "수동",
  "lat": 35.833633,
  "lng": 128.55486
 },
 {
  "name": "경기상회",
  "address": "인천 남동구 장승남로 42 은빛프라자 104호",
  "combination": "자동",
  "lat": 37.443142,
  "lng": 126.73679
 },
 {
  "name": "용꿈돼지꿈복권전문점",
  "address": "강원 동해시 중앙로 234 이주민상가1층15호",
  "combination": "수동",
  "lat": 37.52171,
  "lng": 129.115
 },
 {
  "name": "알리바이(나주점)",
  "address": "전남 나주시 나주로 142 알리바이",
  "combination": "자동",
  "lat": 35.031338,
  "lng": 126.71719
 },
 {
  "name": "양지서점",
  "address": "경북 김천시 평화길 152",
  "combination": "자동",
  "lat": 36.1227,
  "lng": 128.11456
 },
 {
  "name": "훼미리마트(마산금강점)",
  "address": "경남 창원시 마산합포구 중앙동3가 2-52금강펠릭스타워102",
  "combination": "자동",
  "lat": 35.180428,
  "lng": 128.5571
 }
]