[
 {
  "name": "대박",
  "address": "서울 강남구 일원로3길 55",
  "combination": "수동",
  "lat": 37.49274,
  "lng": 127.08436
 },
 {
  "name": "로또나라",
  "address": "부산 북구 팽나무로 1",
  "combination": "수동",
  "lat": 35.20504,
  "lng": 129.00464
 },
 {
  "name": "UBC복권방",
  "address": "울산 남구 봉월로 12",
  "combination": "자동",
  "lat": 35.533627,
  "lng": 129.30725
 },
 {
  "name": "다모아로또",
  "address": "경기 안산시 상록구 예술광장1로 54 오성빌딩",
  "combination": "수동",
  "lat": 37.328846,
  "lng": 126.84788
 },
 {
  "name": "버스표가판점",
  "address": "경기 안양시 동안구 동안로 125-2 범계역4-1출구앞 버스표가판점",
  "combination": "자동",
  "lat": 37.389736,
  "lng": 126.95106
 },
 {
  "name": "장미슈퍼",
  "address": "충남 부여군 부여읍 계백로 265 부여군청 로터리 부근",
  "combination": "자동",
  "lat": 36.27629,
  "lng": 126.90941
 },
 {
  "name": "로또복권방",
  "address": "충남 천안시 서북구 쌍용대로 190 상가3호",
  "combination": "수동",
  "lat": 36.8143,
  "lng": 127.13485
 },
 {
  "name": "사랑슈퍼",
  "address": "전북 익산시 인북로 241-4",
  "combination": "자동",
  "lat": 35.95013,
  "lng": 126.957535
 }
]