[
 {
  "name": "까치(소식5)",
  "address": "서울 도봉구 도봉로 733",
  "combination": "자동",
  "lat": 37.669926,
  "lng": 127.043236
 },
 {
  "name": "25시슈퍼",
  "address": "부산 사상구 백양대로 964",
  "combination": "자동",
  "lat": 35.191975,
  "lng": 128.99263
 },
 {
  "name": "포시즌마전점",
  "address": "인천 서구 완정로10번길 6-6 검단2지구37블록1롯트",
  "combination": "자동",
  "lat": 37.59451,
  "lng": 126.67347
 },
 {
  "name": "천하명당",
  "address": "경기 시흥시 신천3길 26-1 1층1호",
  "combination": "수동",
  "lat": 37.438892,
  "lng": 126.783295
 },
 {
  "name": "일등복권방",
  "address": "경기 의정부시 회룡로 138 대명빌딩 1층",
  "combination": "자동",
  "lat": 37.72573,
  "lng": 127.04921
 },
 {
  "name": "서정천하명당",
  "address": "경기 평택시 송탄로 160",
  "combination": "자동",
  "lat": 37.058094,
  "lng": 127.05932
 },
 {
  "name": "잉크와복권방",
  "address": "충남 천안시 동남구 차돌로 84",
  "combination": "자동",
  "lat": 36.802128,
  "lng": 127.139435
 },
 {
  "name": "로또낚시",
  "address": "경남 하동군 섬진강대로 968 지리산빅마트 내",
  "combination": "자동",
  "lat": 34.997063,
  "lng": 127.80977
 }
]