[
 {
  "name": "새시대복권방",
  "address": "서울 금천구 탑골로 6-1",
  "combination": "수동",
  "lat": 37.450966,
  "lng": 126.91035
 },
 {
  "name": "-",
  "address": "서울 서초구 방배동  782-1",
  "combination": "자동",
  "lat": 37.493843,
  "lng": 126.98309
 },
 {
  "name": "세원로또복권방",
  "address": "부산 수영구 수영로725번길 53 수영 엔스타Ⅱ 101호",
  "combination": "자동",
  "lat": 35.16832,
  "lng": 129.11609
 },
 {
  "name": "코만도",
  "address": "대전 대덕구 석봉로43번길 1",
  "combination": "자동",
  "lat": 36.447594,
  "lng": 127.4265
 },
 {
  "name": "우리들덕신점",
  "address": "울산 울주군 덕신로 273",
  "combination": "자동",
  "lat": 35.434177,
  "lng": 129.3114
 },
 {
  "name": "나라통신",
  "address": "경기 오산시 오산로 200 OK노래연습장",
  "combination": "자동",
  "lat": 37.14465,
  "lng": 127.068695
 }
]