[
 {
  "name": "지원물산",
  "address": "서울 노원구 공릉로 108,(공릉동)",
  "combination": "자동",
  "lat": 37.61983,
  "lng": 127.078094
 },
 {
  "name": "굿모닝",
  "address": "서울 마포구 대흥동  3-34",
  "combination": "수동",
  "lat": 37.549202,
  "lng": 126.931435
 },
 {
  "name": "정다운복권 조이마트",
  "address": "인천 부평구 충선로 171 1층",
  "combination": "자동",
  "lat": 37.504536,
  "lng": 126.736275
 },
 {
  "name": "라이프마트",
  "address": "인천 중구 연안부두로53번길 36 5호",
  "combination": "자동",
  "lat": 37.45236,
  "lng": 126.60402
 },
 {
  "name": "노다지복권방",
  "address": "광주 북구 각화동  503-27",
  "combination": "자동",
  "lat": 35.1815,
  "lng": 126.92913
 },
 {
  "name": "명동열쇠",
  "address": "강원 춘천시 중앙로 57 신한은행 신한은행춘천중앙지점옆 가판",
  "combination": "자동",
  "lat": 37.879852,
  "lng": 127.727394
 },
 {
  "name": "로또명당인주점",
  "address": "충남 아산시 서해로 519-2",
  "combination": "자동",
  "lat": 36.87784,
  "lng": 126.89828
 },
 {
  "name": "남평로또점",
  "address": "전남 나주시 남평1로 12 파평회관 1층",
  "combination": "자동",
  "lat": 35.046345,
  "lng": 126.8391
 },
 {
  "name": "하당복권방",
  "address": "전남 목포시 옥암로 46",
  "combination": "수동",
  "lat": 34.803894,
  "lng": 126.429474
 },
 {
  "name": "훼미리마트(환호희망점)",
  "address": "경북 포항시 북구 환호동 510",
  "combination": "자동",
  "lat": 36.069942,
  "lng": 129.39777
 }
]