[
 {
  "name": "다모아복권방",
  "address": "서울 구로구 서해안로30길 13-7 1층",
  "combination": "자동",
  "lat": 37.4933,
  "lng": 126.844315
 },
 {
  "name": "로또판매점",
  "address": "서울 노원구 상계로 309-1 cu",
  "combination": "자동",
  "lat": 37.67087,
  "lng": 127.07999
 },
 {
  "name": "천하명당복권방",
  "address": "서울 송파구 백제고분로41길 7 1층",
  "combination": "자동",
  "lat": 37.506783,
  "lng": 127.10817
 },
 {
  "name": "중앙토탈대리점",
  "address": "부산 금정구 금강로565번길 16 복권판매점",
  "combination": "자동",
  "lat": 35.25818,
  "lng": 129.08672
 },
 {
  "name": "혜인상사",
  "address": "부산 사하구 괴정동  955-22포시즌편의점내",
  "combination": "수동",
  "lat": 35.098225,
  "lng": 128.99417
 },
 {
  "name": "인생역전",
  "address": "대구 달서구 비슬로 2694",
  "combination": "자동",
  "lat": 35.808098,
  "lng": 128.51039
 },
 {
  "name": "아이러브복권방",
  "address": "울산 중구 유곡로 19-1",
  "combination": "자동",
  "lat": 35.55638,
  "lng": 129.30725
 },
 {
  "name": "25시슈퍼",
  "address": "경기 시흥시 함송로14번길 13-17 홍익프라자1층107호",
  "combination": "자동",
  "lat": 37.362453,
  "lng": 126.72994
 },
 {
  "name": "로터리편의마트",
  "address": "경북 포항시 북구 서동로 85 육거리",
  "combination": "자동",
  "lat": 36.040768,
  "lng": 129.36725
 }
]