[
 {
  "name": "가판점",
  "address": "서울 구로구 경인로3길 지하 64",
  "combination": "자동",
  "lat": 37.49136,
  "lng": 126.8214
 },
 {
  "name": "에이스마트",
  "address": "서울 서초구 서초동  1638-11",
  "combination": "자동",
  "lat": 37.494537,
  "lng": 127.01953
 },
 {
  "name": "대박복권방",
  "address": "서울 양천구 오목로 233 1층1호",
  "combination": "자동",
  "lat": 37.52613,
  "lng": 126.863304
 },
 {
  "name": "종로3가1호선역2번출구가로판매점82호",
  "address": "서울 종로구 돈화문로 23 가판",
  "combination": "자동",
  "lat": 37.5707,
  "lng": 126.991875
 },
 {
  "name": "셀프카메라",
  "address": "부산 부산진구 가야대로443번길 30",
  "combination": "자동",
  "lat": 35.154446,
  "lng": 129.02167
 },
 {
  "name": "우미슈퍼",
  "address": "광주 서구 풍암순환로 183 우미아파트상가118동-101호",
  "combination": "자동",
  "lat": 35.12672,
  "lng": 126.88115
 },
 {
  "name": "샘복권방",
  "address": "울산 울주군 천상중앙길 69",
  "combination": "자동",
  "lat": 35.56302,
  "lng": 129.22873
 },
 {
  "name": "평택포승점로또",
  "address": "경기 평택시 여술로 24 CU편의점 내",
  "combination": "자동",
  "lat": 36.988068,
  "lng": 126.84539
 },
 {
  "name": "로또복권2공단점",
  "address": "충남 천안시 서북구 차암동 12-3",
  "combination": "자동",
  "lat": 36.854877,
  "lng": 127.120186
 }
]