[
 {
  "name": "씨스페이스(상인점)",
  "address": "대구 달서구 상인동  1552-4",
  "combination": "자동",
  "lat": 35.812927,
  "lng": 128.54626
 },
 {
  "name": "OK25",
  "address": "경기 고양시 일산동구 호수로 358-26 203동1층 101호",
  "combination": "자동",
  "lat": 37.63942,
  "lng": 126.78701
 },
 {
  "name": "천복당",
  "address": "경기 오산시 대원로 52,(원동)",
  "combination": "자동",
  "lat": 37.14621,
  "lng": 127.07414
 },
 {
  "name": "백합문구",
  "address": "충남 천안시 서북구 직산읍 모시리237-11번지 공단할인마트내",
  "combination": "자동",
  "lat": 36.86288,
  "lng": 127.12465
 },
 {
  "name": "혜성프라자",
  "address": "전북 익산시 함열중앙로 10",
  "combination": "자동",
  "lat": 36.07893,
  "lng": 126.9585
 },
 {
  "name": "훼미리마트(포항오거리)",
  "address": "경북 포항시 북구 죽도동 42-17",
  "combination": "자동",
  "lat": 36.033848,
  "lng": 129.36467
 },
 {
  "name": "로또복권",
  "address": "제주 제주시 과원북2길 48",
  "combination": "자동",
  "lat": 33.478714,
  "lng": 126.487656
 },
 {
  "name": "신세계",
  "address": "제주 제주시 고마로14길 7",
  "combination": "자동",
  "lat": 33.506073,
  "lng": 126.54025
 }
]