[
 {
  "name": "담배",
  "address": "서울 강북구 삼양로 252",
  "combination": "자동",
  "lat": 37.62585,
  "lng": 127.01845
 },
 {
  "name": "복권가판대",
  "address": "서울 은평구 수색동  360",
  "combination": "자동",
  "lat": 37.58249,
  "lng": 126.895294
 },
 {
  "name": "행복찾기복권방",
  "address": "서울 중랑구 면목동  102-18",
  "combination": "자동",
  "lat": 37.588642,
  "lng": 127.08809
 },
 {
  "name": "버블비어",
  "address": "광주 광산구 목련로273번길 88 운남주공아파트 상가108호",
  "combination": "자동",
  "lat": 35.17795,
  "lng": 126.82506
 },
 {
  "name": "빛고을로또",
  "address": "광주 광산구 소촌로 147 세븐일레븐",
  "combination": "자동",
  "lat": 35.15734,
  "lng": 126.79186
 },
 {
  "name": "김포로또",
  "address": "경기 김포시 돌문로 48 한솔프라자101",
  "combination": "자동",
  "lat": 37.619404,
  "lng": 126.71802
 },
 {
  "name": "그린마트",
  "address": "경기 성남시 분당구 대왕판교로 255 107호",
  "combination": "수동",
  "lat": 37.366467,
  "lng": 127.10083
 },
 {
  "name": "행운복권방",
  "address": "경기 수원시 권선구 오목천동 431-1로뎀프라자 105호",
  "combination": "자동",
  "lat": 37.24032,
  "lng": 126.9658
 },
 {
  "name": "장미하이퍼마켓",
  "address": "경기 의왕시 장승길 2",
  "combination": "자동",
  "lat": 37.32097,
  "lng": 126.95502
 },
 {
  "name": "복권방",
  "address": "경기 평택시 평택항로 1-6 1층 개그스토리편의점",
  "combination": "자동",
  "lat": 36.961807,
  "lng": 126.85373
 },
 {
  "name": "우리로또복권방",
  "address": "전남 여수시 무선중앙로 71",
  "combination": "수동",
  "lat": 34.7728,
  "lng": 127.65182
 }
]