[
 {
  "name": "우진슈퍼",
  "address": "서울 영등포구 당산로 95 116호(당산동2가, 현대상가)",
  "combination": "자동",
  "lat": 37.523495,
  "lng": 126.89486
 },
 {
  "name": "묵동식품",
  "address": "서울 중랑구 동일로 919",
  "combination": "자동",
  "lat": 37.612457,
  "lng": 127.07704
 },
 {
  "name": "노다지복권방",
  "address": "부산 금정구 금사로 75",
  "combination": "수동",
  "lat": 35.21961,
  "lng": 129.11098
 },
 {
  "name": "부일카서비스",
  "address": "부산 동구 자성로133번길 35",
  "combination": "자동",
  "lat": 35.140015,
  "lng": 129.06306
 },
 {
  "name": "왕대박로또방",
  "address": "부산 해운대구 좌동  998-7 1층",
  "combination": "자동",
  "lat": 35.160866,
  "lng": 129.15546
 },
 {
  "name": "행운마트",
  "address": "대구 달서구 달구벌대로 1600,(감삼동)",
  "combination": "수동",
  "lat": 35.851524,
  "lng": 128.54173
 },
 {
  "name": "오리엔트복권",
  "address": "대전 대덕구 중리남로 18",
  "combination": "자동",
  "lat": 36.36129,
  "lng": 127.42938
 },
 {
  "name": "로또(파발마점)",
  "address": "경기 시흥시 마유로 415 역전프라자105호",
  "combination": "자동",
  "lat": 37.351974,
  "lng": 126.740585
 }
]