[
 {
  "name": "복드림복권방",
  "address": "서울 강동구 상암로 99",
  "combination": "수동",
  "lat": 37.547485,
  "lng": 127.13399
 },
 {
  "name": "나라시스컴",
  "address": "서울 영등포구 영등포동5가  18-58영신상가1호",
  "combination": "자동",
  "lat": 37.519783,
  "lng": 126.9067
 },
 {
  "name": "로또복권",
  "address": "대구 북구 연암로22길 1 1층 복권판매점",
  "combination": "수동",
  "lat": 35.94375,
  "lng": 128.56425
 },
 {
  "name": "복권천국",
  "address": "대전 대덕구 중리동  165-17",
  "combination": "수동",
  "lat": 36.361015,
  "lng": 127.426735
 },
 {
  "name": "드림로또",
  "address": "대전 중구 대둔산로 365-2",
  "combination": "자동",
  "lat": 36.30205,
  "lng": 127.385864
 },
 {
  "name": "희망을주는사람",
  "address": "경기 용인시 처인구 양지로 111 1층 상가",
  "combination": "자동",
  "lat": 37.23453,
  "lng": 127.28051
 },
 {
  "name": "복권마을",
  "address": "강원 강릉시 주문진읍  교항리 118",
  "combination": "자동",
  "lat": 37.885292,
  "lng": 128.8254
 },
 {
  "name": "서울로또방",
  "address": "충북 옥천군 삼금로 8",
  "combination": "자동",
  "lat": 36.29949,
  "lng": 127.56668
 },
 {
  "name": "로또온양온천점",
  "address": "충남 아산시 읍내동  212",
  "combination": "수동",
  "lat": 36.808167,
  "lng": 126.98127
 },
 {
  "name": "봉명주유소 복권전문점",
  "address": "경북 문경시 마성면  남호리 152-2",
  "combination": "자동",
  "lat": 36.709103,
  "lng": 128.12195
 }
]