[
 {
  "name": "GS25(양평역점)",
  "address": "서울 영등포구 양평동3가  23-4 월드프라자103호",
  "combination": "자동",
  "lat": 37.526154,
  "lng": 126.886086
 },
 {
  "name": "제이복권방",
  "address": "서울 종로구 종로 225-1 평창빌딩 1층 103호",
  "combination": "수동",
  "lat": 37.571293,
  "lng": 127.00283
 },
 {
  "name": "로데오복권방",
  "address": "경기 고양시 일산동구 무궁화로 40 우림보보카운티108",
  "combination": "수동",
  "lat": 37.662975,
  "lng": 126.76896
 },
 {
  "name": "유방매표소",
  "address": "경기 용인시 처인구 유방동 310-10",
  "combination": "수동",
  "lat": 37.258778,
  "lng": 127.212906
 },
 {
  "name": "행운방",
  "address": "경기 용인시 기흥구 보정동 1804-4엔림프라자101호",
  "combination": "자동",
  "lat": 37.320713,
  "lng": 127.115105
 },
 {
  "name": "천하명당복권방",
  "address": "경기 화성시 남양시장로 83",
  "combination": "자동",
  "lat": 37.209915,
  "lng": 126.81828
 },
 {
  "name": "로또판매",
  "address": "경북 경산시 경안로 145",
  "combination": "자동",
  "lat": 35.820534,
  "lng": 128.73775
 },
 {
  "name": "영남통상",
  "address": "경북 성주군 성주읍 성주로 3228,(경산리)",
  "combination": "자동",
  "lat": 35.91804,
  "lng": 128.28683
 }
]