[
 {
  "name": "GS25(가양2)",
  "address": "서울 강서구 가양동  14612단지상가1층106호",
  "combination": "자동",
  "lat": 37.570484,
  "lng": 126.84715
 },
 {
  "name": "J-마트",
  "address": "서울 서초구 반포동  19-3센트럴시티1층125",
  "combination": "자동",
  "lat": 37.50413,
  "lng": 127.00307
 },
 {
  "name": "GS25(종로낙원)",
  "address": "서울 종로구 낙원동  230",
  "combination": "수동",
  "lat": 37.57223,
  "lng": 126.98859
 },
 {
  "name": "아이러브복권방",
  "address": "울산 중구 유곡로 19-1",
  "combination": "자동",
  "lat": 35.55638,
  "lng": 129.30725
 },
 {
  "name": "아름다운슈퍼",
  "address": "경기 시흥시 도일로 123",
  "combination": "자동",
  "lat": 37.341576,
  "lng": 126.78373
 },
 {
  "name": "인덕원가판점",
  "address": "경기 안양시 동안구 관악대로 478",
  "combination": "자동",
  "lat": 37.402664,
  "lng": 126.97511
 },
 {
  "name": "복권명당",
  "address": "경기 용인시 처인구 용문로 142 1층",
  "combination": "자동",
  "lat": 37.23621,
  "lng": 127.20159
 },
 {
  "name": "행운복권방",
  "address": "경기 화성시 우정읍  조암리 290-12 13",
  "combination": "자동",
  "lat": 37.1536,
  "lng": 126.88282
 },
 {
  "name": "GM24(신평점)",
  "address": "경북 구미시 신평동  96-6 1층",
  "combination": "자동",
  "lat": 36.12269,
  "lng": 128.36403
 }
]