[
 {
  "name": "5분미니식품",
  "address": "서울 강남구 논현동  213-2",
  "combination": "자동",
  "lat": 37.513554,
  "lng": 127.03235
 },
 {
  "name": "1등복권방",
  "address": "서울 관악구 남부순환로 1545",
  "combination": "자동",
  "lat": 37.483486,
  "lng": 126.92216
 },
 {
  "name": "동서울산업",
  "address": "서울 광진구 강변역로 50 동서울터미널빌딩 동서울터미널 정문앞 로또가판점",
  "combination": "수동",
  "lat": 37.53391,
  "lng": 127.09356
 },
 {
  "name": "동서울산업",
  "address": "서울 광진구 강변역로 50 동서울터미널빌딩 동서울터미널 정문앞 로또가판점",
  "combination": "수동",
  "lat": 37.53391,
  "lng": 127.09356
 },
 {
  "name": "마두5번출구가판로또",
  "address": "경기 고양시 일산동구 중앙로 1200",
  "combination": "자동",
  "lat": 37.65387,
  "lng": 126.77711
 },
 {
  "name": "상남로또방",
  "address": "경남 밀양시 상남면 상남로 1147",
  "combination": "자동",
  "lat": 35.458393,
  "lng": 128.75133
 }
]