[
 {
  "name": "GS25(광복)",
  "address": "부산 중구 동광동2가  7-2",
  "combination": "자동",
  "lat": 35.099934,
  "lng": 129.03513
 },
 {
  "name": "도깨비복권방",
  "address": "인천 계양구 봉오대로 677",
  "combination": "수동",
  "lat": 37.53094,
  "lng": 126.724
 },
 {
  "name": "GS25(하이비젼)",
  "address": "인천 남동구 구월동  1141-7하이비젼빌딩101",
  "combination": "자동",
  "lat": 37.45207,
  "lng": 126.70678
 },
 {
  "name": "복권마을",
  "address": "인천 부평구 마장로 424",
  "combination": "자동",
  "lat": 37.515896,
  "lng": 126.70455
 },
 {
  "name": "미래복권닷컴",
  "address": "경기 성남시 분당구 장안로25번길 28 건영아파트상가114호",
  "combination": "자동",
  "lat": 37.37122,
  "lng": 127.13987
 },
 {
  "name": "동아슈퍼마켓",
  "address": "경기 안산시 단원구 원곡동 748-6",
  "combination": "수동",
  "lat": 37.331112,
  "lng": 126.79315
 },
 {
  "name": "인덕원가판점",
  "address": "경기 안양시 동안구 관악대로 478",
  "combination": "자동",
  "lat": 37.402664,
  "lng": 126.97511
 },
 {
  "name": "반딧불로또",
  "address": "전북 무주군 무주읍  읍내리 249-4",
  "combination": "수동",
  "lat": 36.007782,
  "lng": 127.663
 },
 {
  "name": "삼례로또복권",
  "address": "전북 완주군 삼례읍 동학로 32",
  "combination": "수동",
  "lat": 35.91063,
  "lng": 127.074875
 }
]