[
 {
  "name": "엘도라도복권점문점",
  "address": "서울 광진구 용마산로 47",
  "combination": "수동",
  "lat": 37.55781,
  "lng": 127.08759
 },
 {
  "name": "스파",
  "address": "서울 노원구 동일로 1493 상계주공아파트(10단지) 주공10단지종합상가111",
  "combination": "자동",
  "lat": 37.66166,
  "lng": 127.05787
 },
 {
  "name": "명당복권",
  "address": "서울 동대문구 왕산로 112-1 가판",
  "combination": "자동",
  "lat": 37.577915,
  "lng": 127.035774
 },
 {
  "name": "행운가판점",
  "address": "서울 용산구 한강대로 80",
  "combination": "수동",
  "lat": 37.527348,
  "lng": 126.9665
 },
 {
  "name": "1등복권방",
  "address": "울산 울주군 언양읍  남부리 126-1언양편의점",
  "combination": "자동",
  "lat": 35.56412,
  "lng": 129.12718
 },
 {
  "name": "보광훼미리마트수내트라펠리스",
  "address": "경기 성남시 분당구 황새울로 234 102호 (수내동, 분당트라팰리스)",
  "combination": "자동",
  "lat": 37.37911,
  "lng": 127.11408
 },
 {
  "name": "로또복권장항점",
  "address": "충남 서천군 장항읍  창선리   632-2",
  "combination": "수동",
  "lat": 36.0262,
  "lng": 126.6999
 },
 {
  "name": "부흥청과식품점",
  "address": "경북 경산시 하양읍 하양로 35 우방3차상가",
  "combination": "자동",
  "lat": 35.90926,
  "lng": 128.81354
 },
 {
  "name": "다음정보텔레콤(훼미리마트내)",
  "address": "경남 진주시 평거로9번길  18 1층 2호",
  "combination": "자동",
  "lat": 35.173115,
  "lng": 128.06183
 }
]