[
 {
  "name": "잠실연쇄점",
  "address": "서울 송파구 삼전로 99 대성빌딩 이마트 24편의점",
  "combination": "수동",
  "lat": 37.507267,
  "lng": 127.090126
 },
 {
  "name": "잠실연쇄점",
  "address": "서울 송파구 삼전로 99 대성빌딩 이마트 24편의점",
  "combination": "수동",
  "lat": 37.507267,
  "lng": 127.090126
 },
 {
  "name": "도깨비방(로또)",
  "address": "서울 은평구 수색동  102-20",
  "combination": "수동",
  "lat": 37.581886,
  "lng": 126.89631
 },
 {
  "name": "운수대통복권방",
  "address": "부산 부산진구 전포대로200번길 13",
  "combination": "수동",
  "lat": 35.154648,
  "lng": 129.0664
 },
 {
  "name": "천하명당복권방",
  "address": "인천 계양구 안남로 466 1층",
  "combination": "수동",
  "lat": 37.5245,
  "lng": 126.71087
 },
 {
  "name": "복권방",
  "address": "인천 연수구 비류대로433번길 10 103호",
  "combination": "자동",
  "lat": 37.424713,
  "lng": 126.68303
 },
 {
  "name": "행복복권방",
  "address": "울산 남구 옥동  156-4",
  "combination": "자동",
  "lat": 35.533875,
  "lng": 129.29605
 },
 {
  "name": "로또(파발마점)",
  "address": "경기 시흥시 마유로 415 역전프라자105호",
  "combination": "자동",
  "lat": 37.351974,
  "lng": 126.740585
 },
 {
  "name": "로또슈퍼",
  "address": "경기 안산시 상록구 광덕1로 326 102호",
  "combination": "자동",
  "lat": 37.30664,
  "lng": 126.84608
 },
 {
  "name": "행복한집",
  "address": "경기 오산시 경기대로148번길 8,(원동)",
  "combination": "자동",
  "lat": 37.13778,
  "lng": 127.074196
 },
 {
  "name": "복권나라",
  "address": "강원 속초시 중앙로 28",
  "combination": "수동",
  "lat": 38.198734,
  "lng": 128.58014
 },
 {
  "name": "롯데마트",
  "address": "전북 군산시 하나운로 43",
  "combination": "자동",
  "lat": 35.963455,
  "lng": 126.69942
 },
 {
  "name": "복권명당도량2호점",
  "address": "경북 구미시 문장로8길 1",
  "combination": "수동",
  "lat": 36.138027,
  "lng": 128.33247
 }
]