[
 {
  "name": "공공일안경원",
  "address": "서울 강동구 명일동  334-2",
  "combination": "수동",
  "lat": 37.549377,
  "lng": 127.143936
 },
 {
  "name": "아이티텔랜드",
  "address": "서울 노원구 상계동  7491층",
  "combination": "자동",
  "lat": 37.6513,
  "lng": 127.06175
 },
 {
  "name": "GS25(양평역점)",
  "address": "서울 영등포구 양평동3가  23-4 월드프라자103호",
  "combination": "수동",
  "lat": 37.526154,
  "lng": 126.886086
 },
 {
  "name": "로또명당",
  "address": "인천 미추홀구 문학길 4 편의점내",
  "combination": "자동",
  "lat": 37.43852,
  "lng": 126.681046
 },
 {
  "name": "안산삼성홈플러스로또복권판매점",
  "address": "경기 안산시 단원구 광덕대로 175 홈플러스 내 1층",
  "combination": "자동",
  "lat": 37.311886,
  "lng": 126.828896
 },
 {
  "name": "요술상자",
  "address": "경기 평택시 평택3로 109 동일건물내 이전",
  "combination": "수동",
  "lat": 36.99841,
  "lng": 127.093834
 },
 {
  "name": "요술상자",
  "address": "경기 평택시 평택3로 109 동일건물내 이전",
  "combination": "수동",
  "lat": 36.99841,
  "lng": 127.093834
 },
 {
  "name": "에이스로또",
  "address": "전남 여수시 여서로 154 참마트내",
  "combination": "자동",
  "lat": 34.74815,
  "lng": 127.69863
 },
 {
  "name": "환타지아복권방",
  "address": "제주 제주시 번영로 532",
  "combination": "수동",
  "lat": 33.488842,
  "lng": 126.5976
 }
]