[
 {
  "name": "훼미리마트(자양태성점)",
  "address": "서울 광진구 자양동  553-489101 102호 792",
  "combination": "수동",
  "lat": 37.533417,
  "lng": 127.070404
 },
 {
  "name": "경성식품",
  "address": "서울 동대문구 망우로21길 52",
  "combination": "자동",
  "lat": 37.590435,
  "lng": 127.06028
 },
 {
  "name": "우리들중구청점",
  "address": "울산 중구 복산동  191-6",
  "combination": "자동",
  "lat": 35.55328,
  "lng": 129.33217
 },
 {
  "name": "가판점",
  "address": "경기 군포시 군포로 541-2 인도 앞 가판대",
  "combination": "자동",
  "lat": 37.354385,
  "lng": 126.9463
 },
 {
  "name": "복권전문점",
  "address": "경기 수원시 팔달구 매산로 17",
  "combination": "수동",
  "lat": 37.2676,
  "lng": 127.00333
 }
]