[
 {
  "name": "다모아복권",
  "address": "서울 구로구 경인로19길 4",
  "combination": "자동",
  "lat": 37.495926,
  "lng": 126.84278
 },
 {
  "name": "로또",
  "address": "서울 금천구 독산동  888-141층",
  "combination": "자동",
  "lat": 37.476624,
  "lng": 126.905624
 },
 {
  "name": "훼미리마트노원영성점",
  "address": "대구 북구 노원동3가  58-46",
  "combination": "자동",
  "lat": 35.900185,
  "lng": 128.57185
 },
 {
  "name": "복권방",
  "address": "경기 하남시 하남대로 795 1층6호",
  "combination": "자동",
  "lat": 37.540417,
  "lng": 127.20887
 },
 {
  "name": "대흥당",
  "address": "전북 정읍시 관통로 102",
  "combination": "자동",
  "lat": 35.558918,
  "lng": 126.85565
 },
 {
  "name": "구산복권방",
  "address": "경남 김해시 구산동  481-3보보스빌딩108호",
  "combination": "자동",
  "lat": 35.25086,
  "lng": 128.87222
 },
 {
  "name": "다음정보텔레콤(훼미리마트내)",
  "address": "경남 진주시 평거로9번길  18 1층 2호",
  "combination": "수동",
  "lat": 35.173115,
  "lng": 128.06183
 }
]