[
 {
  "name": "위드미로또판매점",
  "address": "서울 강남구 봉은사로74길 13 101호",
  "combination": "수동",
  "lat": 37.51167,
  "lng": 127.05188
 },
 {
  "name": "압구정로또",
  "address": "서울 강남구 삼성동  112위드미",
  "combination": "수동",
  "lat": 37.47358,
  "lng": 127.10301
 },
 {
  "name": "GS25(방이삼형)",
  "address": "서울 송파구 방이동  149-13",
  "combination": "자동",
  "lat": 37.51427,
  "lng": 127.115234
 },
 {
  "name": "가로매점",
  "address": "서울 종로구 종로 186 우리은행 우리은행앞 가판",
  "combination": "자동",
  "lat": 37.570404,
  "lng": 126.99847
 },
 {
  "name": "훼미리마트대전반석역점",
  "address": "대전 유성구 반석로 10 반석역프라자",
  "combination": "자동",
  "lat": 36.39211,
  "lng": 127.313446
 },
 {
  "name": "버스표판매소",
  "address": "경기 고양시 덕양구 화정로 지하 60 화정역 2번출구",
  "combination": "자동",
  "lat": 37.634552,
  "lng": 126.83321
 },
 {
  "name": "굿데이복권방",
  "address": "전남 목포시 백년대로337번길 20 CU편의점",
  "combination": "자동",
  "lat": 34.80719,
  "lng": 126.423195
 },
 {
  "name": "행운로또",
  "address": "전남 여수시 상암로 627-1  상암초 부근",
  "combination": "수동",
  "lat": 34.825855,
  "lng": 127.7328
 }
]