[
 {
  "name": "로또판매점",
  "address": "서울 마포구 방울내로 78",
  "combination": "자동",
  "lat": 37.560432,
  "lng": 126.90408
 },
 {
  "name": "잠실매점",
  "address": "서울 송파구 올림픽로 269 잠실역 8번출구 앞 가판",
  "combination": "자동",
  "lat": 37.514446,
  "lng": 127.10071
 },
 {
  "name": "기장슈퍼",
  "address": "부산 기장군 차성동로 69",
  "combination": "자동",
  "lat": 35.243927,
  "lng": 129.2165
 },
 {
  "name": "복권명당",
  "address": "대구 동구 안심로73길 23 1층  세븐일레븐",
  "combination": "자동",
  "lat": 35.870842,
  "lng": 128.7246
 },
 {
  "name": "대박이네",
  "address": "울산 중구 구교로 163",
  "combination": "자동",
  "lat": 35.55929,
  "lng": 129.34009
 },
 {
  "name": "로또복권방",
  "address": "울산 중구 성남동  172-14",
  "combination": "자동",
  "lat": 35.55438,
  "lng": 129.31776
 },
 {
  "name": "럭키로또방",
  "address": "경기 수원시 영통구 센트럴타운로 15 아이플렉스104호",
  "combination": "자동",
  "lat": 37.288116,
  "lng": 127.0574
 },
 {
  "name": "복권마을",
  "address": "경기 안양시 동안구 흥안대로133번길 4 제1동 제1층 제104호",
  "combination": "수동",
  "lat": 37.371513,
  "lng": 126.95739
 },
 {
  "name": "삼성24시편의점",
  "address": "강원 원주시 원일로 162 1층",
  "combination": "수동",
  "lat": 37.35293,
  "lng": 127.94662
 },
 {
  "name": "삼성24시편의점",
  "address": "강원 원주시 원일로 162 1층",
  "combination": "수동",
  "lat": 37.35293,
  "lng": 127.94662
 },
 {
  "name": "해수로또",
  "address": "충북 청주시 상당구 산성로 22-1",
  "combination": "자동",
  "lat": 36.62615,
  "lng": 127.49938
 },
 {
  "name": "행운복권방",
  "address": "충남 예산군 예산로 241",
  "combination": "자동",
  "lat": 36.680298,
  "lng": 126.85137
 },
 {
  "name": "복권나라",
  "address": "전남 여수시 중앙로 62 1층",
  "combination": "자동",
  "lat": 34.73992,
  "lng": 127.73436
 }
]