[
 {
  "name": "우리은행금호동지점앞가판",
  "address": "서울 성동구 장터길 46",
  "combination": "자동",
  "lat": 37.54814,
  "lng": 127.02097
 },
 {
  "name": "하이로또복권방",
  "address": "서울 양천구 신정동  1182-2",
  "combination": "자동",
  "lat": 37.51867,
  "lng": 126.85318
 },
 {
  "name": "복권나라",
  "address": "인천 중구 제물량로 84-3",
  "combination": "수동",
  "lat": 37.467392,
  "lng": 126.63372
 },
 {
  "name": "조은복권방",
  "address": "울산 남구 수암로 124",
  "combination": "자동",
  "lat": 35.527668,
  "lng": 129.32079
 },
 {
  "name": "GS25(하안연서)",
  "address": "경기 광명시 안현로 52",
  "combination": "자동",
  "lat": 37.465557,
  "lng": 126.877495
 },
 {
  "name": "로또명당가두판매점",
  "address": "경기 안양시 동안구 경수대로 848-2 동안구가로판매대2005-00065",
  "combination": "수동",
  "lat": 37.393017,
  "lng": 126.94313
 },
 {
  "name": "현텔레콤",
  "address": "전북 전주시 덕진구 아중로 142",
  "combination": "자동",
  "lat": 35.825504,
  "lng": 127.16533
 },
 {
  "name": "보물섬",
  "address": "전남 목포시 산정로 268-3 근화상가 110호",
  "combination": "자동",
  "lat": 34.81154,
  "lng": 126.38701
 },
 {
  "name": "복권세상",
  "address": "전남 목포시 청호로 139 1층 복권세상",
  "combination": "수동",
  "lat": 34.8039,
  "lng": 126.37585
 }
]