[
 {
  "name": "한마음",
  "address": "서울 관악구 관악로 211 봉천중앙시장라열4호",
  "combination": "수동",
  "lat": 37.48357,
  "lng": 126.95407
 },
 {
  "name": "돈벼락맞는곳",
  "address": "부산 동구 조방로49번길 18-1",
  "combination": "자동",
  "lat": 35.139168,
  "lng": 129.05995
 },
 {
  "name": "-",
  "address": "부산 사하구 장림1동  1080",
  "combination": "자동",
  "lat": 35.078293,
  "lng": 128.9535
 },
 {
  "name": "GS25(동구신서)",
  "address": "대구 동구 신서동  530-4",
  "combination": "자동",
  "lat": 35.866596,
  "lng": 128.7251
 },
 {
  "name": "주경슈퍼",
  "address": "인천 부평구 경인로 1063",
  "combination": "자동",
  "lat": 37.486958,
  "lng": 126.73819
 },
 {
  "name": "복권명당",
  "address": "대전 중구 목중로 47",
  "combination": "수동",
  "lat": 36.33757,
  "lng": 127.40925
 },
 {
  "name": "로또25시",
  "address": "울산 남구 수암로 288-1",
  "combination": "자동",
  "lat": 35.52126,
  "lng": 129.33582
 },
 {
  "name": "안면로또점",
  "address": "충남 태안군 안면읍  승언리    1147",
  "combination": "자동",
  "lat": 36.518147,
  "lng": 126.34509
 },
 {
  "name": "복권판매점",
  "address": "경북 경산시 하양로 65",
  "combination": "자동",
  "lat": 35.911167,
  "lng": 128.81583
 }
]