[
 {
  "name": "티켓나라노원점",
  "address": "서울 노원구 상계동  335정암빌딩1층104호",
  "combination": "자동",
  "lat": 37.656094,
  "lng": 127.06342
 },
 {
  "name": "제일복권",
  "address": "부산 서구 충무대로 35-1 1층 복권방",
  "combination": "수동",
  "lat": 35.078842,
  "lng": 129.01659
 },
 {
  "name": "토큰박스",
  "address": "대구 서구 달서로 42",
  "combination": "자동",
  "lat": 35.86598,
  "lng": 128.57144
 },
 {
  "name": "로또명당상동점",
  "address": "경기 부천시 송내대로265번길 17 효성프라자108호",
  "combination": "자동",
  "lat": 37.506847,
  "lng": 126.75795
 },
 {
  "name": "로또24시편의점",
  "address": "경기 안산시 단원구 달미로 85 1층101호",
  "combination": "자동",
  "lat": 37.343452,
  "lng": 126.81495
 },
 {
  "name": "노다지복권방",
  "address": "경기 용인시 처인구 금령로 130",
  "combination": "자동",
  "lat": 37.23509,
  "lng": 127.2105
 },
 {
  "name": "로또입장점",
  "address": "충남 천안시 서북구 입장면 하장리   45-22",
  "combination": "자동",
  "lat": 36.91466,
  "lng": 127.2221
 },
 {
  "name": "훼미리마트(두호점)",
  "address": "경북 포항시 북구 두호동 1034-13",
  "combination": "자동",
  "lat": 36.060314,
  "lng": 129.37875
 },
 {
  "name": "훼미리마트(진해제일점)",
  "address": "경남 창원시 진해구 덕산로46번길 2 동부회센타 1층 102~105호",
  "combination": "자동",
  "lat": 35.145824,
  "lng": 128.70442
 }
]