[
 {
  "name": "바이더웨이편의점",
  "address": "부산 중구 남포동5가  11-4",
  "combination": "자동",
  "lat": 35.09833,
  "lng": 129.02933
 },
 {
  "name": "가인안경",
  "address": "대구 동구 아양로50길 82",
  "combination": "자동",
  "lat": 35.883785,
  "lng": 128.64139
 },
 {
  "name": "따봉복권방",
  "address": "인천 부평구 주부토로 109",
  "combination": "자동",
  "lat": 37.50489,
  "lng": 126.72531
 },
 {
  "name": "E편한마트",
  "address": "광주 북구 중흥동  224-87",
  "combination": "자동",
  "lat": 35.17026,
  "lng": 126.9146
 },
 {
  "name": "두배로마트덕이점",
  "address": "경기 고양시 덕양구 원흥1로 56",
  "combination": "자동",
  "lat": 37.6511,
  "lng": 126.87055
 },
 {
  "name": "예인기획",
  "address": "경기 화성시 3.1만세로 1127",
  "combination": "자동",
  "lat": 37.13382,
  "lng": 126.90975
 },
 {
  "name": "올인로또복권",
  "address": "전북 전주시 완산구 효자동2가 203-5 코끼리마트 상가 내",
  "combination": "수동",
  "lat": 35.804657,
  "lng": 127.10798
 }
]