[
 {
  "name": "인더라인북가좌점",
  "address": "서울 서대문구 응암로 42 1층101호",
  "combination": "자동",
  "lat": 37.57712,
  "lng": 126.90929
 },
 {
  "name": "농심가슈퍼마트",
  "address": "서울 양천구 목동중앙본로 54 1층",
  "combination": "수동",
  "lat": 37.540688,
  "lng": 126.869026
 },
 {
  "name": "바이더웨이녹번중앙점",
  "address": "서울 은평구 갈현로 88 은평성심의원 1층 우측 두번째 점포",
  "combination": "수동",
  "lat": 37.60575,
  "lng": 126.91073
 },
 {
  "name": "바이더웨이녹번중앙점",
  "address": "서울 은평구 갈현로 88 은평성심의원 1층 우측 두번째 점포",
  "combination": "수동",
  "lat": 37.60575,
  "lng": 126.91073
 },
 {
  "name": "바이더웨이녹번중앙점",
  "address": "서울 은평구 갈현로 88 은평성심의원 1층 우측 두번째 점포",
  "combination": "수동",
  "lat": 37.60575,
  "lng": 126.91073
 },
 {
  "name": "바이더웨이녹번중앙점",
  "address": "서울 은평구 갈현로 88 은평성심의원 1층 우측 두번째 점포",
  "combination": "수동",
  "lat": 37.60575,
  "lng": 126.91073
 },
 {
  "name": "바이더웨이녹번중앙점",
  "address": "서울 은평구 갈현로 88 은평성심의원 1층 우측 두번째 점포",
  "combination": "수동",
  "lat": 37.60575,
  "lng": 126.91073
 },
 {
  "name": "로또복권(세종식품)",
  "address": "서울 중구 충무로2가  62-8",
  "combination": "자동",
  "lat": 37.561314,
  "lng": 126.987495
 },
 {
  "name": "정발산복권전문점",
  "address": "경기 고양시 일산동구 정발산동 1204일성종합상가104호",
  "combination": "자동",
  "lat": 37.673046,
  "lng": 126.77767
 },
 {
  "name": "대박로또복권",
  "address": "경기 김포시 통진읍 김포대로 2449",
  "combination": "자동",
  "lat": 37.696945,
  "lng": 126.577286
 },
 {
  "name": "정우",
  "address": "경기 용인시 처인구 백옥대로 574 C동상가",
  "combination": "수동",
  "lat": 37.18781,
  "lng": 127.20619
 },
 {
  "name": "황금로또",
  "address": "강원 원주시 현충로318번길 35 1층",
  "combination": "수동",
  "lat": 37.381992,
  "lng": 127.950325
 },
 {
  "name": "럭키뱅크복권방",
  "address": "충북 청주시 서원구 청남로 2092-1",
  "combination": "자동",
  "lat": 36.61884,
  "lng": 127.48729
 },
 {
  "name": "로또복권방",
  "address": "충남 당진시 당진중앙1로 21",
  "combination": "자동",
  "lat": 36.892937,
  "lng": 126.62633
 },
 {
  "name": "새롬",
  "address": "경남 창원시 마산합포구 수산1길 181 새롬미리내아파트 새롬미리내상가113호",
  "combination": "수동",
  "lat": 35.202972,
  "lng": 128.57985
 }
]