[
 {
  "name": "신정복권",
  "address": "서울 양천구 신목로 70-1 신통빌딩 1층",
  "combination": "수동",
  "lat": 37.521122,
  "lng": 126.87375
 },
 {
  "name": "대영당안경원",
  "address": "부산 동래구 충렬대로237번길 9,(수안동)",
  "combination": "자동",
  "lat": 35.201954,
  "lng": 129.08519
 },
 {
  "name": "로또복권방",
  "address": "부산 사하구 낙동대로535번길 70",
  "combination": "수동",
  "lat": 35.111435,
  "lng": 128.96083
 },
 {
  "name": "일등복권편의점",
  "address": "대구 달서구 대명천로 220 1층",
  "combination": "자동",
  "lat": 35.84214,
  "lng": 128.53621
 },
 {
  "name": "주공24시편의방",
  "address": "대전 동구 옥천로180번길 19 판암주공아파트2차상가",
  "combination": "자동",
  "lat": 36.316658,
  "lng": 127.46117
 },
 {
  "name": "365복권잔치",
  "address": "경기 군포시 고산로 166 SK벤티움 sk 벤티움 101동 217호",
  "combination": "수동",
  "lat": 37.34855,
  "lng": 126.953674
 },
 {
  "name": "행복미니슈퍼",
  "address": "경기 부천시 부일로 409",
  "combination": "수동",
  "lat": 37.487118,
  "lng": 126.77558
 },
 {
  "name": "농산물직판장",
  "address": "전북 군산시 백토로 128,(나운동, 현대3차아파트)",
  "combination": "수동",
  "lat": 35.96753,
  "lng": 126.70487
 }
]