[
 {
  "name": "로또담배",
  "address": "서울 관악구 난곡로 82",
  "combination": "자동",
  "lat": 37.462704,
  "lng": 126.9192
 },
 {
  "name": "사이버정보통신",
  "address": "부산 부산진구 동평로 411 백조상가동103-1호",
  "combination": "자동",
  "lat": 35.17425,
  "lng": 129.07022
 },
 {
  "name": "이타임(e-time)읍내점",
  "address": "대구 북구 칠곡중앙대로 181",
  "combination": "자동",
  "lat": 35.912186,
  "lng": 128.54807
 },
 {
  "name": "샘내로또판매",
  "address": "경기 양주시 산북동  337-2",
  "combination": "자동",
  "lat": 37.805496,
  "lng": 127.045364
 },
 {
  "name": "복권백화점",
  "address": "경기 파주시 평화로 70",
  "combination": "수동",
  "lat": 37.763588,
  "lng": 126.76989
 },
 {
  "name": "천하명당복권방",
  "address": "경기 화성시 남양시장로 83",
  "combination": "자동",
  "lat": 37.209915,
  "lng": 126.81828
 },
 {
  "name": "행운복권방",
  "address": "강원 인제군 북면 금강로 23 1층",
  "combination": "자동",
  "lat": 38.122444,
  "lng": 128.2068
 },
 {
  "name": "봉암마트",
  "address": "경남 창원시 마산합포구 합포로 126-1 1층",
  "combination": "자동",
  "lat": 35.209354,
  "lng": 128.58305
 }
]