[
 {
  "name": "아트라인",
  "address": "서울 동대문구 장안2동  295-5화성빌딩104호",
  "combination": "자동",
  "lat": 37.57266,
  "lng": 127.070404
 },
 {
  "name": "GS25(당산역)",
  "address": "서울 영등포구 당산동6가  338-1",
  "combination": "자동",
  "lat": 37.535233,
  "lng": 126.900024
 },
 {
  "name": "버스판매소",
  "address": "서울 영등포구 영중로 2 1층(영등포동3가)",
  "combination": "자동",
  "lat": 37.516743,
  "lng": 126.906746
 },
 {
  "name": "G마트",
  "address": "서울 영등포구 디지털로 387",
  "combination": "수동",
  "lat": 37.491634,
  "lng": 126.902115
 },
 {
  "name": "중구-가로가판대-37",
  "address": "서울 중구 남대문로 20-2,(남대문로3가)",
  "combination": "자동",
  "lat": 37.56083,
  "lng": 126.97805
 },
 {
  "name": "GS-25",
  "address": "부산 남구 용호로 34 일신프리빌리지 상가동 103호",
  "combination": "자동",
  "lat": 35.127583,
  "lng": 129.10747
 },
 {
  "name": "드림로또",
  "address": "대구 북구 침산로 153 명성푸르지오 상가 103동 B2호",
  "combination": "자동",
  "lat": 35.889423,
  "lng": 128.59015
 },
 {
  "name": "세화매일유통",
  "address": "울산 남구 야음동  815-11",
  "combination": "자동",
  "lat": 35.52446,
  "lng": 129.33109
 },
 {
  "name": "바로전산",
  "address": "경기 광명시 오리로 1000 (광명동)",
  "combination": "자동",
  "lat": 37.480213,
  "lng": 126.85236
 },
 {
  "name": "돼지네슈퍼",
  "address": "경기 부천시 소사구 소사본동 233-30",
  "combination": "수동",
  "lat": 37.4707,
  "lng": 126.795616
 },
 {
  "name": "119복권방",
  "address": "경기 안양시 만안구 안양2동 823-15",
  "combination": "자동",
  "lat": 37.40586,
  "lng": 126.911835
 },
 {
  "name": "행운복권방 보생당건강원",
  "address": "전북 익산시 무왕로 1268",
  "combination": "자동",
  "lat": 35.960304,
  "lng": 126.99727
 },
 {
  "name": "복권천국",
  "address": "전남 목포시 비파로 29 복권천국",
  "combination": "자동",
  "lat": 34.801384,
  "lng": 126.42771
 },
 {
  "name": "NJOY로또텔레콤",
  "address": "경북 포항시 남구 상공로 42",
  "combination": "자동",
  "lat": 36.012226,
  "lng": 129.35663
 }
]