[
 {
  "name": "할인마트부흥점",
  "address": "서울 중랑구 면목2동  142-43",
  "combination": "수동",
  "lat": 37.59008,
  "lng": 127.08202
 },
 {
  "name": "굿-7",
  "address": "부산 수영구 광안로 49",
  "combination": "자동",
  "lat": 35.1553,
  "lng": 129.1177
 },
 {
  "name": "인생역전복권방",
  "address": "인천 부평구 청천2동  10-17상가1층",
  "combination": "자동",
  "lat": 37.518665,
  "lng": 126.7047
 },
 {
  "name": "제일슈퍼",
  "address": "인천 연수구 앵고개로 242 제일상가112호",
  "combination": "자동",
  "lat": 37.408646,
  "lng": 126.670815
 },
 {
  "name": "버스가두판매점",
  "address": "경기 수원시 영통구 영통동 955-1",
  "combination": "수동",
  "lat": 37.2629,
  "lng": 127.079605
 },
 {
  "name": "로또복권",
  "address": "경기 평택시 조개터로 17 1층 1호",
  "combination": "자동",
  "lat": 36.98888,
  "lng": 127.10167
 }
]