[
 {
  "name": "태원정보통신",
  "address": "서울 중랑구 봉우재로33길 80,(상봉동)",
  "combination": "자동",
  "lat": 37.595444,
  "lng": 127.08968
 },
 {
  "name": "슈퍼복권나라",
  "address": "부산 사하구 하신번영로 370",
  "combination": "자동",
  "lat": 35.114147,
  "lng": 128.96078
 },
 {
  "name": "다사복권방",
  "address": "대구 달성군 옥포면  간경리    848번지",
  "combination": "자동",
  "lat": 35.790443,
  "lng": 128.4709
 },
 {
  "name": "대박찬스",
  "address": "경기 남양주시 진접읍 장현로 111 1층1호",
  "combination": "자동",
  "lat": 37.719795,
  "lng": 127.18393
 },
 {
  "name": "컬투패밀리중동점",
  "address": "경기 성남시 중원구 중동 2009-1번지",
  "combination": "자동",
  "lat": 37.442898,
  "lng": 127.15573
 },
 {
  "name": "대박복권방",
  "address": "경기 안산시 단원구 신길중앙로1길 40 101호",
  "combination": "수동",
  "lat": 37.336105,
  "lng": 126.76227
 },
 {
  "name": "노다지복권방",
  "address": "경기 오산시 오산로 298-1",
  "combination": "수동",
  "lat": 37.1541,
  "lng": 127.068794
 },
 {
  "name": "둔전행운복권방",
  "address": "경기 용인시 처인구 포곡로 110",
  "combination": "자동",
  "lat": 37.26922,
  "lng": 127.21764
 },
 {
  "name": "SK뷰 할인마트",
  "address": "경기 의정부시 가능동  656-1외1필지단지내상가101호",
  "combination": "수동",
  "lat": 37.728767,
  "lng": 127.03901
 },
 {
  "name": "복권나라",
  "address": "강원 삼척시 도계읍  도계리    393-1",
  "combination": "자동",
  "lat": 37.234924,
  "lng": 129.04465
 },
 {
  "name": "엔조이로또",
  "address": "경북 포항시 남구 문덕로 3 1층  폰공장  내",
  "combination": "자동",
  "lat": 35.962307,
  "lng": 129.4033
 },
 {
  "name": "늘봄꽃난식물원",
  "address": "경남 진주시 솔밭로 80",
  "combination": "수동",
  "lat": 35.176178,
  "lng": 128.10738
 },
 {
  "name": "행운로또복권방",
  "address": "경남 창원시 마산합포구 합포로 41-1 옥원묵화학원 1층",
  "combination": "자동",
  "lat": 35.204197,
  "lng": 128.57634
 }
]