[
 {
  "name": "씨스페이스(범물청구점)",
  "address": "대구 수성구 범물동  1277-11",
  "combination": "자동",
  "lat": 35.82074,
  "lng": 128.6424
 },
 {
  "name": "역전식품",
  "address": "인천 남구 도화동  80-83",
  "combination": "자동",
  "lat": 37.467224,
  "lng": 126.65607
 },
 {
  "name": "영화유통(1등복권방)",
  "address": "울산 남구 신정로 19 삼성아파트 상가 204-101",
  "combination": "자동",
  "lat": 35.533833,
  "lng": 129.32205
 },
 {
  "name": "씨엔복권방",
  "address": "울산 북구 연암동  374-1번지 1층CN마트",
  "combination": "수동",
  "lat": 35.585,
  "lng": 129.36613
 },
 {
  "name": "초월대박복권방",
  "address": "경기 광주시 경충대로 1252",
  "combination": "수동",
  "lat": 37.386677,
  "lng": 127.28821
 },
 {
  "name": "공원슈퍼",
  "address": "경기 수원시 장안구 팔달로 257-1 1층(영화동)",
  "combination": "자동",
  "lat": 37.288837,
  "lng": 127.01324
 },
 {
  "name": "행운복권방",
  "address": "경기 수원시 권선구 구운로 46-1 103호",
  "combination": "자동",
  "lat": 37.27796,
  "lng": 126.97342
 },
 {
  "name": "복권나라",
  "address": "강원 원주시 평원로 23 1층",
  "combination": "수동",
  "lat": 37.348927,
  "lng": 127.952644
 }
]