[
 {
  "name": "대박가판장",
  "address": "서울 강동구 양재대로 1627 가판점",
  "combination": "자동",
  "lat": 37.55092,
  "lng": 127.143715
 },
 {
  "name": "영광정보통신",
  "address": "서울 성북구 화랑로 92 1층 우측1호",
  "combination": "자동",
  "lat": 37.602676,
  "lng": 127.0425
 },
 {
  "name": "부자나라",
  "address": "인천 계양구 효서로112번길 3-1",
  "combination": "자동",
  "lat": 37.527447,
  "lng": 126.70827
 },
 {
  "name": "복권명당",
  "address": "대전 서구 만년남로3번길 164,(만년동)",
  "combination": "수동",
  "lat": 36.366486,
  "lng": 127.37305
 },
 {
  "name": "로토피아",
  "address": "경기 광명시 오리로 371 상가1층102호",
  "combination": "자동",
  "lat": 37.435596,
  "lng": 126.87925
 },
 {
  "name": "당첨로또복권",
  "address": "경기 안양시 동안구 포도원로 4",
  "combination": "자동",
  "lat": 37.361946,
  "lng": 126.96251
 },
 {
  "name": "로또복권방",
  "address": "충남 당진시 당진중앙1로 21",
  "combination": "자동",
  "lat": 36.892937,
  "lng": 126.62633
 },
 {
  "name": "문덕대박로또",
  "address": "경북 포항시 남구 오천읍 문덕리   문덕리  176-7",
  "combination": "자동",
  "lat": 35.96353,
  "lng": 129.40263
 },
 {
  "name": "목화휴게소",
  "address": "경남 사천시 사천대로 912",
  "combination": "자동",
  "lat": 35.0018,
  "lng": 128.05415
 },
 {
  "name": "해피데이복권방",
  "address": "경남 의령군 의령읍 충익로 39",
  "combination": "수동",
  "lat": 35.319485,
  "lng": 128.26187
 }
]