[
 {
  "name": "ANY25",
  "address": "서울 종로구 창경궁로 137 1층",
  "combination": "수동",
  "lat": 37.574615,
  "lng": 126.99725
 },
 {
  "name": "훼미리마트과정로",
  "address": "부산 수영구 과정로 42,(망미동)",
  "combination": "자동",
  "lat": 35.17517,
  "lng": 129.10776
 },
 {
  "name": "신일마트",
  "address": "전북 군산시 의료원로 159",
  "combination": "자동",
  "lat": 35.95842,
  "lng": 126.69812
 },
 {
  "name": "로또명당",
  "address": "전남 해남군 우수영로 1",
  "combination": "수동",
  "lat": 34.596703,
  "lng": 126.31274
 },
 {
  "name": "로또복권델리25옥동점",
  "address": "경북 안동시 옥동  734테마프라자A-161",
  "combination": "자동",
  "lat": 36.56624,
  "lng": 128.69998
 },
 {
  "name": "성심상회",
  "address": "경북 포항시 북구 불종로 78",
  "combination": "자동",
  "lat": 36.038174,
  "lng": 129.36801
 }
]