[
 {
  "name": "스포츠베팅샵",
  "address": "서울 서초구 동산로 48 서희빌딩 104호",
  "combination": "수동",
  "lat": 37.471325,
  "lng": 127.04434
 },
 {
  "name": "영광정보통신",
  "address": "서울 성북구 화랑로 92 1층 우측1호",
  "combination": "자동",
  "lat": 37.602676,
  "lng": 127.0425
 },
 {
  "name": "씨스페이스(중앙제일점)",
  "address": "부산 중구 동광동3가  17-2",
  "combination": "자동",
  "lat": 35.10116,
  "lng": 129.03479
 },
 {
  "name": "e모든복권방",
  "address": "인천 계양구 효성동  25-6",
  "combination": "자동",
  "lat": 37.533962,
  "lng": 126.71049
 },
 {
  "name": "화봉행운복권방",
  "address": "울산 북구 연암동  417-1 1층코너",
  "combination": "자동",
  "lat": 35.581062,
  "lng": 129.36357
 },
 {
  "name": "행운방",
  "address": "경기 용인시 기흥구 보정동 1208-4 엔림프라자101호",
  "combination": "자동",
  "lat": 37.320713,
  "lng": 127.115105
 },
 {
  "name": "보광문구사",
  "address": "경기 파주시 문향로 78-1 1층",
  "combination": "자동",
  "lat": 37.85854,
  "lng": 126.786095
 },
 {
  "name": "바이더웨이삼척삼원점",
  "address": "강원 삼척시 중앙로 185 용비타워 세븐일레븐삼척삼원점",
  "combination": "수동",
  "lat": 37.440216,
  "lng": 129.16751
 },
 {
  "name": "행복복권방",
  "address": "경남 창원시 의창구 팔용로 399",
  "combination": "수동",
  "lat": 35.25288,
  "lng": 128.6106
 },
 {
  "name": "행복복권방",
  "address": "경남 창원시 의창구 팔용로 399",
  "combination": "수동",
  "lat": 35.25288,
  "lng": 128.6106
 },
 {
  "name": "행복복권방",
  "address": "경남 창원시 의창구 팔용로 399",
  "combination": "수동",
  "lat": 35.25288,
  "lng": 128.6106
 },
 {
  "name": "로또명당",
  "address": "경남 창원시 마산합포구 문화동13길 17,(창포동3가)",
  "combination": "자동",
  "lat": 35.181427,
  "lng": 128.55972
 }
]