[
 {
  "name": "종로3가1호선역2번출구가로판매점82호",
  "address": "서울 종로구 돈화문로 23 가판",
  "combination": "자동",
  "lat": 37.5707,
  "lng": 126.991875
 },
 {
  "name": "장미유통",
  "address": "인천 계양구 아나지로 394",
  "combination": "자동",
  "lat": 37.525383,
  "lng": 126.73586
 },
 {
  "name": "훼미리마트송도프라자",
  "address": "인천 연수구 송도동  2-6송도프라자108호",
  "combination": "수동",
  "lat": 37.395847,
  "lng": 126.65242
 },
 {
  "name": "서울복권방",
  "address": "경기 동두천시 어수로 116",
  "combination": "자동",
  "lat": 37.90173,
  "lng": 127.05534
 },
 {
  "name": "로또명당옥천점",
  "address": "충북 옥천군 옥천읍  매화리    236-16",
  "combination": "자동",
  "lat": 36.296867,
  "lng": 127.59522
 },
 {
  "name": "복권명당",
  "address": "충남 공주시 번영1로 41",
  "combination": "자동",
  "lat": 36.471832,
  "lng": 127.13313
 },
 {
  "name": "황금당",
  "address": "전남 강진군 강진읍 중앙로 95 황금당",
  "combination": "자동",
  "lat": 34.638718,
  "lng": 126.76755
 },
 {
  "name": "알리바이금당점",
  "address": "전남 순천시 대석길 44",
  "combination": "수동",
  "lat": 34.945633,
  "lng": 127.526306
 },
 {
  "name": "학동복권나라",
  "address": "전남 여수시 흥국로 6",
  "combination": "자동",
  "lat": 34.763523,
  "lng": 127.663475
 }
]