[
 {
  "name": "군자로또점",
  "address": "서울 광진구 능동로 295",
  "combination": "수동",
  "lat": 37.55615,
  "lng": 127.0786
 },
 {
  "name": "로또판매점",
  "address": "서울 성북구 하월곡동  70-150",
  "combination": "자동",
  "lat": 37.60493,
  "lng": 127.0369
 },
 {
  "name": "복드림",
  "address": "서울 영등포구 양평로 117",
  "combination": "자동",
  "lat": 37.537376,
  "lng": 126.89446
 },
 {
  "name": "대박유통",
  "address": "부산 중구 구덕로 80 1층",
  "combination": "자동",
  "lat": 35.097702,
  "lng": 129.02716
 },
 {
  "name": "엔타임편의점(대승복권)",
  "address": "부산 해운대구 좌동  1479-3 세종월드프라자 137",
  "combination": "자동",
  "lat": 35.169605,
  "lng": 129.17772
 },
 {
  "name": "마두역상행선가판대",
  "address": "경기 고양시 일산동구 중앙로 1181 교보생명 일산사옥 마두역상행선가판대",
  "combination": "자동",
  "lat": 37.65222,
  "lng": 126.77706
 },
 {
  "name": "복권마트",
  "address": "경기 부천시 소사로 253 1층",
  "combination": "자동",
  "lat": 37.48085,
  "lng": 126.79526
 },
 {
  "name": "NG24시편의점",
  "address": "경북 구미시 수출대로 555",
  "combination": "자동",
  "lat": 36.110912,
  "lng": 128.42572
 },
 {
  "name": "수성그린마트",
  "address": "경남 창원시 진해구 경화시장로 34 26호 10호",
  "combination": "자동",
  "lat": 35.15674,
  "lng": 128.6909
 }
]