[
 {
  "name": "행복만들기",
  "address": "서울 관악구 신사로10길 6",
  "combination": "수동",
  "lat": 37.487255,
  "lng": 126.914345
 },
 {
  "name": "스파",
  "address": "서울 노원구 동일로 1493 상계주공아파트(10단지) 주공10단지종합상가111",
  "combination": "자동",
  "lat": 37.66166,
  "lng": 127.05787
 },
 {
  "name": "제이복권방",
  "address": "서울 종로구 종로 225-1 평창빌딩 1층 103호",
  "combination": "수동",
  "lat": 37.571293,
  "lng": 127.00283
 },
 {
  "name": "국세청앞센타",
  "address": "부산 동구 진성로 23 세무서옆가판",
  "combination": "자동",
  "lat": 35.130405,
  "lng": 129.04683
 },
 {
  "name": "진플러스안경",
  "address": "대전 중구 대종로 301-1",
  "combination": "자동",
  "lat": 36.3128,
  "lng": 127.43504
 },
 {
  "name": "행운슈퍼 복권사는날",
  "address": "경기 부천시 경인로 148,(송내동)",
  "combination": "자동",
  "lat": 37.48377,
  "lng": 126.77174
 },
 {
  "name": "SK@24시편의점",
  "address": "경기 파주시 야동동  589-10",
  "combination": "자동",
  "lat": 37.773052,
  "lng": 126.75124
 },
 {
  "name": "해수로또",
  "address": "충북 청주시 상당구 산성로 22-1",
  "combination": "자동",
  "lat": 36.62615,
  "lng": 127.49938
 },
 {
  "name": "로또나라",
  "address": "전남 광양시 중마중앙로 126 1층",
  "combination": "자동",
  "lat": 34.941517,
  "lng": 127.69835
 }
]