[
 {
  "name": "묵동식품",
  "address": "서울 중랑구 동일로 919",
  "combination": "자동",
  "lat": 37.612457,
  "lng": 127.07704
 },
 {
  "name": "승차권판매소(서구청1호점)",
  "address": "대구 서구 국채보상로 257",
  "combination": "자동",
  "lat": 35.871826,
  "lng": 128.55919
 },
 {
  "name": "복권＠나라",
  "address": "인천 부평구 평천로 102-1 1층",
  "combination": "수동",
  "lat": 37.51749,
  "lng": 126.702545
 },
 {
  "name": "훼미리마트두암현대점",
  "address": "광주 북구 두암동  880-17",
  "combination": "자동",
  "lat": 35.17198,
  "lng": 126.92538
 },
 {
  "name": "대박(토토)",
  "address": "광주 북구 군왕로 196",
  "combination": "수동",
  "lat": 35.178318,
  "lng": 126.9351
 },
 {
  "name": "노다지복권방",
  "address": "경기 용인시 처인구 금령로 130",
  "combination": "자동",
  "lat": 37.23509,
  "lng": 127.2105
 },
 {
  "name": "-",
  "address": "경기 의정부시 신곡동  519-19",
  "combination": "자동",
  "lat": 37.745544,
  "lng": 127.05891
 },
 {
  "name": "J마트",
  "address": "경남 진주시 도동천로 131",
  "combination": "자동",
  "lat": 35.18242,
  "lng": 128.11334
 }
]