[
 {
  "name": "삼성게임프라자",
  "address": "서울 서대문구 북아현로 34-3",
  "combination": "자동",
  "lat": 37.560616,
  "lng": 126.95637
 },
 {
  "name": "리치복권방",
  "address": "부산 수영구 연수로 269 1층 5호,6호(망미동)",
  "combination": "자동",
  "lat": 35.15661,
  "lng": 129.12796
 },
 {
  "name": "찬스복권방",
  "address": "인천 부평구 육동로 20-1 1층",
  "combination": "수동",
  "lat": 37.48712,
  "lng": 126.72512
 },
 {
  "name": "목동행운복권방",
  "address": "대전 중구 동서대로 1399,(목동)",
  "combination": "자동",
  "lat": 36.333656,
  "lng": 127.41198
 },
 {
  "name": "모퉁이슈퍼",
  "address": "경북 안동시 서동문로 102",
  "combination": "자동",
  "lat": 36.56668,
  "lng": 128.72293
 }
]