[
 {
  "name": "제이마트",
  "address": "서울 서초구 반포동  19-3번지센트럴씨티125호",
  "combination": "자동",
  "lat": 37.50413,
  "lng": 127.00307
 },
 {
  "name": "샛별복권방",
  "address": "서울 중구 동호로10길 12 1층",
  "combination": "수동",
  "lat": 37.55443,
  "lng": 127.01192
 },
 {
  "name": "대우로또복권방",
  "address": "인천 부평구 청천동  180-4대우프라자113",
  "combination": "자동",
  "lat": 37.513237,
  "lng": 126.70561
 },
 {
  "name": "셀피아",
  "address": "울산 북구 명촌7길 43 복권판매점",
  "combination": "자동",
  "lat": 35.553764,
  "lng": 129.35832
 },
 {
  "name": "돌하르방복권",
  "address": "제주 서귀포시 태평로353번길 9",
  "combination": "수동",
  "lat": 33.246986,
  "lng": 126.56006
 },
 {
  "name": "행운복권방",
  "address": "제주 제주시 우정로11길 12",
  "combination": "자동",
  "lat": 33.48765,
  "lng": 126.4322
 }
]