[
 {
  "name": "복사문구",
  "address": "서울 강동구 양재대로 1549",
  "combination": "수동",
  "lat": 37.54405,
  "lng": 127.14205
 },
 {
  "name": "삼호복권",
  "address": "서울 도봉구 도봉로 457",
  "combination": "자동",
  "lat": 37.646816,
  "lng": 127.03317
 },
 {
  "name": "종합가판점",
  "address": "서울 동대문구 왕산로40길 6 건물 앞쪽 가판점 청량리역 5번출구 앞쪽",
  "combination": "수동",
  "lat": 37.579697,
  "lng": 127.04497
 },
 {
  "name": "미니슈퍼",
  "address": "부산 부산진구 가야대로 643",
  "combination": "자동",
  "lat": 35.156036,
  "lng": 129.04204
 },
 {
  "name": "GS25(대전전민)",
  "address": "대전 유성구 전민동  464-1분산상가C동101 102",
  "combination": "자동",
  "lat": 36.42274,
  "lng": 127.40082
 },
 {
  "name": "CU(군포덕산점)",
  "address": "경기 군포시 당동  902 덕산상가1층",
  "combination": "자동",
  "lat": 37.348972,
  "lng": 126.94522
 },
 {
  "name": "새서울슈퍼",
  "address": "경기 남양주시 사릉로34번길 24 1층 7호",
  "combination": "수동",
  "lat": 37.63618,
  "lng": 127.21105
 },
 {
  "name": "현대로또",
  "address": "경기 성남시 중원구 금상로 32-1",
  "combination": "자동",
  "lat": 37.43849,
  "lng": 127.1607
 },
 {
  "name": "행운을드리는복권방",
  "address": "경기 안산시 상록구 본오로 98",
  "combination": "자동",
  "lat": 37.293797,
  "lng": 126.866684
 },
 {
  "name": "노다지복권방",
  "address": "경기 파주시 술이홀로 906",
  "combination": "자동",
  "lat": 37.906326,
  "lng": 126.91052
 },
 {
  "name": "행운복권방",
  "address": "충북 청주시 흥덕구 복대로 207",
  "combination": "자동",
  "lat": 36.63505,
  "lng": 127.44054
 },
 {
  "name": "잉크와복권방",
  "address": "충남 천안시 동남구 차돌로 84",
  "combination": "자동",
  "lat": 36.802128,
  "lng": 127.139435
 },
 {
  "name": "드림마트복권방",
  "address": "경북 구미시 비산동  359-7(드림마트내일부)",
  "combination": "수동",
  "lat": 36.12182,
  "lng": 128.37726
 }
]