[
 {
  "name": "한마음",
  "address": "서울 관악구 관악로 211 봉천중앙시장라열4호",
  "combination": "자동",
  "lat": 37.48357,
  "lng": 126.95407
 },
 {
  "name": "스파",
  "address": "서울 노원구 동일로 1493 상계주공아파트(10단지) 주공10단지종합상가111",
  "combination": "자동",
  "lat": 37.66166,
  "lng": 127.05787
 },
 {
  "name": "정평복권",
  "address": "서울 양천구 목동중앙본로7길 30 101호",
  "combination": "자동",
  "lat": 37.539677,
  "lng": 126.86694
 },
 {
  "name": "부일카서비스",
  "address": "부산 동구 자성로133번길 35",
  "combination": "자동",
  "lat": 35.140015,
  "lng": 129.06306
 },
 {
  "name": "노다지로또판매점",
  "address": "부산 영도구 남항동2가  248-7",
  "combination": "자동",
  "lat": 35.089134,
  "lng": 129.0392
 },
 {
  "name": "대박복권방",
  "address": "울산 울주군 구영로 162 1층 102호",
  "combination": "자동",
  "lat": 35.56802,
  "lng": 129.24457
 },
 {
  "name": "씨스페이스 중동점",
  "address": "경기 부천시 원미구 중동 1152상록쎈트럴 109호",
  "combination": "자동",
  "lat": 37.50152,
  "lng": 126.76903
 },
 {
  "name": "올인(allin)",
  "address": "경기 화성시 3.1만세로 1147",
  "combination": "자동",
  "lat": 37.135284,
  "lng": 126.910614
 },
 {
  "name": "로또복권두정점",
  "address": "충남 천안시 서북구 두정로 251 대원빌딩104호",
  "combination": "자동",
  "lat": 36.833515,
  "lng": 127.14499
 },
 {
  "name": "복조리복권방",
  "address": "전북 장수군 장계면 장계천변길 55-4",
  "combination": "자동",
  "lat": 35.731014,
  "lng": 127.58352
 },
 {
  "name": "에버빌마트",
  "address": "경북 안동시 강남5길 102 에버빌마트 1층",
  "combination": "자동",
  "lat": 36.551132,
  "lng": 128.73126
 }
]