[
 {
  "name": "행운로또",
  "address": "서울 동작구 흑석동  43-94",
  "combination": "수동",
  "lat": 37.506958,
  "lng": 126.96618
 },
 {
  "name": "행운복권방",
  "address": "서울 은평구 서오릉로 10,(녹번동)",
  "combination": "자동",
  "lat": 37.602295,
  "lng": 126.92678
 },
 {
  "name": "사이버정보통신",
  "address": "부산 부산진구 동평로 411 백조상가동103-1호",
  "combination": "수동",
  "lat": 35.17425,
  "lng": 129.07022
 },
 {
  "name": "플러스로또",
  "address": "대구 달서구 월곡로45길 56,(상인동)",
  "combination": "자동",
  "lat": 35.81329,
  "lng": 128.53883
 },
 {
  "name": "미니스톱인천효성점",
  "address": "인천 계양구 안남로 551",
  "combination": "자동",
  "lat": 37.532257,
  "lng": 126.71038
 },
 {
  "name": "로또판매점",
  "address": "경기 고양시 일산동구 장항동 752삼성메르헨상가102-2",
  "combination": "자동",
  "lat": 37.660133,
  "lng": 126.76643
 },
 {
  "name": "행복한사람들 (흥부네)",
  "address": "경기 광주시 경충대로 763",
  "combination": "자동",
  "lat": 37.355545,
  "lng": 127.325386
 },
 {
  "name": "CU(원주W-CITY점)",
  "address": "강원 원주시 단계동  877-1",
  "combination": "자동",
  "lat": 37.344868,
  "lng": 127.93092
 },
 {
  "name": "로또복권두정점",
  "address": "충남 천안시 서북구 두정로 251 대원빌딩104호",
  "combination": "수동",
  "lat": 36.833515,
  "lng": 127.14499
 }
]