[
 {
  "name": "인동상회",
  "address": "서울 노원구 한글비석로 396 벽산아파트상가108-116",
  "combination": "수동",
  "lat": 37.661465,
  "lng": 127.07279
 },
 {
  "name": "제일슈퍼",
  "address": "서울 동대문구 회기로 194",
  "combination": "수동",
  "lat": 37.58983,
  "lng": 127.05734
 },
 {
  "name": "복권방하단스마일",
  "address": "부산 사하구 낙동대로 191 2층",
  "combination": "수동",
  "lat": 35.100925,
  "lng": 128.99582
 },
 {
  "name": "로또복권신매체인점",
  "address": "대구 수성구 달구벌대로 3233 신매동 효성백년가약상가 401동7호",
  "combination": "자동",
  "lat": 35.8391,
  "lng": 128.71039
 },
 {
  "name": "까치복권방",
  "address": "경기 시흥시 중심상가로 326 1층102",
  "combination": "자동",
  "lat": 37.336678,
  "lng": 126.74821
 },
 {
  "name": "로또점",
  "address": "강원 원주시 송림길 48-22 102호",
  "combination": "자동",
  "lat": 37.331318,
  "lng": 127.95185
 },
 {
  "name": "복권방",
  "address": "강원 원주시 관설동  1702-1",
  "combination": "자동",
  "lat": 37.318775,
  "lng": 127.965
 },
 {
  "name": "월드마트",
  "address": "충북 청주시 흥덕구 장구봉로129번길 2",
  "combination": "자동",
  "lat": 36.62477,
  "lng": 127.44766
 },
 {
  "name": "제일복권",
  "address": "제주 제주시 서광로 257",
  "combination": "자동",
  "lat": 33.5001,
  "lng": 126.524055
 }
]