[
 {
  "name": "진흥복권방",
  "address": "서울 서초구 서초동  1315",
  "combination": "자동",
  "lat": 37.486115,
  "lng": 127.01449
 },
 {
  "name": "로또복권",
  "address": "부산 사상구 모라로192번길 20-83 102호",
  "combination": "자동",
  "lat": 35.183144,
  "lng": 129.0004
 },
 {
  "name": "수복슈퍼",
  "address": "부산 사상구 광장로37번길 34 1층",
  "combination": "자동",
  "lat": 35.16441,
  "lng": 128.98126
 },
 {
  "name": "씨유 대전원내점",
  "address": "대전 유성구 원내로 35",
  "combination": "자동",
  "lat": 36.300095,
  "lng": 127.31983
 },
 {
  "name": "CU(군포덕산점)",
  "address": "경기 군포시 당동  902 덕산상가1층",
  "combination": "수동",
  "lat": 37.348972,
  "lng": 126.94522
 },
 {
  "name": "은혜상회",
  "address": "경기 남양주시 덕소로 214",
  "combination": "자동",
  "lat": 37.579216,
  "lng": 127.21962
 },
 {
  "name": "메트로복권",
  "address": "경기 성남시 분당구 성남대로916번길 5 관보골든쇼핑스포츠빌딩 1층 112호",
  "combination": "수동",
  "lat": 37.411636,
  "lng": 127.12984
 },
 {
  "name": "덕신슈퍼",
  "address": "경기 수원시 권선구 세류3동 524-5",
  "combination": "수동",
  "lat": 37.258976,
  "lng": 127.012535
 },
 {
  "name": "로또삼성복권방",
  "address": "경기 수원시 영통구 매영로 141 원천훼밀리타운 원천훼미리타운105호",
  "combination": "자동",
  "lat": 37.26672,
  "lng": 127.05813
 },
 {
  "name": "까치복권방",
  "address": "경기 시흥시 중심상가로 326 1층102",
  "combination": "자동",
  "lat": 37.336678,
  "lng": 126.74821
 },
 {
  "name": "아트플라워",
  "address": "경기 용인시 처인구 백옥대로 1109",
  "combination": "자동",
  "lat": 37.234646,
  "lng": 127.208626
 },
 {
  "name": "행운복권방",
  "address": "경기 포천시 솔모루로 86-1",
  "combination": "자동",
  "lat": 37.8288,
  "lng": 127.14748
 },
 {
  "name": "로또명당해미점",
  "address": "충남 서산시 남문2로 108",
  "combination": "수동",
  "lat": 36.71344,
  "lng": 126.54419
 }
]