[
 {
  "name": "삼성열쇠공사",
  "address": "서울 동작구 만양로 90-1",
  "combination": "자동",
  "lat": 37.511497,
  "lng": 126.94448
 },
 {
  "name": "GS25(신림로점)",
  "address": "서울 동작구 신대방동  344-258",
  "combination": "자동",
  "lat": 37.49495,
  "lng": 126.92712
 },
 {
  "name": "통일복권방",
  "address": "서울 송파구 백제고분로7길 6",
  "combination": "자동",
  "lat": 37.510223,
  "lng": 127.07944
 },
 {
  "name": "가판점",
  "address": "서울 중구 퇴계로 123",
  "combination": "자동",
  "lat": 37.561066,
  "lng": 126.98525
 },
 {
  "name": "가로판매점117호",
  "address": "서울 중구 장충단로 257",
  "combination": "자동",
  "lat": 37.567608,
  "lng": 127.00848
 },
 {
  "name": "복권왕국",
  "address": "인천 부평구 동수로 168",
  "combination": "수동",
  "lat": 37.485596,
  "lng": 126.73715
 },
 {
  "name": "GS25(중촌현대)",
  "address": "대전 중구 중촌동  17-2",
  "combination": "자동",
  "lat": 36.337418,
  "lng": 127.4125
 },
 {
  "name": "LG슈퍼",
  "address": "경기 광명시 연서로 10",
  "combination": "수동",
  "lat": 37.48104,
  "lng": 126.863335
 },
 {
  "name": "경희슈퍼",
  "address": "경기 성남시 분당구 야탑로69번길 3 105호",
  "combination": "자동",
  "lat": 37.410084,
  "lng": 127.12633
 },
 {
  "name": "황금 복권방",
  "address": "경기 용인시 기흥구 어정로 129 어정프라자 어정프라자 103호",
  "combination": "자동",
  "lat": 37.275894,
  "lng": 127.144035
 },
 {
  "name": "복권",
  "address": "경기 의정부시 의정부동  153",
  "combination": "자동",
  "lat": 37.73927,
  "lng": 127.04927
 }
]