[
 {
  "name": "일등복권편의점",
  "address": "대구 달서구 대명천로 220 1층",
  "combination": "자동",
  "lat": 35.84214,
  "lng": 128.53621
 },
 {
  "name": "운수대통",
  "address": "인천 남동구 석정로 479",
  "combination": "자동",
  "lat": 37.46613,
  "lng": 126.68891
 },
 {
  "name": "왕대박복권",
  "address": "인천 부평구 동수천로 108 1층",
  "combination": "자동",
  "lat": 37.495102,
  "lng": 126.73705
 },
 {
  "name": "GS25(부평중앙)",
  "address": "인천 부평구 부평동  154-161층",
  "combination": "자동",
  "lat": 37.499557,
  "lng": 126.72256
 },
 {
  "name": "메트로복권",
  "address": "경기 성남시 분당구 성남대로916번길 5 관보골든쇼핑스포츠빌딩 1층 112호",
  "combination": "자동",
  "lat": 37.411636,
  "lng": 127.12984
 },
 {
  "name": "노다지복권방",
  "address": "경기 용인시 처인구 금령로 130",
  "combination": "자동",
  "lat": 37.23509,
  "lng": 127.2105
 },
 {
  "name": "로또복권방",
  "address": "경기 평택시 지산로37번길 76",
  "combination": "수동",
  "lat": 37.08238,
  "lng": 127.059525
 },
 {
  "name": "CU(포남뷰티점)",
  "address": "강원 강릉시 포남동  1150",
  "combination": "자동",
  "lat": 37.767353,
  "lng": 128.90926
 },
 {
  "name": "불국사명당복권",
  "address": "경북 경주시 산업로 3033",
  "combination": "수동",
  "lat": 35.7765,
  "lng": 129.29813
 }
]