[
 {
  "name": "복권세상",
  "address": "서울 양천구 신월로 187",
  "combination": "자동",
  "lat": 37.51969,
  "lng": 126.84364
 },
 {
  "name": "감전복권방",
  "address": "부산 사상구 새벽시장로 59 야따이",
  "combination": "자동",
  "lat": 35.15534,
  "lng": 128.9803
 },
 {
  "name": "로또대박마트",
  "address": "대전 동구 대전로 248 샘터하우스슈퍼 로또대박마트",
  "combination": "자동",
  "lat": 36.2904,
  "lng": 127.46335
 },
 {
  "name": "화영하이퍼",
  "address": "경기 성남시 수정구 단대동 176-4번지",
  "combination": "자동",
  "lat": 37.44698,
  "lng": 127.156685
 },
 {
  "name": "버스표가판점",
  "address": "경기 안양시 동안구 관악대로 291",
  "combination": "자동",
  "lat": 37.40312,
  "lng": 126.95526
 },
 {
  "name": "행복충전소",
  "address": "경기 평택시 탄현로 332-2",
  "combination": "자동",
  "lat": 37.0818,
  "lng": 127.05637
 },
 {
  "name": "복권명당",
  "address": "경북 경주시 동문로 46",
  "combination": "자동",
  "lat": 35.848606,
  "lng": 129.2142
 }
]