[
 {
  "name": "GS25(압구정역)",
  "address": "서울 강남구 신사동  577-12동헌빌딩1층",
  "combination": "자동",
  "lat": 37.525463,
  "lng": 127.02755
 },
 {
  "name": "세븐일레븐부산온천장역점",
  "address": "부산 동래구 중앙대로 1520 북쪽출구 빵집",
  "combination": "자동",
  "lat": 35.213894,
  "lng": 129.08134
 },
 {
  "name": "복권백화점",
  "address": "경기 파주시 평화로 70",
  "combination": "자동",
  "lat": 37.763588,
  "lng": 126.76989
 },
 {
  "name": "행운예감",
  "address": "충북 충주시 국원대로 5 1층",
  "combination": "자동",
  "lat": 36.969822,
  "lng": 127.93024
 },
 {
  "name": "둔포로또판매점",
  "address": "충남 아산시 충무로 1810 둔포로또판매점",
  "combination": "수동",
  "lat": 36.930553,
  "lng": 127.038376
 },
 {
  "name": "CU(구미원평점)",
  "address": "경북 구미시 원평동  1049",
  "combination": "수동",
  "lat": 36.12575,
  "lng": 128.3447
 },
 {
  "name": "영화복권방",
  "address": "경남 김해시 덕정로 158 복권판매점",
  "combination": "수동",
  "lat": 35.17843,
  "lng": 128.80179
 },
 {
  "name": "일등복권방",
  "address": "제주 서귀포시 성산읍  고성리    1197-8",
  "combination": "수동",
  "lat": 33.450195,
  "lng": 126.914505
 }
]