[
 {
  "name": "버스카드충전소",
  "address": "서울 서초구 신반포로 205 반포쇼핑타운 6동쇼핑앞",
  "combination": "자동",
  "lat": 37.506935,
  "lng": 127.00612
 },
 {
  "name": "셀프카메라",
  "address": "부산 부산진구 가야대로443번길 30",
  "combination": "자동",
  "lat": 35.154446,
  "lng": 129.02167
 },
 {
  "name": "복권방",
  "address": "부산 부산진구 부암동  133-39훼미리마트(부암점)",
  "combination": "자동",
  "lat": 35.152344,
  "lng": 129.03827
 },
 {
  "name": "프로토베팅샵",
  "address": "부산 중구 국제시장2길 5 4호",
  "combination": "수동",
  "lat": 35.099678,
  "lng": 129.0284
 },
 {
  "name": "동산병원앞토큰판매소",
  "address": "대구 중구 동산동  194동산병원앞토큰판매",
  "combination": "자동",
  "lat": 35.868584,
  "lng": 128.5834
 },
 {
  "name": "대박나라복권방",
  "address": "인천 서구 가정로 120-1",
  "combination": "수동",
  "lat": 37.495422,
  "lng": 126.67178
 },
 {
  "name": "오렌지24시원당점",
  "address": "경기 고양시 덕양구 성사동 702-81층점포1호1",
  "combination": "자동",
  "lat": 37.6496,
  "lng": 126.89644
 },
 {
  "name": "코사마트",
  "address": "경기 부천시 오정로 203,(내동)",
  "combination": "자동",
  "lat": 37.52708,
  "lng": 126.78259
 },
 {
  "name": "행운복권",
  "address": "충북 제천시 명륜로 67 1층",
  "combination": "자동",
  "lat": 37.142334,
  "lng": 128.20863
 },
 {
  "name": "KOREA마트",
  "address": "경북 구미시 구미중앙로42길 7",
  "combination": "수동",
  "lat": 36.120502,
  "lng": 128.3523
 },
 {
  "name": "동원복권",
  "address": "경남 양산시 북정중앙로 30",
  "combination": "수동",
  "lat": 35.36137,
  "lng": 129.04784
 }
]