[
 {
  "name": "행운찬스복권방",
  "address": "서울 강북구 덕릉로 140",
  "combination": "수동",
  "lat": 37.63495,
  "lng": 127.029434
 },
 {
  "name": "굿타임",
  "address": "서울 서대문구 연희로 36,(연희동)",
  "combination": "자동",
  "lat": 37.561817,
  "lng": 126.927475
 },
 {
  "name": "월드24시",
  "address": "서울 은평구 통일로 855-15",
  "combination": "수동",
  "lat": 37.61925,
  "lng": 126.919785
 },
 {
  "name": "복권명당율하점",
  "address": "대구 동구 율하동로23길 37",
  "combination": "수동",
  "lat": 35.87035,
  "lng": 128.69803
 },
 {
  "name": "로또복권방",
  "address": "경기 군포시 산본로323번길 16-6 신명타워 신명빌딩1층1005호",
  "combination": "자동",
  "lat": 37.359245,
  "lng": 126.93236
 },
 {
  "name": "역곡중앙슈퍼",
  "address": "경기 부천시 원미구 역곡동 79-5",
  "combination": "자동",
  "lat": 37.48525,
  "lng": 126.81027
 },
 {
  "name": "온누리로또",
  "address": "경기 수원시 권선구 세류동 1075-2 1층",
  "combination": "자동",
  "lat": 37.25713,
  "lng": 127.017456
 },
 {
  "name": "백만장자",
  "address": "경기 용인시 기흥구 흥덕2로105번길 6 흥덕U프라자 흥덕유프라자111호",
  "combination": "수동",
  "lat": 37.27728,
  "lng": 127.07333
 },
 {
  "name": "이삭",
  "address": "전남 목포시 남악2로 54 남악프라자A동103호",
  "combination": "자동",
  "lat": 34.809925,
  "lng": 126.45526
 }
]