[
 {
  "name": "GS25(청담중앙점)",
  "address": "서울 강남구 청담동  21-9",
  "combination": "자동",
  "lat": 37.522636,
  "lng": 127.04216
 },
 {
  "name": "종합가판점",
  "address": "서울 동대문구 왕산로40길 6 건물 앞쪽 가판점 청량리역 5번출구 앞쪽",
  "combination": "자동",
  "lat": 37.579697,
  "lng": 127.04497
 },
 {
  "name": "명당복권",
  "address": "서울 동대문구 왕산로 112-1 가판",
  "combination": "자동",
  "lat": 37.577915,
  "lng": 127.035774
 },
 {
  "name": "복권나라",
  "address": "부산 동구 범일동  44-13",
  "combination": "자동",
  "lat": 35.141685,
  "lng": 129.05537
 },
 {
  "name": "영화유통(1등복권방)",
  "address": "울산 남구 신정로 19 삼성아파트 상가 204-101",
  "combination": "자동",
  "lat": 35.533833,
  "lng": 129.32205
 },
 {
  "name": "GS25(구리공원)",
  "address": "경기 구리시 수택동  876",
  "combination": "자동",
  "lat": 37.586742,
  "lng": 127.13976
 },
 {
  "name": "24시슈퍼",
  "address": "경기 군포시 번영로 497 금화프라자 금화프라자102호",
  "combination": "자동",
  "lat": 37.358295,
  "lng": 126.93227
 },
 {
  "name": "김포로또",
  "address": "경기 김포시 돌문로 48 한솔프라자101",
  "combination": "자동",
  "lat": 37.619404,
  "lng": 126.71802
 },
 {
  "name": "종합슈퍼마트",
  "address": "경기 성남시 분당구 야탑동 151테크노파크상가109호",
  "combination": "수동",
  "lat": 37.40409,
  "lng": 127.15081
 },
 {
  "name": "복권나라",
  "address": "경기 의왕시 부곡중앙로 3-2 의왕역로터리앞",
  "combination": "자동",
  "lat": 37.321228,
  "lng": 126.949326
 },
 {
  "name": "GS25(창원코아)",
  "address": "경남 창원시 성산구 중앙동 84-1",
  "combination": "수동",
  "lat": 35.226273,
  "lng": 128.67802
 }
]