[
 {
  "name": "대박복권방",
  "address": "서울 양천구 오목로 233 1층1호",
  "combination": "자동",
  "lat": 37.52613,
  "lng": 126.863304
 },
 {
  "name": "마두역상행선가판대",
  "address": "경기 고양시 일산동구 중앙로 1181 교보생명 일산사옥 마두역상행선가판대",
  "combination": "자동",
  "lat": 37.65222,
  "lng": 126.77706
 },
 {
  "name": "ING",
  "address": "경기 안양시 만안구 안양로 97 1층",
  "combination": "자동",
  "lat": 37.383656,
  "lng": 126.93364
 },
 {
  "name": "예술로또",
  "address": "강원 영월군 중앙로 44",
  "combination": "자동",
  "lat": 37.18335,
  "lng": 128.46846
 },
 {
  "name": "100억만들기",
  "address": "전북 전주시 완산구 평화18길 23-4",
  "combination": "자동",
  "lat": 35.794643,
  "lng": 127.13372
 },
 {
  "name": "25시슈퍼",
  "address": "경남 창원시 마산회원구 봉양로 75-5",
  "combination": "자동",
  "lat": 35.221214,
  "lng": 128.59532
 }
]