[
 {
  "name": "행운의집",
  "address": "서울 강동구 구천면로 220",
  "combination": "수동",
  "lat": 37.540466,
  "lng": 127.1292
 },
 {
  "name": "한양슈퍼체인",
  "address": "서울 성북구 지봉로24길 65",
  "combination": "수동",
  "lat": 37.582336,
  "lng": 127.020454
 },
 {
  "name": "대박복권방",
  "address": "부산 해운대구 재반로 209-1 7통6반",
  "combination": "수동",
  "lat": 35.196014,
  "lng": 129.13062
 },
 {
  "name": "역전식품",
  "address": "인천 남구 도화동  80-83",
  "combination": "자동",
  "lat": 37.467224,
  "lng": 126.65607
 },
 {
  "name": "천하명당(염포점)",
  "address": "울산 북구 염포로 643",
  "combination": "자동",
  "lat": 35.534893,
  "lng": 129.38977
 },
 {
  "name": "화정역 4번출구",
  "address": "경기 고양시 덕양구 화정로 53 새롬프라자1층 112호",
  "combination": "수동",
  "lat": 37.63517,
  "lng": 126.83188
 },
 {
  "name": "대박복권방",
  "address": "경기 부천시 고리울로 51 고강빌딩1층",
  "combination": "수동",
  "lat": 37.527355,
  "lng": 126.8216
 },
 {
  "name": "버스매표소",
  "address": "경기 부천시 부천로 32 도로부지",
  "combination": "수동",
  "lat": 37.487022,
  "lng": 126.783676
 },
 {
  "name": "천하명당복권방",
  "address": "경기 수원시 팔달구 매산로 2",
  "combination": "수동",
  "lat": 37.26661,
  "lng": 127.00185
 },
 {
  "name": "열두보석복권방",
  "address": "경기 용인시 기흥구 구갈로 74 구갈스포츠센타 구갈스포츠센터106호",
  "combination": "수동",
  "lat": 37.281136,
  "lng": 127.11181
 },
 {
  "name": "베스트올수성점",
  "address": "전북 정읍시 수성2로 28",
  "combination": "자동",
  "lat": 35.58169,
  "lng": 126.854416
 },
 {
  "name": "행운로또복권방",
  "address": "전남 광양시 대림오성로 146-1",
  "combination": "수동",
  "lat": 34.964733,
  "lng": 127.57778
 }
]