[
 {
  "name": "충남상회",
  "address": "서울 중구 마장로9길 49-19",
  "combination": "자동",
  "lat": 37.570137,
  "lng": 127.0184
 },
 {
  "name": "뉴빅마트",
  "address": "부산 기장군 정관중앙로 48 106호",
  "combination": "수동",
  "lat": 35.321114,
  "lng": 129.17929
 },
 {
  "name": "뉴빅마트",
  "address": "부산 기장군 정관중앙로 48 106호",
  "combination": "수동",
  "lat": 35.321114,
  "lng": 129.17929
 },
 {
  "name": "동원드림마트",
  "address": "부산 동구 고관로 173 동원드림타운상가104동101호",
  "combination": "자동",
  "lat": 35.132507,
  "lng": 129.05078
 },
 {
  "name": "GS25(칠곡미래)",
  "address": "대구 북구 국우동  1100-7",
  "combination": "자동",
  "lat": 35.943455,
  "lng": 128.57077
 },
 {
  "name": "로또슈퍼",
  "address": "광주 서구 상일로 37 모아제일아파트상가1층102호",
  "combination": "자동",
  "lat": 35.15875,
  "lng": 126.8621
 },
 {
  "name": "행운복권",
  "address": "경기 군포시 곡란로 24 매화아파트상가 108호",
  "combination": "자동",
  "lat": 37.374775,
  "lng": 126.93609
 },
 {
  "name": "둔전행운복권방",
  "address": "경기 용인시 처인구 포곡로 110",
  "combination": "자동",
  "lat": 37.26922,
  "lng": 127.21764
 },
 {
  "name": "행운복권방",
  "address": "경기 의정부시 충의로 55",
  "combination": "자동",
  "lat": 37.73674,
  "lng": 127.08712
 },
 {
  "name": "복권닷컴",
  "address": "강원 양양군 양양로 62",
  "combination": "수동",
  "lat": 38.075512,
  "lng": 128.62233
 },
 {
  "name": "하나로슈퍼",
  "address": "충남 보령시 주공로 65",
  "combination": "자동",
  "lat": 36.34183,
  "lng": 126.60737
 },
 {
  "name": "신천하명당",
  "address": "충남 예산군 발연로 1 이마트 24 내",
  "combination": "수동",
  "lat": 36.698784,
  "lng": 126.8296
 },
 {
  "name": "행운복권방",
  "address": "경남 양산시 덕계로 27",
  "combination": "수동",
  "lat": 35.37093,
  "lng": 129.1485
 }
]