[
 {
  "name": "강일코사할인마트",
  "address": "서울 강동구 고덕로97길 29 강일리버파크9단지아파트 105호",
  "combination": "자동",
  "lat": 37.55984,
  "lng": 127.1788
 },
 {
  "name": "GS25(구로제일)",
  "address": "서울 구로구 구로동  685-215103호",
  "combination": "자동",
  "lat": 37.49201,
  "lng": 126.87578
 },
 {
  "name": "교통카드판매대",
  "address": "서울 구로구 경인로 661",
  "combination": "자동",
  "lat": 37.50941,
  "lng": 126.88772
 },
 {
  "name": "지원물산",
  "address": "서울 노원구 공릉로 108,(공릉동)",
  "combination": "수동",
  "lat": 37.61983,
  "lng": 127.078094
 },
 {
  "name": "돈벼락맞는곳",
  "address": "부산 동구 조방로49번길 18-1",
  "combination": "자동",
  "lat": 35.139168,
  "lng": 129.05995
 },
 {
  "name": "A복권방",
  "address": "대구 달서구 본리동  1199-8번지1층",
  "combination": "자동",
  "lat": 35.840054,
  "lng": 128.5304
 },
 {
  "name": "노다지복권방",
  "address": "인천 미추홀구 한나루로 400 학익시장 외7필지125호",
  "combination": "자동",
  "lat": 37.443375,
  "lng": 126.66496
 },
 {
  "name": "25시슈퍼",
  "address": "경기 시흥시 함송로14번길 13-17 홍익프라자1층107호",
  "combination": "수동",
  "lat": 37.362453,
  "lng": 126.72994
 },
 {
  "name": "평택로또판매",
  "address": "경기 평택시 비전5로 7 중앙프라자 105호",
  "combination": "자동",
  "lat": 36.9969,
  "lng": 127.09144
 },
 {
  "name": "한아름매점",
  "address": "충남 홍성군 광천로 330",
  "combination": "자동",
  "lat": 36.503197,
  "lng": 126.62555
 },
 {
  "name": "나주복권방",
  "address": "전남 나주시 우정로 56 에이동 108호(빛가람동)",
  "combination": "자동",
  "lat": 35.02372,
  "lng": 126.78559
 }
]