[
 {
  "name": "CU(타워팰리스점)",
  "address": "서울 강남구 언주로30길 56",
  "combination": "자동",
  "lat": 37.488213,
  "lng": 127.05441
 },
 {
  "name": "한경종합광고",
  "address": "서울 송파구 백제고분로 198 정민빌딩",
  "combination": "자동",
  "lat": 37.50393,
  "lng": 127.08855
 },
 {
  "name": "대영당안경원",
  "address": "부산 동래구 충렬대로237번길 9,(수안동)",
  "combination": "자동",
  "lat": 35.201954,
  "lng": 129.08519
 },
 {
  "name": "행복로또",
  "address": "광주 동구 남문로 699 행복로또",
  "combination": "수동",
  "lat": 35.13296,
  "lng": 126.92802
 },
 {
  "name": "프로피스",
  "address": "경기 구리시 이문안로 11,(교문동)",
  "combination": "자동",
  "lat": 37.592052,
  "lng": 127.13251
 }
]