[
 {
  "name": "천하명당초량점",
  "address": "부산 동구 중앙대로221번길 3",
  "combination": "자동",
  "lat": 35.116898,
  "lng": 129.04013
 },
 {
  "name": "오천억복권방",
  "address": "광주 서구 상무대로 1087",
  "combination": "자동",
  "lat": 35.15296,
  "lng": 126.880745
 },
 {
  "name": "노다지복권방",
  "address": "경기 오산시 오산로 298-1",
  "combination": "수동",
  "lat": 37.1541,
  "lng": 127.068794
 },
 {
  "name": "열두보석복권방",
  "address": "경기 용인시 기흥구 구갈로 74 구갈스포츠센타 구갈스포츠센터106호",
  "combination": "자동",
  "lat": 37.281136,
  "lng": 127.11181
 },
 {
  "name": "봉담복자리복권과편의점",
  "address": "경기 화성시 삼천병마로 1276",
  "combination": "자동",
  "lat": 37.219654,
  "lng": 126.94878
 },
 {
  "name": "황금로또",
  "address": "강원 원주시 현충로318번길 35 1층",
  "combination": "자동",
  "lat": 37.381992,
  "lng": 127.950325
 },
 {
  "name": "행운복권방",
  "address": "강원 인제군 북면 금강로 23 1층",
  "combination": "자동",
  "lat": 38.122444,
  "lng": 128.2068
 },
 {
  "name": "강원복권방",
  "address": "세종 조치원읍 조치원로 46-1,(상리)",
  "combination": "수동",
  "lat": 36.601658,
  "lng": 127.30193
 }
]