[
 {
  "name": "단골집편의점",
  "address": "서울 강동구 구천면로 194",
  "combination": "자동",
  "lat": 37.540585,
  "lng": 127.12622
 },
 {
  "name": "태광통신",
  "address": "서울 성북구 동소문로 248 105동 1층 1호",
  "combination": "자동",
  "lat": 37.602764,
  "lng": 127.02375
 },
 {
  "name": "증산점로또판매",
  "address": "서울 은평구 증산동  189-3",
  "combination": "자동",
  "lat": 37.585514,
  "lng": 126.90847
 },
 {
  "name": "백금당",
  "address": "부산 중구 중구로29번길 26",
  "combination": "자동",
  "lat": 35.100513,
  "lng": 129.02731
 },
 {
  "name": "자유극장옆토큰판매소",
  "address": "대구 중구 중앙대로 446-2",
  "combination": "수동",
  "lat": 35.872856,
  "lng": 128.59453
 },
 {
  "name": "GS25(계산동경)",
  "address": "인천 계양구 계산동  1076-7번지도쿄프라자1층2호",
  "combination": "수동",
  "lat": 37.53578,
  "lng": 126.73629
 },
 {
  "name": "대박찬스복권전문점",
  "address": "경기 포천시 소흘읍  송우리    452-9",
  "combination": "수동",
  "lat": 37.82579,
  "lng": 127.14409
 },
 {
  "name": "대박행운복권방",
  "address": "충남 아산시 온천대로 104 서해안 휴게소내 편의점",
  "combination": "자동",
  "lat": 36.746223,
  "lng": 126.86672
 }
]