[
 {
  "name": "로또복권방",
  "address": "서울 강남구 강남대로122길 50 상명빌딩 103호",
  "combination": "자동",
  "lat": 37.508858,
  "lng": 127.027054
 },
 {
  "name": "나라시스컴",
  "address": "서울 영등포구 영등포동5가  18-58번지영신상가1호",
  "combination": "수동",
  "lat": 37.519783,
  "lng": 126.9067
 },
 {
  "name": "운수대통복권방",
  "address": "부산 부산진구 전포대로200번길 13",
  "combination": "자동",
  "lat": 35.154648,
  "lng": 129.0664
 },
 {
  "name": "행운복권방",
  "address": "부산 중구 구덕로 47",
  "combination": "자동",
  "lat": 35.09806,
  "lng": 129.03053
 },
 {
  "name": "은하로또(상인점)",
  "address": "대구 달서구 월배로 105 1층101호",
  "combination": "자동",
  "lat": 35.81452,
  "lng": 128.52594
 },
 {
  "name": "탑포인트부평점",
  "address": "인천 부평구 부평동  557-1번지1층",
  "combination": "자동",
  "lat": 37.492844,
  "lng": 126.72959
 },
 {
  "name": "유공자로또방",
  "address": "대전 중구 오류동  149-29번지",
  "combination": "자동",
  "lat": 36.323357,
  "lng": 127.41048
 },
 {
  "name": "달동복권점",
  "address": "울산 남구 달동  592-1번지상가 101호",
  "combination": "자동",
  "lat": 35.537045,
  "lng": 129.32385
 },
 {
  "name": "굳프렌즈일산현대-24시편의점",
  "address": "경기 고양시 일산서구 일청로 40-1 1층",
  "combination": "수동",
  "lat": 37.687454,
  "lng": 126.77226
 },
 {
  "name": "역전광장상회",
  "address": "경기 파주시 금촌1동  329-19번지",
  "combination": "수동",
  "lat": 37.765278,
  "lng": 126.77464
 },
 {
  "name": "오뚜기복권방",
  "address": "충남 아산시 온천대로 1094",
  "combination": "자동",
  "lat": 36.78465,
  "lng": 126.96118
 }
]