[
 {
  "name": "티켓코리아",
  "address": "서울 강남구 논현로72길 20 1층 102호",
  "combination": "자동",
  "lat": 37.495804,
  "lng": 127.04116
 },
 {
  "name": "하프타임(괴정점)",
  "address": "부산 사하구 승학로284번길 42",
  "combination": "자동",
  "lat": 35.102444,
  "lng": 128.9978
 },
 {
  "name": "하단복권",
  "address": "부산 사하구 당리동  304-3번지인더코너편의점",
  "combination": "수동",
  "lat": 35.105415,
  "lng": 128.96988
 },
 {
  "name": "세원로또복권방",
  "address": "부산 수영구 수영로725번길 53 수영 엔스타Ⅱ 101호",
  "combination": "자동",
  "lat": 35.16832,
  "lng": 129.11609
 },
 {
  "name": "복권왕국",
  "address": "인천 동구 화평동  449-2번지",
  "combination": "자동",
  "lat": 37.477715,
  "lng": 126.63101
 },
 {
  "name": "노다지복권방",
  "address": "울산 남구 두왕로 188 우주상가3호",
  "combination": "자동",
  "lat": 35.519367,
  "lng": 129.31198
 },
 {
  "name": "까치복권방",
  "address": "경기 시흥시 중심상가로 326 1층102",
  "combination": "수동",
  "lat": 37.336678,
  "lng": 126.74821
 },
 {
  "name": "서정천하명당",
  "address": "경기 평택시 송탄로 160",
  "combination": "수동",
  "lat": 37.058094,
  "lng": 127.05932
 },
 {
  "name": "복권나라",
  "address": "경기 포천시 죽엽산로35번길 1",
  "combination": "수동",
  "lat": 37.826786,
  "lng": 127.152664
 },
 {
  "name": "복권명당",
  "address": "충남 공주시 번영1로 41",
  "combination": "자동",
  "lat": 36.471832,
  "lng": 127.13313
 }
]