[
 {
  "name": "평강슈퍼",
  "address": "서울 노원구 노해로75길 14-2 중앙빌딩1층",
  "combination": "자동",
  "lat": 37.654274,
  "lng": 127.0576
 },
 {
  "name": "영광정보통신",
  "address": "서울 성북구 화랑로 92 1층 우측1호",
  "combination": "자동",
  "lat": 37.602676,
  "lng": 127.0425
 },
 {
  "name": "세원로또복권방",
  "address": "부산 수영구 수영로725번길 53 수영 엔스타Ⅱ 101호",
  "combination": "자동",
  "lat": 35.16832,
  "lng": 129.11609
 },
 {
  "name": "한꿈복권방",
  "address": "울산 중구 번영로 586",
  "combination": "자동",
  "lat": 35.568794,
  "lng": 129.34589
 },
 {
  "name": "돼지복권",
  "address": "충북 청주시 흥덕구 사직동 236-17번지청주대교 앞",
  "combination": "자동",
  "lat": 36.63657,
  "lng": 127.48265
 },
 {
  "name": "CU(전주우아점)",
  "address": "전북 전주시 덕진구 우아로 10",
  "combination": "자동",
  "lat": 35.848957,
  "lng": 127.15696
 }
]