[
 {
  "name": "월드24시",
  "address": "서울 은평구 통일로 855-15",
  "combination": "자동",
  "lat": 37.61925,
  "lng": 126.919785
 },
 {
  "name": "행운복권방",
  "address": "서울 중랑구 면목로 423  1층",
  "combination": "자동",
  "lat": 37.589806,
  "lng": 127.08696
 },
 {
  "name": "GS25(뉴둔산타운)",
  "address": "대전 서구 둔산동  1095번지하이스트빌1층104호",
  "combination": "자동",
  "lat": 36.351566,
  "lng": 127.37402
 },
 {
  "name": "노다지복권방",
  "address": "경기 용인시 처인구 금령로 130",
  "combination": "자동",
  "lat": 37.23509,
  "lng": 127.2105
 },
 {
  "name": "팡팡복권방",
  "address": "충북 진천군 상산로 71",
  "combination": "수동",
  "lat": 36.854687,
  "lng": 127.44187
 },
 {
  "name": "행운복권",
  "address": "경북 구미시 진평동  119-2번지JM편의점 내",
  "combination": "자동",
  "lat": 36.094147,
  "lng": 128.42616
 },
 {
  "name": "복권일번지",
  "address": "경북 상주시 중앙로 250-1",
  "combination": "자동",
  "lat": 36.4158,
  "lng": 128.16591
 },
 {
  "name": "성원마트",
  "address": "경남 창원시 성산구 대정로 73 성원1차상가120호 이마트24",
  "combination": "자동",
  "lat": 35.211075,
  "lng": 128.70038
 }
]