[
 {
  "name": "유림상사",
  "address": "서울 구로구 신도림동  431-9번지",
  "combination": "수동",
  "lat": 37.511963,
  "lng": 126.88423
 },
 {
  "name": "GS25(계산동경)",
  "address": "인천 계양구 계산동  1076-7번지도쿄프라자1층2호",
  "combination": "자동",
  "lat": 37.53578,
  "lng": 126.73629
 },
 {
  "name": "GS25(분당매화)",
  "address": "경기 성남시 분당구 야탑동 275-4번지성원프라자103호",
  "combination": "자동",
  "lat": 37.41165,
  "lng": 127.13803
 },
 {
  "name": "행운이랑대박이랑",
  "address": "경기 수원시 장안구 만석로 99 정자부동산",
  "combination": "자동",
  "lat": 37.298912,
  "lng": 126.99204
 },
 {
  "name": "샘내로또판매",
  "address": "경기 양주시 산북동  333-13",
  "combination": "수동",
  "lat": 37.805496,
  "lng": 127.045364
 },
 {
  "name": "찬스365",
  "address": "경기 양평군 양서면  양수리562-6번지",
  "combination": "자동",
  "lat": 37.54478,
  "lng": 127.31804
 },
 {
  "name": "로또복권방",
  "address": "경기 의정부시 평화로 223,(호원동)",
  "combination": "자동",
  "lat": 37.711746,
  "lng": 127.04727
 },
 {
  "name": "올인(allin)",
  "address": "경기 화성시 3.1만세로 1147",
  "combination": "자동",
  "lat": 37.135284,
  "lng": 126.910614
 },
 {
  "name": "천안역로또토토복권방",
  "address": "충남 천안시 동남구 대흥로 237 아시아마트내",
  "combination": "자동",
  "lat": 36.809166,
  "lng": 127.14774
 },
 {
  "name": "텔레콤\u0026로또",
  "address": "전남 장성군 장성읍  영천리944-6번지",
  "combination": "자동",
  "lat": 35.299007,
  "lng": 126.78168
 }
]