[
 {
  "name": "럭키슈퍼",
  "address": "서울 양천구 중앙로 251 101호",
  "combination": "자동",
  "lat": 37.51867,
  "lng": 126.85318
 },
 {
  "name": "왕대박복권",
  "address": "인천 부평구 동수천로 108 1층",
  "combination": "자동",
  "lat": 37.495102,
  "lng": 126.73705
 },
 {
  "name": "로또복권문수점",
  "address": "울산 남구 무거동  1195-9번지CU마트점포 내",
  "combination": "자동",
  "lat": 35.551674,
  "lng": 129.27457
 },
 {
  "name": "버스표판매소 로또판매점",
  "address": "경기 고양시 덕양구 토당동 799-46능곡역앞",
  "combination": "자동",
  "lat": 37.624477,
  "lng": 126.82043
 },
 {
  "name": "성진",
  "address": "경기 성남시 수정구 모란로 91",
  "combination": "자동",
  "lat": 37.44118,
  "lng": 127.125694
 },
 {
  "name": "GS25(안산산호)",
  "address": "경기 안산시 단원구 선부동 1081번지산호한양상가101호",
  "combination": "자동",
  "lat": 37.336678,
  "lng": 126.81326
 },
 {
  "name": "모현복권방 및 편의점",
  "address": "경기 용인시 처인구 백옥대로 2383",
  "combination": "자동",
  "lat": 37.336582,
  "lng": 127.24914
 },
 {
  "name": "CU(원주무실점)",
  "address": "강원 원주시 무실동  1641-10번지애드피아빌딩 103호",
  "combination": "수동",
  "lat": 37.33639,
  "lng": 127.92798
 },
 {
  "name": "로또명당인주점",
  "address": "충남 아산시 서해로 519-2",
  "combination": "자동",
  "lat": 36.87784,
  "lng": 126.89828
 },
 {
  "name": "플러스하나",
  "address": "전남 순천시 비봉길 6 상가동 1층 107호",
  "combination": "수동",
  "lat": 34.93302,
  "lng": 127.48947
 },
 {
  "name": "동원복권",
  "address": "경남 양산시 북정중앙로 30",
  "combination": "자동",
  "lat": 35.36137,
  "lng": 129.04784
 }
]