[
 {
  "name": "오렌지로또",
  "address": "부산 부산진구 복지로 77 1층 오렌지데이",
  "combination": "자동",
  "lat": 35.146362,
  "lng": 129.01993
 },
 {
  "name": "대박유통",
  "address": "부산 중구 구덕로 80 1층",
  "combination": "자동",
  "lat": 35.097702,
  "lng": 129.02716
 },
 {
  "name": "천하명당",
  "address": "경기 안양시 동안구 부림로 121 동아프라자아케이드 제125,제126",
  "combination": "자동",
  "lat": 37.39411,
  "lng": 126.96444
 },
 {
  "name": "삼거리복권방",
  "address": "경기 파주시 광탄면  신산2리358-33번지",
  "combination": "수동",
  "lat": 37.78326,
  "lng": 126.84602
 },
 {
  "name": "올인(allin)",
  "address": "경기 화성시 3.1만세로 1147",
  "combination": "수동",
  "lat": 37.135284,
  "lng": 126.910614
 },
 {
  "name": "88마트",
  "address": "전남 보성군 채동선로 244 1층",
  "combination": "수동",
  "lat": 34.76749,
  "lng": 127.08514
 },
 {
  "name": "환희복권방",
  "address": "경북 포항시 남구 상공로 243 1층 복권방",
  "combination": "자동",
  "lat": 36.02332,
  "lng": 129.37222
 },
 {
  "name": "돈벼락맞는곳",
  "address": "경남 김해시 한림면  병동리    980-7",
  "combination": "수동",
  "lat": 35.293262,
  "lng": 128.78296
 },
 {
  "name": "복권방",
  "address": "경남 창원시 마산합포구 어시장7길 18 회상가 중앙상가 1호",
  "combination": "수동",
  "lat": 35.201122,
  "lng": 128.57419
 },
 {
  "name": "경일통신",
  "address": "경남 창원시 마산회원구 북성로 340",
  "combination": "수동",
  "lat": 35.23382,
  "lng": 128.56064
 }
]