[
 {
  "name": "우일",
  "address": "서울 송파구 마천로 235",
  "combination": "자동",
  "lat": 37.49996,
  "lng": 127.14397
 },
 {
  "name": "대구연쇄점",
  "address": "부산 부산진구 중앙대로783번길 8",
  "combination": "수동",
  "lat": 35.162384,
  "lng": 129.06238
 },
 {
  "name": "GS25(서면새싹)",
  "address": "부산 부산진구 새싹로14번길 13",
  "combination": "자동",
  "lat": 35.159702,
  "lng": 129.05853
 },
 {
  "name": "천하명당복권",
  "address": "대구 북구 칠곡중앙대로 545,(읍내동)",
  "combination": "자동",
  "lat": 35.94432,
  "lng": 128.55064
 },
 {
  "name": "타임마트",
  "address": "대전 서구 동서대로 696 프라임빌딩2차 1층 102호",
  "combination": "자동",
  "lat": 36.331818,
  "lng": 127.3402
 },
 {
  "name": "원당역복권방",
  "address": "경기 고양시 덕양구 성사동 410-17번지",
  "combination": "자동",
  "lat": 37.653427,
  "lng": 126.843094
 },
 {
  "name": "대박DREAM",
  "address": "경기 광명시 광명로928번길 10",
  "combination": "수동",
  "lat": 37.481285,
  "lng": 126.85637
 },
 {
  "name": "천하명당",
  "address": "강원 강릉시 주문진읍 연주로 310-1 복권판매점",
  "combination": "자동",
  "lat": 37.884453,
  "lng": 128.81941
 },
 {
  "name": "행운의집",
  "address": "경북 안동시 북문동  23-7번지",
  "combination": "수동",
  "lat": 36.566982,
  "lng": 128.7295
 }
]