[
 {
  "name": "오늘을잡아라",
  "address": "서울 도봉구  창동 창동  74-5번지신원빌딩1층",
  "combination": "수동",
  "lat": 37.652683,
  "lng": 127.04636
 },
 {
  "name": "복권나라",
  "address": "서울 송파구 백제고분로32길 23 1층복권나라",
  "combination": "자동",
  "lat": 37.500347,
  "lng": 127.095024
 },
 {
  "name": "로또복권",
  "address": "대구 동구 아양로 294 1층",
  "combination": "자동",
  "lat": 35.88992,
  "lng": 128.6426
 },
 {
  "name": "삼정로또복권방",
  "address": "광주 북구 삼정로 10 두암주공4단지아파트 주공4단지 1층 우리마트",
  "combination": "수동",
  "lat": 35.162807,
  "lng": 126.937965
 },
 {
  "name": "영화모음",
  "address": "경기 수원시 장안구 금당로39번길 6 뉴타운프라자A-107",
  "combination": "자동",
  "lat": 37.30316,
  "lng": 127.0161
 },
 {
  "name": "Letsgo복권유통",
  "address": "전북 전주시 덕진구 무삼지로 29",
  "combination": "수동",
  "lat": 35.82817,
  "lng": 127.16468
 },
 {
  "name": "행운의집",
  "address": "경북 안동시  북문동 북문동 23-7번지",
  "combination": "자동",
  "lat": 36.566982,
  "lng": 128.7295
 },
 {
  "name": "구산복권방",
  "address": "경남 김해시  구산동 구산동 481-3번지보보스빌딩108호",
  "combination": "자동",
  "lat": 35.25086,
  "lng": 128.87222
 }
]