[
 {
  "name": "CU(수유대로점)",
  "address": "서울 강북구 노해로 121 두울빌딩",
  "combination": "자동",
  "lat": 37.64605,
  "lng": 127.0244
 },
 {
  "name": "가판점1호",
  "address": "서울 마포구 합정동  383-14번지",
  "combination": "자동",
  "lat": 37.549137,
  "lng": 126.912224
 },
 {
  "name": "주안로또",
  "address": "인천 부평구  부평1동 부평1동 529-40번지동아웰빙타운내추럴편의점내109",
  "combination": "자동",
  "lat": 37.498314,
  "lng": 126.721054
 },
 {
  "name": "현대슈퍼",
  "address": "광주 서구 상무대로 871",
  "combination": "자동",
  "lat": 35.150524,
  "lng": 126.857315
 },
 {
  "name": "대박로또판매점",
  "address": "경기 수원시 장안구 서부로 2129-1 태양공예가구",
  "combination": "자동",
  "lat": 37.298717,
  "lng": 126.97125
 },
 {
  "name": "복권마당",
  "address": "경기 연천군 전곡읍 전곡로144번길 10 1층",
  "combination": "자동",
  "lat": 38.02512,
  "lng": 127.0694
 },
 {
  "name": "오창중앙복권",
  "address": "충북 청주시 청원구 중심상업로 47 103호",
  "combination": "수동",
  "lat": 36.715076,
  "lng": 127.42894
 },
 {
  "name": "세방매점",
  "address": "경북 경주시 산업로 4447 (용강동)",
  "combination": "자동",
  "lat": 35.877205,
  "lng": 129.22649
 }
]