[
 {
  "name": "스파",
  "address": "서울 노원구 동일로 1493 상계주공아파트(10단지) 주공10단지종합상가111",
  "combination": "수동",
  "lat": 37.66166,
  "lng": 127.05787
 },
 {
  "name": "교통카드판매대",
  "address": "서울 송파구 송파대로28길 27 송파성원쌍떼빌 공영주차장앞가판",
  "combination": "수동",
  "lat": 37.495056,
  "lng": 127.120415
 },
 {
  "name": "가로판매점",
  "address": "서울 중구 서소문로 109",
  "combination": "수동",
  "lat": 37.563053,
  "lng": 126.97326
 },
 {
  "name": "로또복권",
  "address": "부산 남구 신선로 317-1",
  "combination": "수동",
  "lat": 35.11442,
  "lng": 129.09523
 },
 {
  "name": "훼미리로또",
  "address": "광주 남구 봉선로 164 삼환빌딩 CU봉선쌍용점 내",
  "combination": "자동",
  "lat": 35.122723,
  "lng": 126.91318
 },
 {
  "name": "파크애비뉴",
  "address": "경기 화성시 화성로 1215 가동 1호",
  "combination": "자동",
  "lat": 37.21417,
  "lng": 126.81631
 },
 {
  "name": "방아다리24시",
  "address": "충북 청주시 상당구 상당로 186",
  "combination": "수동",
  "lat": 36.644943,
  "lng": 127.48981
 },
 {
  "name": "복권명당",
  "address": "경북 경산시 경안로 214",
  "combination": "수동",
  "lat": 35.82663,
  "lng": 128.73682
 }
]