[
 {
  "name": "클린마트",
  "address": "서울 은평구 응암동  61-53번지 1층",
  "combination": "자동",
  "lat": 37.590263,
  "lng": 126.909645
 },
 {
  "name": "모아주류뱅크광화문점",
  "address": "서울 종로구 통의동  47번지",
  "combination": "수동",
  "lat": 37.576637,
  "lng": 126.97289
 },
 {
  "name": "오렌지데이연산제일점",
  "address": "부산 연제구 반송로 12 CU마트내 별도부스",
  "combination": "자동",
  "lat": 35.18666,
  "lng": 129.08276
 },
 {
  "name": "태양슈퍼마켓",
  "address": "부산 해운대구 신반송로 171 삼한115호",
  "combination": "자동",
  "lat": 35.227863,
  "lng": 129.1608
 },
 {
  "name": "서재강변로또",
  "address": "대구 달성군 다사읍 서재로 172,(서재리)",
  "combination": "수동",
  "lat": 35.878708,
  "lng": 128.49748
 },
 {
  "name": "인생대역전",
  "address": "인천 계양구 임학동  10-10번지",
  "combination": "자동",
  "lat": 37.545486,
  "lng": 126.7387
 },
 {
  "name": "럭키뱅크",
  "address": "대전 동구 계족로 491,(용전동)",
  "combination": "수동",
  "lat": 36.35568,
  "lng": 127.43251
 },
 {
  "name": "보람복권방",
  "address": "울산 남구 화합로 194 18-1",
  "combination": "수동",
  "lat": 35.541786,
  "lng": 129.34166
 },
 {
  "name": "행운복권",
  "address": "경기 군포시 곡란로 24 매화아파트상가 108호",
  "combination": "수동",
  "lat": 37.374775,
  "lng": 126.93609
 },
 {
  "name": "센타슈퍼",
  "address": "경기 안산시 상록구 광덕1로 369 센타프라자 센타프라자115호",
  "combination": "자동",
  "lat": 37.308113,
  "lng": 126.85044
 },
 {
  "name": "로또복권",
  "address": "경기 화성시 사강로 172",
  "combination": "자동",
  "lat": 37.21268,
  "lng": 126.73488
 }
]