[
 {
  "name": "복권",
  "address": "서울 관악구 낙성대역길 91 우선빌딩 1층",
  "combination": "수동",
  "lat": 37.474445,
  "lng": 126.96383
 },
 {
  "name": "현아상회",
  "address": "부산 남구 동명로145번길 3",
  "combination": "자동",
  "lat": 35.119755,
  "lng": 129.1127
 },
 {
  "name": "동명로또",
  "address": "부산 사상구 사상로 90",
  "combination": "수동",
  "lat": 35.155285,
  "lng": 128.99196
 },
 {
  "name": "홈돌이로또복권",
  "address": "인천 남동구 경원대로 971 삼성홈플러스간석점2층내",
  "combination": "수동",
  "lat": 37.46954,
  "lng": 126.68899
 },
 {
  "name": "럭키상사",
  "address": "인천 부평구 부평동  199-20번지 씨스페이스편의점내(가나베스텔105호)",
  "combination": "수동",
  "lat": 37.49354,
  "lng": 126.7233
 },
 {
  "name": "씽크로또",
  "address": "광주 서구 시청로 6 세븐일레븐편의점",
  "combination": "자동",
  "lat": 35.14898,
  "lng": 126.85214
 },
 {
  "name": "행복한집",
  "address": "경기 오산시 경기대로148번길 8,(원동)",
  "combination": "수동",
  "lat": 37.13778,
  "lng": 127.074196
 },
 {
  "name": "복권방",
  "address": "경기 하남시 신장로 122,(신장동)",
  "combination": "수동",
  "lat": 37.53804,
  "lng": 127.20478
 }
]