[
 {
  "name": "온라인복권방",
  "address": "서울 동대문구 용두동  9-2번지",
  "combination": "수동",
  "lat": 37.578262,
  "lng": 127.04298
 },
 {
  "name": "윈마트",
  "address": "서울 송파구 삼학사로16길 4 삼학사로 16길 우측 건물 1층",
  "combination": "수동",
  "lat": 37.503494,
  "lng": 127.09767
 },
 {
  "name": "복권나라",
  "address": "부산 동래구 반송로 347,(명장동)",
  "combination": "수동",
  "lat": 35.2102,
  "lng": 129.10445
 },
 {
  "name": "우리들마트",
  "address": "부산 동래구 온천장로119번길 20 10호(온천동, 온천아파트 점포)",
  "combination": "자동",
  "lat": 35.222446,
  "lng": 129.08429
 },
 {
  "name": "왕대박복권",
  "address": "대구 달성군 비슬로 2208",
  "combination": "자동",
  "lat": 35.78826,
  "lng": 128.46335
 },
 {
  "name": "1등복권방",
  "address": "울산 울주군 언양읍  남부리  126-1번지 세븐일레븐내",
  "combination": "수동",
  "lat": 35.56412,
  "lng": 129.12718
 },
 {
  "name": "나눔로또 스포츠토토(김포장기점)",
  "address": "경기 김포시 김포한강1로78번길 7 장기음식주차타운 1층 110호",
  "combination": "수동",
  "lat": 37.64487,
  "lng": 126.67066
 },
 {
  "name": "엘지25동명점",
  "address": "경기 안산시 단원구 선부광장로 27 122-2호",
  "combination": "수동",
  "lat": 37.33619,
  "lng": 126.81017
 },
 {
  "name": "주택복권",
  "address": "경기 이천시 영창로 187",
  "combination": "자동",
  "lat": 37.281433,
  "lng": 127.443436
 },
 {
  "name": "팡팡복권마트.잡화슈퍼",
  "address": "전북 전주시 덕진구 가리내로 26",
  "combination": "수동",
  "lat": 35.834366,
  "lng": 127.13327
 },
 {
  "name": "끌레리띠",
  "address": "경남 창원시 마산회원구 구암서6길 12",
  "combination": "수동",
  "lat": 35.2483,
  "lng": 128.59213
 }
]