[
 {
  "name": "9TO5공항점",
  "address": "서울 강서구 방화동로 14",
  "combination": "자동",
  "lat": 37.562405,
  "lng": 126.80923
 },
 {
  "name": "금정복권",
  "address": "부산 금정구 부곡동  296-100번지 1층 편의점내",
  "combination": "자동",
  "lat": 35.22598,
  "lng": 129.09067
 },
 {
  "name": "씨엔에스",
  "address": "대구 서구 비산동  1840-1번지",
  "combination": "수동",
  "lat": 35.884903,
  "lng": 128.55618
 },
 {
  "name": "복권명당",
  "address": "대구 수성구 수성로 337 1층 동북편상가",
  "combination": "자동",
  "lat": 35.85569,
  "lng": 128.61345
 },
 {
  "name": "훼미리마트송도프라자",
  "address": "인천 연수구 송도동  2-6번지 송도프라자108호",
  "combination": "자동",
  "lat": 37.395847,
  "lng": 126.65242
 },
 {
  "name": "유연마트",
  "address": "대전 동구 계족로 88",
  "combination": "수동",
  "lat": 36.32213,
  "lng": 127.4451
 },
 {
  "name": "금강종합공구",
  "address": "경기 김포시 대곶면  율생리  350-5번지",
  "combination": "자동",
  "lat": 37.652786,
  "lng": 126.59066
 },
 {
  "name": "대박행진 복권랜드.커피에 반하다",
  "address": "경기 파주시 금빛로 22 금촌프라자107호",
  "combination": "자동",
  "lat": 37.751614,
  "lng": 126.76691
 },
 {
  "name": "로또복권",
  "address": "경기 평택시 조개터로 17 1층 1호",
  "combination": "수동",
  "lat": 36.98888,
  "lng": 127.10167
 }
]