[
 {
  "name": "다터져복권방",
  "address": "서울 금천구 가산동  60-18번지 한신it타워2차101호",
  "combination": "자동",
  "lat": 37.449486,
  "lng": 126.905205
 },
 {
  "name": "패기통신",
  "address": "서울 도봉구 노해로 389 제일빌딩1층110호",
  "combination": "자동",
  "lat": 37.652767,
  "lng": 127.05134
 },
 {
  "name": "토큰판매소",
  "address": "서울 송파구 바람드리길 62",
  "combination": "수동",
  "lat": 37.536663,
  "lng": 127.12238
 },
 {
  "name": "토큰박스45",
  "address": "서울 중구 광희동1가  186-1번지",
  "combination": "수동",
  "lat": 37.564976,
  "lng": 127.00713
 },
 {
  "name": "GS25(터미널2)",
  "address": "부산 금정구 노포동  133번지 터미널내1층4호GS25종합터미널2호점",
  "combination": "수동",
  "lat": 35.28393,
  "lng": 129.09651
 },
 {
  "name": "마두역상행선가판대",
  "address": "경기 고양시 일산동구 중앙로 1181 교보생명 일산사옥 마두역상행선가판대",
  "combination": "수동",
  "lat": 37.65222,
  "lng": 126.77706
 },
 {
  "name": "천하명당복권방",
  "address": "경기 수원시 팔달구 효원로 36",
  "combination": "자동",
  "lat": 37.27039,
  "lng": 127.008736
 },
 {
  "name": "로또야놀자",
  "address": "경북 경주시 양정로 211,(동천동)",
  "combination": "자동",
  "lat": 35.85151,
  "lng": 129.22398
 }
]