[
 {
  "name": "로또복권",
  "address": "서울 광진구 긴고랑로 38",
  "combination": "수동",
  "lat": 37.562798,
  "lng": 127.08021
 },
 {
  "name": "대용상회",
  "address": "부산 금정구 노포동  16-6번지",
  "combination": "자동",
  "lat": 35.292843,
  "lng": 129.10025
 },
 {
  "name": "복권방",
  "address": "부산 부산진구 개금동  258-1번지 1층일부",
  "combination": "수동",
  "lat": 35.157005,
  "lng": 129.02504
 },
 {
  "name": "GS25(대구교대)",
  "address": "대구 남구 대명동  2007-6번지",
  "combination": "자동",
  "lat": 35.852573,
  "lng": 128.5909
 },
 {
  "name": "선봉로또",
  "address": "울산 남구 삼산동  1468-6번지 CU판매점 내",
  "combination": "자동",
  "lat": 35.543747,
  "lng": 129.33267
 },
 {
  "name": "오렌지통신",
  "address": "경기 성남시 수정구 고등동  404번지",
  "combination": "자동",
  "lat": 37.45513,
  "lng": 127.10651
 },
 {
  "name": "대박로또",
  "address": "경기 안산시 단원구 중앙대로 457 102호",
  "combination": "수동",
  "lat": 37.3282,
  "lng": 126.78997
 },
 {
  "name": "화천복권방",
  "address": "강원 화천군 화천읍  하리  43-28번지",
  "combination": "수동",
  "lat": 38.104836,
  "lng": 127.70451
 },
 {
  "name": "화천복권방",
  "address": "강원 화천군 화천읍  하리  43-28번지",
  "combination": "수동",
  "lat": 38.104836,
  "lng": 127.70451
 }
]