[
 {
  "name": "고마트 방화점",
  "address": "서울 강서구 방화동로 68 102호",
  "combination": "자동",
  "lat": 37.5664,
  "lng": 126.81278
 },
 {
  "name": "로또천국",
  "address": "서울 광진구 군자동  345번지",
  "combination": "자동",
  "lat": 37.5509,
  "lng": 127.070915
 },
 {
  "name": "흥인식품",
  "address": "서울 중구 흥인동  72번지",
  "combination": "자동",
  "lat": 37.565624,
  "lng": 127.01724
 },
 {
  "name": "노다지복권방",
  "address": "대전 동구 계족로 393",
  "combination": "수동",
  "lat": 36.346695,
  "lng": 127.43213
 },
 {
  "name": "금강종합공구",
  "address": "경기 김포시 대곶면  율생리  350-5번지",
  "combination": "자동",
  "lat": 37.652786,
  "lng": 126.59066
 },
 {
  "name": "대박복권방",
  "address": "경기 안양시 동안구 비산동  459-1번지",
  "combination": "자동",
  "lat": 37.39812,
  "lng": 126.93357
 },
 {
  "name": "노다지복권방서정지점",
  "address": "경기 평택시 서정역로 23",
  "combination": "수동",
  "lat": 37.0562,
  "lng": 127.05544
 },
 {
  "name": "썬마트",
  "address": "충북 청주시 흥덕구 진재로23번길 25",
  "combination": "자동",
  "lat": 36.632607,
  "lng": 127.42811
 },
 {
  "name": "로또천국",
  "address": "충북 충주시 금봉1길  48 1층",
  "combination": "자동",
  "lat": 36.981762,
  "lng": 127.91459
 },
 {
  "name": "충청복권전문점",
  "address": "충남 천안시 서북구 성환2로 108",
  "combination": "자동",
  "lat": 36.91694,
  "lng": 127.132835
 },
 {
  "name": "성심상회",
  "address": "경북 포항시 북구 불종로 78",
  "combination": "자동",
  "lat": 36.038174,
  "lng": 129.36801
 }
]