[
 {
  "name": "개봉학마을점로또판매",
  "address": "서울 구로구 개봉동  482번지 교육프라자101 102호",
  "combination": "수동",
  "lat": 37.50752,
  "lng": 126.84519
 },
 {
  "name": "부일카서비스",
  "address": "부산 동구 자성로133번길 35",
  "combination": "자동",
  "lat": 35.140015,
  "lng": 129.06306
 },
 {
  "name": "삼성소비자슈퍼",
  "address": "대전 중구 선화서로 128-1",
  "combination": "자동",
  "lat": 36.334328,
  "lng": 127.41397
 },
 {
  "name": "올인(allin)",
  "address": "경기 화성시 3.1만세로 1147",
  "combination": "수동",
  "lat": 37.135284,
  "lng": 126.910614
 },
 {
  "name": "조치원복권방",
  "address": "세종   조치원로 9-1",
  "combination": "수동",
  "lat": 36.601532,
  "lng": 127.29785
 },
 {
  "name": "구례로또",
  "address": "전남 구례군 구례읍 로터리길 2-1",
  "combination": "자동",
  "lat": 35.208714,
  "lng": 127.464806
 },
 {
  "name": "천하명당(팔용점)",
  "address": "경남 창원시 의창구 사화로 26",
  "combination": "수동",
  "lat": 35.256348,
  "lng": 128.6103
 },
 {
  "name": "로또정량점",
  "address": "경남 통영시 통영해안로 395",
  "combination": "자동",
  "lat": 34.845318,
  "lng": 128.43121
 }
]