[
 {
  "name": "로또판매점",
  "address": "부산 남구 석포로 41",
  "combination": "수동",
  "lat": 35.123302,
  "lng": 129.08534
 },
 {
  "name": "씨엔유 삼산한길",
  "address": "인천 부평구 삼산동  121-48번지 CU삼산한길점",
  "combination": "자동",
  "lat": 37.518158,
  "lng": 126.74386
 },
 {
  "name": "훼미리대박복권방",
  "address": "인천 서구 가좌동  247-1번지 102호",
  "combination": "자동",
  "lat": 37.488895,
  "lng": 126.68247
 },
 {
  "name": "복권마을",
  "address": "경기 안양시 동안구 흥안대로133번길 4 제1동 제1층 제104호",
  "combination": "자동",
  "lat": 37.371513,
  "lng": 126.95739
 },
 {
  "name": "CU(안양석수점)",
  "address": "경기 안양시 만안구 석수동  325-13번지",
  "combination": "자동",
  "lat": 37.41083,
  "lng": 126.91185
 },
 {
  "name": "무지개복권",
  "address": "경기 오산시 현충로 95",
  "combination": "수동",
  "lat": 37.160877,
  "lng": 127.07752
 },
 {
  "name": "신봉",
  "address": "충북 청주시 흥덕구 신봉동  168-8번지 신봉삼성아파트3단지 앞도로변",
  "combination": "자동",
  "lat": 36.655724,
  "lng": 127.469376
 },
 {
  "name": "여기있었네복권방",
  "address": "전북 김제시 남북로 171",
  "combination": "자동",
  "lat": 35.79936,
  "lng": 126.88456
 },
 {
  "name": "C.C.S24시편의점",
  "address": "전북 전주시 덕진구 백제대로 835",
  "combination": "수동",
  "lat": 35.849266,
  "lng": 127.1594
 },
 {
  "name": "북마산복권전문점",
  "address": "경남 창원시 마산합포구 북성로 98",
  "combination": "자동",
  "lat": 35.215973,
  "lng": 128.5708
 }
]