[
 {
  "name": "복권명가",
  "address": "서울 구로구 개봉로 26",
  "combination": "자동",
  "lat": 37.48799,
  "lng": 126.85649
 },
 {
  "name": "가로판매소",
  "address": "서울 구로구 새말로 117-24 (신도림역2번출구)(구로동)",
  "combination": "자동",
  "lat": 37.50696,
  "lng": 126.8903
 },
 {
  "name": "로또복권",
  "address": "서울 노원구 상계동  649-7번지 다모아빌딩103",
  "combination": "자동",
  "lat": 37.665066,
  "lng": 127.05804
 },
 {
  "name": "농심가슈퍼마트",
  "address": "서울 양천구 목동중앙본로 54 1층",
  "combination": "자동",
  "lat": 37.540688,
  "lng": 126.869026
 },
 {
  "name": "노다지복권방",
  "address": "서울 종로구 종로 333",
  "combination": "자동",
  "lat": 37.572903,
  "lng": 127.01451
 },
 {
  "name": "다모아문구",
  "address": "대구 서구 문화로49길 24 1층 103호",
  "combination": "자동",
  "lat": 35.877823,
  "lng": 128.55931
 },
 {
  "name": "배팅샵(가장)",
  "address": "대전 서구 변동로 89",
  "combination": "자동",
  "lat": 36.32439,
  "lng": 127.3828
 },
 {
  "name": "금두꺼비복권방",
  "address": "경기 고양시 일산서구 강성로 263 재성빌딩1층",
  "combination": "자동",
  "lat": 37.67674,
  "lng": 126.74803
 },
 {
  "name": "로또복권방",
  "address": "충남 당진시 당진중앙1로 21",
  "combination": "자동",
  "lat": 36.892937,
  "lng": 126.62633
 },
 {
  "name": "천하명당복권방",
  "address": "충남 홍성군 조양로 180",
  "combination": "자동",
  "lat": 36.60072,
  "lng": 126.66951
 },
 {
  "name": "복권명당자인점",
  "address": "경북 경산시 자인로 176",
  "combination": "자동",
  "lat": 35.81624,
  "lng": 128.82556
 },
 {
  "name": "시네마천국",
  "address": "경남 거창군 거열로 143-1",
  "combination": "수동",
  "lat": 35.68951,
  "lng": 127.90948
 },
 {
  "name": "GS25(창원극동)",
  "address": "경남 창원시 의창구 팔용동  104-1번지",
  "combination": "자동",
  "lat": 35.254997,
  "lng": 128.61241
 }
]