[
 {
  "name": "대박",
  "address": "서울 강남구 일원로3길 55",
  "combination": "수동",
  "lat": 37.49274,
  "lng": 127.08436
 },
 {
  "name": "스파",
  "address": "서울 노원구 동일로 1493 상계주공아파트(10단지) 주공10단지종합상가111",
  "combination": "자동",
  "lat": 37.66166,
  "lng": 127.05787
 },
 {
  "name": "영훈슈퍼마켓",
  "address": "서울 도봉구 덕릉로 222,(창동)",
  "combination": "수동",
  "lat": 37.63781,
  "lng": 127.03763
 },
 {
  "name": "KB행당동지점옆가판",
  "address": "서울 성동구 고산자로 198",
  "combination": "수동",
  "lat": 37.557804,
  "lng": 127.034256
 },
 {
  "name": "경남슈퍼행운복권방",
  "address": "서울 양천구 목3동  606-13번지",
  "combination": "수동",
  "lat": 37.54995,
  "lng": 126.86413
 },
 {
  "name": "행운복권방",
  "address": "서울 중랑구 면목로 423  1층",
  "combination": "수동",
  "lat": 37.589806,
  "lng": 127.08696
 },
 {
  "name": "부일카서비스",
  "address": "부산 동구 자성로133번길 35",
  "combination": "자동",
  "lat": 35.140015,
  "lng": 129.06306
 },
 {
  "name": "세븐일레븐부산온천장역점",
  "address": "부산 동래구 중앙대로 1520 북쪽출구 빵집",
  "combination": "수동",
  "lat": 35.213894,
  "lng": 129.08134
 },
 {
  "name": "로티스트",
  "address": "부산 북구 금곡대로 460",
  "combination": "수동",
  "lat": 35.249462,
  "lng": 129.01315
 },
 {
  "name": "GS25(괘법덕포)",
  "address": "부산 사상구 괘법동  270-6번지",
  "combination": "자동",
  "lat": 35.16543,
  "lng": 128.98407
 },
 {
  "name": "칠곡스포츠",
  "address": "대구 북구 칠곡중앙대로 311",
  "combination": "수동",
  "lat": 35.923542,
  "lng": 128.54677
 },
 {
  "name": "CU(서구가정점)",
  "address": "인천 서구 가정동  527-27번지",
  "combination": "수동",
  "lat": 37.55843,
  "lng": 126.65368
 },
 {
  "name": "대한민국마트",
  "address": "대전 유성구 전민로46번길 40 다세대주택 1층",
  "combination": "수동",
  "lat": 36.396683,
  "lng": 127.40249
 },
 {
  "name": "주공공이로또",
  "address": "경기 안양시 동안구 호계동  1039번지",
  "combination": "자동",
  "lat": 37.384113,
  "lng": 126.9663
 },
 {
  "name": "천하명당복권방",
  "address": "충남 홍성군 조양로 180",
  "combination": "자동",
  "lat": 36.60072,
  "lng": 126.66951
 },
 {
  "name": "CU(거제신정점)",
  "address": "경남 거제시 장평동  1195-3번지",
  "combination": "수동",
  "lat": 34.89292,
  "lng": 128.61444
 }
]