[
 {
  "name": "천하명당복권방독산점",
  "address": "서울 금천구 독산로85길 16",
  "combination": "수동",
  "lat": 37.472534,
  "lng": 126.90221
 },
 {
  "name": "대성사",
  "address": "서울 성동구 성수동1가  13-23번지 1층",
  "combination": "자동",
  "lat": 37.550533,
  "lng": 127.04971
 },
 {
  "name": "로또복권방",
  "address": "서울 성북구 동소문로2길 83",
  "combination": "수동",
  "lat": 37.589466,
  "lng": 127.01032
 },
 {
  "name": "메트로센터점",
  "address": "대구 중구 달구벌대로 지하 2100 메트로센터C412호",
  "combination": "수동",
  "lat": 35.86582,
  "lng": 128.59314
 },
 {
  "name": "천동로또",
  "address": "대전 동구 천동  119-4번지",
  "combination": "수동",
  "lat": 36.311916,
  "lng": 127.44233
 },
 {
  "name": "썬마트",
  "address": "대전 서구 관저동  1109번지 신선타워105호 GS25편의점",
  "combination": "자동",
  "lat": 36.300804,
  "lng": 127.33443
 },
 {
  "name": "로또명당",
  "address": "경기 시흥시 신현로 21-1 101호",
  "combination": "자동",
  "lat": 37.40707,
  "lng": 126.78708
 },
 {
  "name": "육사구(6/49)복권방",
  "address": "경기 용인시 처인구 한터로 132",
  "combination": "자동",
  "lat": 37.24952,
  "lng": 127.22552
 }
]