[
 {
  "name": "교통카드판매소",
  "address": "서울 강북구 도봉로 345 가판",
  "combination": "수동",
  "lat": 37.638638,
  "lng": 127.02589
 },
 {
  "name": "가로판매소",
  "address": "서울 구로구 새말로 117-24 (신도림역2번출구)(구로동)",
  "combination": "수동",
  "lat": 37.50696,
  "lng": 126.8903
 },
 {
  "name": "태원정보통신",
  "address": "서울 중랑구 봉우재로33길 80,(상봉동)",
  "combination": "자동",
  "lat": 37.595444,
  "lng": 127.08968
 },
 {
  "name": "인천네트워크",
  "address": "인천 남동구 논고개로 333 12블록5롯트102호",
  "combination": "자동",
  "lat": 37.419785,
  "lng": 126.7299
 },
 {
  "name": "CU(안산와동점)",
  "address": "경기 안산시 단원구 와동  679-7번지",
  "combination": "수동",
  "lat": 37.33241,
  "lng": 126.82774
 },
 {
  "name": "로또복권짱",
  "address": "경기 용인시 처인구 동부로 33,(마평동)",
  "combination": "수동",
  "lat": 37.230087,
  "lng": 127.214455
 },
 {
  "name": "로또복권짱",
  "address": "경기 용인시 처인구 동부로 33,(마평동)",
  "combination": "수동",
  "lat": 37.230087,
  "lng": 127.214455
 },
 {
  "name": "로또복권방",
  "address": "경기 용인시 처인구 백옥대로 1153 용문빌딩",
  "combination": "수동",
  "lat": 37.23865,
  "lng": 127.20859
 },
 {
  "name": "로또복권방",
  "address": "경기 용인시 처인구 백옥대로 1153 용문빌딩",
  "combination": "수동",
  "lat": 37.23865,
  "lng": 127.20859
 },
 {
  "name": "로또복권방",
  "address": "경기 용인시 처인구 백옥대로 1153 용문빌딩",
  "combination": "수동",
  "lat": 37.23865,
  "lng": 127.20859
 },
 {
  "name": "로또복권방",
  "address": "경기 용인시 처인구 백옥대로 1153 용문빌딩",
  "combination": "수동",
  "lat": 37.23865,
  "lng": 127.20859
 },
 {
  "name": "로또복권방",
  "address": "경기 용인시 처인구 백옥대로 1153 용문빌딩",
  "combination": "수동",
  "lat": 37.23865,
  "lng": 127.20859
 },
 {
  "name": "로또토토대박",
  "address": "강원 원주시 무실로 78 1층",
  "combination": "수동",
  "lat": 37.34565,
  "lng": 127.94554
 },
 {
  "name": "그린하우스",
  "address": "전북 전주시 덕진구 덕진동1가  1276-3번지",
  "combination": "자동",
  "lat": 35.843723,
  "lng": 127.12447
 },
 {
  "name": "구담쌀슈퍼",
  "address": "경북 안동시 경동로 908",
  "combination": "자동",
  "lat": 36.556965,
  "lng": 128.75449
 }
]