[
 {
  "name": "천하명당미아현대점",
  "address": "서울 강북구 솔샘로 283 1층",
  "combination": "수동",
  "lat": 37.618645,
  "lng": 127.02396
 },
 {
  "name": "로또수락산점",
  "address": "서울 노원구 동일로 1689 대덕하이베라스101호",
  "combination": "수동",
  "lat": 37.67911,
  "lng": 127.054855
 },
 {
  "name": "부일카서비스",
  "address": "부산 동구 자성로133번길 35",
  "combination": "자동",
  "lat": 35.140015,
  "lng": 129.06306
 },
 {
  "name": "복권방",
  "address": "부산 부산진구 당감서로 84 202호",
  "combination": "수동",
  "lat": 35.167698,
  "lng": 129.03735
 },
 {
  "name": "대운복권",
  "address": "경기 성남시 중원구 성남대로 1149",
  "combination": "자동",
  "lat": 37.432377,
  "lng": 127.12866
 },
 {
  "name": "하늘채복권방",
  "address": "경기 수원시 영통구 매탄동  1156-1번지",
  "combination": "자동",
  "lat": 37.25919,
  "lng": 127.04074
 },
 {
  "name": "여기있었네복권방",
  "address": "충남 논산시 중앙로 417",
  "combination": "자동",
  "lat": 36.201103,
  "lng": 127.08766
 },
 {
  "name": "일공공일안경콘택트수송점",
  "address": "전북 군산시 수송동  850-6번지",
  "combination": "자동",
  "lat": 35.964275,
  "lng": 126.71839
 },
 {
  "name": "구담쌀슈퍼",
  "address": "경북 안동시 경동로 908",
  "combination": "자동",
  "lat": 36.556965,
  "lng": 128.75449
 }
]