[
 {
  "name": "로또복권",
  "address": "서울 성동구 마장동  771-7번지",
  "combination": "자동",
  "lat": 37.566628,
  "lng": 127.043304
 },
 {
  "name": "엔.스피드텔레콤",
  "address": "서울 은평구 불광동  281-91번지",
  "combination": "수동",
  "lat": 37.610905,
  "lng": 126.930046
 },
 {
  "name": "충남상회",
  "address": "인천 미추홀구 석정로 78 10호",
  "combination": "자동",
  "lat": 37.466232,
  "lng": 126.64562
 },
 {
  "name": "운천점(복권나라)",
  "address": "광주 서구 운천로 153 1층",
  "combination": "자동",
  "lat": 35.14632,
  "lng": 126.85665
 },
 {
  "name": "로또암반수베팅샵",
  "address": "경기 남양주시 수레로 32",
  "combination": "자동",
  "lat": 37.587234,
  "lng": 127.215675
 },
 {
  "name": "로또(파발마점)",
  "address": "경기 시흥시 마유로 415 역전프라자105호",
  "combination": "자동",
  "lat": 37.351974,
  "lng": 126.740585
 },
 {
  "name": "GS25(장유무계)",
  "address": "경남 김해시 장유면  무계리  191-7번지 청학프라자 1-107호",
  "combination": "자동",
  "lat": 35.20001,
  "lng": 128.81505
 },
 {
  "name": "천하명당복권방",
  "address": "경남 진주시 봉곡동  15-5번지",
  "combination": "수동",
  "lat": 35.194828,
  "lng": 128.07715
 }
]