[
 {
  "name": "럭키복권방",
  "address": "서울 도봉구 노해로63길 79 우림빌딩106",
  "combination": "자동",
  "lat": 37.653114,
  "lng": 127.04623
 },
 {
  "name": "승리상사",
  "address": "서울 영등포구 신길동  115-33번지",
  "combination": "자동",
  "lat": 37.517124,
  "lng": 126.916374
 },
 {
  "name": "일등복권편의점",
  "address": "대구 달서구 대명천로 220 1층",
  "combination": "자동",
  "lat": 35.84214,
  "lng": 128.53621
 },
 {
  "name": "라이프마트",
  "address": "인천 중구 연안부두로53번길 36 5호",
  "combination": "자동",
  "lat": 37.45236,
  "lng": 126.60402
 },
 {
  "name": "오천억복권방",
  "address": "광주 서구 상무대로 1087",
  "combination": "자동",
  "lat": 35.15296,
  "lng": 126.880745
 },
 {
  "name": "럭키로또방",
  "address": "경기 수원시 영통구 센트럴타운로 15 아이플렉스104호",
  "combination": "자동",
  "lat": 37.288116,
  "lng": 127.0574
 },
 {
  "name": "천하명당우만점",
  "address": "경기 수원시 팔달구 월드컵로369번길 4",
  "combination": "자동",
  "lat": 37.29025,
  "lng": 127.03013
 },
 {
  "name": "복권명당",
  "address": "경기 안산시 상록구 건건로 41",
  "combination": "자동",
  "lat": 37.304985,
  "lng": 126.90198
 },
 {
  "name": "GS25(동백역점)",
  "address": "경기 용인시 기흥구 중동  853-1번지",
  "combination": "자동",
  "lat": 37.269962,
  "lng": 127.15415
 },
 {
  "name": "천하명당복권방",
  "address": "전북 익산시 선화로 130",
  "combination": "수동",
  "lat": 35.94789,
  "lng": 126.94501
 },
 {
  "name": "삼계복권전문점",
  "address": "경남 창원시 마산회원구 경남대로 915",
  "combination": "자동",
  "lat": 35.231876,
  "lng": 128.50462
 }
]