[
 {
  "name": "미나식품(로또판매점)",
  "address": "서울 강서구 금낭화로 91-12",
  "combination": "수동",
  "lat": 37.5735,
  "lng": 126.81066
 },
 {
  "name": "대박",
  "address": "경기 구리시 안골로103번길 46",
  "combination": "자동",
  "lat": 37.599422,
  "lng": 127.14154
 },
 {
  "name": "티켓몰",
  "address": "경기 김포시 사우중로 15",
  "combination": "자동",
  "lat": 37.61704,
  "lng": 126.71676
 },
 {
  "name": "노다지복권방",
  "address": "경기 시흥시 복지로 103-1 1층상가",
  "combination": "자동",
  "lat": 37.44823,
  "lng": 126.79206
 },
 {
  "name": "아름다운방",
  "address": "경기 의정부시 금오동  473-1번지 플래티넘프라자1층107",
  "combination": "자동",
  "lat": 37.752235,
  "lng": 127.06957
 },
 {
  "name": "로또나라",
  "address": "경기 파주시 자유로 2212",
  "combination": "수동",
  "lat": 37.700043,
  "lng": 126.68377
 },
 {
  "name": "GS25(청주율량)",
  "address": "충북 청주시 상당구 율량동  846번지",
  "combination": "수동",
  "lat": 36.669804,
  "lng": 127.491295
 },
 {
  "name": "대박복권판매점",
  "address": "충북 충주시 탄금대로 14,(문화동)",
  "combination": "자동",
  "lat": 36.973713,
  "lng": 127.926926
 },
 {
  "name": "로또명당인주점",
  "address": "충남 아산시 서해로 519-2",
  "combination": "자동",
  "lat": 36.87784,
  "lng": 126.89828
 }
]