[
 {
  "name": "정우로또",
  "address": "서울 강동구 길동  390-20번지",
  "combination": "자동",
  "lat": 37.53676,
  "lng": 127.14103
 },
 {
  "name": "대박복권방",
  "address": "서울 관악구 조원동  538-1번지 싱싱마트",
  "combination": "수동",
  "lat": 37.48231,
  "lng": 126.91421
 },
 {
  "name": "스파",
  "address": "서울 노원구 동일로 1493 상계주공아파트(10단지) 주공10단지종합상가111",
  "combination": "자동",
  "lat": 37.66166,
  "lng": 127.05787
 },
 {
  "name": "스파",
  "address": "서울 노원구 동일로 1493 상계주공아파트(10단지) 주공10단지종합상가111",
  "combination": "자동",
  "lat": 37.66166,
  "lng": 127.05787
 },
 {
  "name": "천하명당복권방",
  "address": "서울 동대문구 전농로 105-1,(답십리동)",
  "combination": "수동",
  "lat": 37.574413,
  "lng": 127.05728
 },
 {
  "name": "굿타임",
  "address": "서울 서대문구 연희로 36,(연희동)",
  "combination": "자동",
  "lat": 37.561817,
  "lng": 126.927475
 },
 {
  "name": "슈퍼복권나라",
  "address": "부산 사하구 하신번영로 370",
  "combination": "자동",
  "lat": 35.114147,
  "lng": 128.96078
 },
 {
  "name": "빅세일마트",
  "address": "부산 중구 중앙동4가  81-19번지",
  "combination": "자동",
  "lat": 35.107822,
  "lng": 129.03752
 },
 {
  "name": "주택복권방",
  "address": "경기 용인시 수지구 풍덕천로 144-1 103호",
  "combination": "자동",
  "lat": 37.323883,
  "lng": 127.09745
 },
 {
  "name": "로또복권",
  "address": "경북 군위군 군위읍 중앙길 32,(서부리)",
  "combination": "자동",
  "lat": 36.231487,
  "lng": 128.56749
 }
]