[
 {
  "name": "복권세계",
  "address": "서울 구로구 우마길 4",
  "combination": "자동",
  "lat": 37.48224,
  "lng": 126.887436
 },
 {
  "name": "버스판매소",
  "address": "서울 영등포구 영중로 2 1층(영등포동3가)",
  "combination": "자동",
  "lat": 37.516743,
  "lng": 126.906746
 },
 {
  "name": "CU(역촌제일점)",
  "address": "서울 은평구  역촌동 78-45번지",
  "combination": "자동",
  "lat": 37.603203,
  "lng": 126.91021
 },
 {
  "name": "공원슈퍼",
  "address": "경기 수원시 장안구 팔달로 257-1 1층(영화동)",
  "combination": "자동",
  "lat": 37.288837,
  "lng": 127.01324
 },
 {
  "name": "율암25시편의점",
  "address": "경기 화성시 시청로 822-10",
  "combination": "수동",
  "lat": 37.166355,
  "lng": 126.88175
 },
 {
  "name": "행운복권방",
  "address": "강원 인제군 북면 금강로 23 1층",
  "combination": "수동",
  "lat": 38.122444,
  "lng": 128.2068
 },
 {
  "name": "황금당",
  "address": "전남 강진군 강진읍 중앙로 95 황금당",
  "combination": "자동",
  "lat": 34.638718,
  "lng": 126.76755
 }
]