[
 {
  "name": "교통카드충전소",
  "address": "서울 금천구 시흥대로 398",
  "combination": "자동",
  "lat": 37.469357,
  "lng": 126.89842
 },
 {
  "name": "구포라인점",
  "address": "부산 북구 구포동  700-148번지",
  "combination": "수동",
  "lat": 35.202557,
  "lng": 129.00429
 },
 {
  "name": "터미널로또판매점",
  "address": "인천 남구 관교동  15번지 인천교통공사대합실1층2호편의점내",
  "combination": "자동",
  "lat": 37.441406,
  "lng": 126.70131
 },
 {
  "name": "GS25(둔산을지점)",
  "address": "대전 서구 둔산동  1349번지 1층 편의점",
  "combination": "자동",
  "lat": 36.354984,
  "lng": 127.38061
 },
 {
  "name": "우리들삼산본동점",
  "address": "울산 남구 돋질로 445",
  "combination": "수동",
  "lat": 35.54275,
  "lng": 129.35355
 },
 {
  "name": "으뜸우리들복권방",
  "address": "울산 남구 울밀로 2907",
  "combination": "수동",
  "lat": 35.555,
  "lng": 129.26576
 },
 {
  "name": "황금로또",
  "address": "강원 원주시 현충로318번길 35 1층",
  "combination": "자동",
  "lat": 37.381992,
  "lng": 127.950325
 },
 {
  "name": "복권마트",
  "address": "강원 홍천군 홍천로 409 1층",
  "combination": "자동",
  "lat": 37.690258,
  "lng": 127.88947
 },
 {
  "name": "대박마트복권방",
  "address": "충남 아산시 음봉로 844 행복한순복음교회 태화상가1층103호",
  "combination": "수동",
  "lat": 36.826508,
  "lng": 127.09927
 },
 {
  "name": "천하명당복권방",
  "address": "충남 홍성군 조양로 180",
  "combination": "자동",
  "lat": 36.60072,
  "lng": 126.66951
 },
 {
  "name": "한진롯또대박판매점",
  "address": "전북 고창군 복분자로 900",
  "combination": "자동",
  "lat": 35.51284,
  "lng": 126.67393
 }
]