[
 {
  "name": "슈퍼복권나라",
  "address": "부산 부산진구 범일로142번길 31 1층 복권방",
  "combination": "자동",
  "lat": 35.142838,
  "lng": 129.0611
 },
 {
  "name": "월드",
  "address": "대구 수성구 달구벌대로631길 3,(매호동)",
  "combination": "자동",
  "lat": 35.842384,
  "lng": 128.70306
 },
 {
  "name": "복권전문점",
  "address": "인천 부평구 원적로 437",
  "combination": "자동",
  "lat": 37.50383,
  "lng": 126.7151
 },
 {
  "name": "힘찬슈퍼 복권방",
  "address": "인천 부평구 장제로 112",
  "combination": "자동",
  "lat": 37.495377,
  "lng": 126.73041
 },
 {
  "name": "동키호테편의점",
  "address": "광주 서구 풍금로38번길 23",
  "combination": "자동",
  "lat": 35.123924,
  "lng": 126.864746
 },
 {
  "name": "행운복권방",
  "address": "울산 중구 반구정6길 18-4",
  "combination": "자동",
  "lat": 35.555798,
  "lng": 129.31615
 },
 {
  "name": "굿프랜즈편의점",
  "address": "경기 고양시 덕양구 토당동  877-1번지",
  "combination": "자동",
  "lat": 37.62061,
  "lng": 126.82475
 },
 {
  "name": "노다지복권방",
  "address": "경기 용인시 처인구 금령로 130",
  "combination": "수동",
  "lat": 37.23509,
  "lng": 127.2105
 },
 {
  "name": "굿타임24아산석정점(구드림통신)",
  "address": "충남 아산시 충무로 230",
  "combination": "자동",
  "lat": 36.8013,
  "lng": 127.00762
 }
]