[
 {
  "name": "씨유 개화산역점",
  "address": "서울 강서구 양천로 19 (방화동)",
  "combination": "자동",
  "lat": 37.56771,
  "lng": 126.825645
 },
 {
  "name": "주택복권사랑방",
  "address": "서울 관악구 난곡로 363-1",
  "combination": "수동",
  "lat": 37.486427,
  "lng": 126.91341
 },
 {
  "name": "오거리마트",
  "address": "서울 은평구 응암로14길 6,(응암동)",
  "combination": "자동",
  "lat": 37.590076,
  "lng": 126.9179
 },
 {
  "name": "베스트올원당",
  "address": "인천 서구 원당동  824-2골든벨프라자102호",
  "combination": "자동",
  "lat": 37.594124,
  "lng": 126.69508
 },
 {
  "name": "대야지복권",
  "address": "광주 남구 회재로 1255-1",
  "combination": "자동",
  "lat": 35.134727,
  "lng": 126.89801
 },
 {
  "name": "플러스복권방",
  "address": "강원 춘천시 효자2동  663-2번지",
  "combination": "자동",
  "lat": 37.871807,
  "lng": 127.73285
 }
]