[
 {
  "name": "연초2호",
  "address": "서울 서초구 신반포로 194 강남고속버스터미널 쇼케이스7호",
  "combination": "자동",
  "lat": 37.50551,
  "lng": 127.007034
 },
 {
  "name": "금성상회",
  "address": "부산 동래구 충렬대로107번길 92-4",
  "combination": "자동",
  "lat": 35.21074,
  "lng": 129.07367
 },
 {
  "name": "동일통신",
  "address": "부산 해운대구 선수촌로 16",
  "combination": "수동",
  "lat": 35.19541,
  "lng": 129.11856
 },
 {
  "name": "복권천국",
  "address": "인천 계양구 동양동  604-2번지",
  "combination": "자동",
  "lat": 37.562126,
  "lng": 126.75484
 },
 {
  "name": "GS25(구월효명)",
  "address": "인천 남동구 구월동  1463번지 102호",
  "combination": "자동",
  "lat": 37.445183,
  "lng": 126.701515
 },
 {
  "name": "복권전문점",
  "address": "대전 유성구 유성대로694번길 84",
  "combination": "자동",
  "lat": 36.35407,
  "lng": 127.33618
 },
 {
  "name": "부자복권방",
  "address": "전북 군산시 구시장로 4",
  "combination": "자동",
  "lat": 35.980473,
  "lng": 126.72023
 },
 {
  "name": "로또7일레븐 태화점",
  "address": "경북 안동시 태화동  175-3번지",
  "combination": "자동",
  "lat": 36.55354,
  "lng": 128.76076
 },
 {
  "name": "NG24",
  "address": "경북 칠곡군 북중리3길 59",
  "combination": "자동",
  "lat": 36.079823,
  "lng": 128.41183
 }
]