[
 {
  "name": "달랑슈퍼",
  "address": "서울 강남구 삼성로82길 22",
  "combination": "수동",
  "lat": 37.50528,
  "lng": 127.05951
 },
 {
  "name": "로또판매점",
  "address": "서울 은평구 응암동  589-38번지",
  "combination": "수동",
  "lat": 37.590572,
  "lng": 126.91627
 },
 {
  "name": "천하명당복권방(행운을주는사람들)",
  "address": "부산 사상구 광장로38번길 25",
  "combination": "수동",
  "lat": 35.16115,
  "lng": 128.98048
 },
 {
  "name": "마리나복권",
  "address": "부산 해운대구 좌동  1270-1번지 정선빌딩1층훼미리마트내",
  "combination": "수동",
  "lat": 35.17346,
  "lng": 129.16763
 },
 {
  "name": "아로마포미둔산점",
  "address": "대전 서구 둔지로 15 경희빌딩1층",
  "combination": "자동",
  "lat": 36.3512,
  "lng": 127.375786
 },
 {
  "name": "권선로또복권방",
  "address": "경기 수원시 권선구 탑동로 22 천림빌딩 천림빌딩102호",
  "combination": "자동",
  "lat": 37.270844,
  "lng": 126.97501
 },
 {
  "name": "GS25(수원삼성)",
  "address": "경기 수원시 영통구 매탄동  1267-7번지 중앙프라자104호",
  "combination": "자동",
  "lat": 37.259037,
  "lng": 127.04512
 },
 {
  "name": "올인로또복권",
  "address": "전북 전주시 완산구 효자동2가  203-5번지 코끼리마트 상가 내",
  "combination": "수동",
  "lat": 35.804657,
  "lng": 127.10798
 },
 {
  "name": "101편의방",
  "address": "경북 포항시 남구 청림동  3-263번지",
  "combination": "자동",
  "lat": 35.99535,
  "lng": 129.41307
 }
]