[
 {
  "name": "훼미리로또",
  "address": "서울 동작구 신대방동  395-68번지 훼미리타운102호",
  "combination": "수동",
  "lat": 37.49068,
  "lng": 126.92393
 },
 {
  "name": "로또복권판매소",
  "address": "서울 마포구 마포대로 44 진도빌딩앞",
  "combination": "자동",
  "lat": 37.539944,
  "lng": 126.94703
 },
 {
  "name": "국세청앞센타",
  "address": "부산 동구 진성로 23 세무서옆가판",
  "combination": "수동",
  "lat": 35.130405,
  "lng": 129.04683
 },
 {
  "name": "권선로또복권방",
  "address": "경기 수원시 권선구 탑동로 22 천림빌딩 천림빌딩102호",
  "combination": "수동",
  "lat": 37.270844,
  "lng": 126.97501
 },
 {
  "name": "팡팡사동복권방",
  "address": "경기 안산시 상록구 석호로 170 1층",
  "combination": "자동",
  "lat": 37.296867,
  "lng": 126.85053
 },
 {
  "name": "로또천국",
  "address": "충북 충주시 금봉1길  48 1층",
  "combination": "수동",
  "lat": 36.981762,
  "lng": 127.91459
 },
 {
  "name": "운수대통복권방",
  "address": "충남 천안시 동남구 대흥로 122 중앙시장 입구",
  "combination": "자동",
  "lat": 36.80049,
  "lng": 127.14926
 },
 {
  "name": "울릉로또",
  "address": "경북 울릉군 봉래2길 32-14 1층 울릉로또\u0026커피",
  "combination": "자동",
  "lat": 37.497395,
  "lng": 130.90799
 }
]