[
 {
  "name": "행복공간",
  "address": "서울 강동구 풍성로 115",
  "combination": "수동",
  "lat": 37.532127,
  "lng": 127.12511
 },
 {
  "name": "돈다발복권방",
  "address": "서울 종로구 숭인동  288-1번지",
  "combination": "수동",
  "lat": 37.57309,
  "lng": 127.01666
 },
 {
  "name": "덕하복권슈퍼",
  "address": "울산 울주군 덕하로 238",
  "combination": "자동",
  "lat": 35.49198,
  "lng": 129.30516
 },
 {
  "name": "가판점",
  "address": "경기 부천시 부일로459번길 8 국민은행버스정류장 옆 가판",
  "combination": "자동",
  "lat": 37.48641,
  "lng": 126.78152
 },
 {
  "name": "서정천하명당",
  "address": "경기 평택시 송탄로 160",
  "combination": "자동",
  "lat": 37.058094,
  "lng": 127.05932
 },
 {
  "name": "행운복권방",
  "address": "강원 인제군 북면 금강로 23 1층",
  "combination": "자동",
  "lat": 38.122444,
  "lng": 128.2068
 },
 {
  "name": "CU(제천역점)",
  "address": "충북 제천시  화산동 208-1번지",
  "combination": "자동",
  "lat": 37.129704,
  "lng": 128.20674
 },
 {
  "name": "아띠로또판매점",
  "address": "충남 천안시 서북구 두정동  1063번지 레몬타워 110호",
  "combination": "자동",
  "lat": 36.837246,
  "lng": 127.13406
 }
]