[
 {
  "name": "스파",
  "address": "서울 노원구 동일로 1493 상계주공아파트(10단지) 주공10단지종합상가111",
  "combination": "자동",
  "lat": 37.66166,
  "lng": 127.05787
 },
 {
  "name": "라이프마트",
  "address": "인천 중구 연안부두로53번길 36 5호",
  "combination": "자동",
  "lat": 37.45236,
  "lng": 126.60402
 },
 {
  "name": "CU(달동초이스점)",
  "address": "울산 남구  달동 1309-1번지",
  "combination": "자동",
  "lat": 35.535606,
  "lng": 129.33926
 },
 {
  "name": "애리지",
  "address": "경기 성남시 분당구 야탑로69번길 21",
  "combination": "자동",
  "lat": 37.411606,
  "lng": 127.12633
 },
 {
  "name": "당첨희망복권점",
  "address": "경기 이천시 영창로 145 관고사거리",
  "combination": "자동",
  "lat": 37.282043,
  "lng": 127.43878
 }
]