[
 {
  "name": "엑스트라(우주점)",
  "address": "부산 사상구 모라로110번길 121 주공아파트1단지 가상가106호",
  "combination": "자동",
  "lat": 35.183853,
  "lng": 128.99643
 },
 {
  "name": "토큰박스(성당포스코더샵)",
  "address": "대구 달서구 장기로 115 성당포스코더샵아파트 도로가 가판",
  "combination": "자동",
  "lat": 35.84231,
  "lng": 128.54784
 },
 {
  "name": "메트로센터점",
  "address": "대구 중구 달구벌대로 지하 2100 메트로센터C412호",
  "combination": "수동",
  "lat": 35.86582,
  "lng": 128.59314
 },
 {
  "name": "명당골복권방",
  "address": "경기 수원시 권선구 동수원로242번길 15 104호",
  "combination": "자동",
  "lat": 37.251095,
  "lng": 127.03546
 },
 {
  "name": "로또명당매표소",
  "address": "경기 수원시 팔달구 중부대로 241",
  "combination": "자동",
  "lat": 37.275543,
  "lng": 127.04254
 }
]