[
 {
  "name": "새시대복권방",
  "address": "서울 금천구 탑골로 6-1",
  "combination": "수동",
  "lat": 37.450966,
  "lng": 126.91035
 },
 {
  "name": "승지GALLANT",
  "address": "서울 서초구 신반포로 194 강남고속버스터미널 경부고속터미널제2매표소앞 쇼케이스16, 코너3",
  "combination": "자동",
  "lat": 37.50551,
  "lng": 127.007034
 },
 {
  "name": "세븐일레븐 햇빛점",
  "address": "서울 양천구 목4동  782-3번지",
  "combination": "자동",
  "lat": 37.53553,
  "lng": 126.86408
 },
 {
  "name": "또또슈퍼",
  "address": "광주 광산구 상무대로 263 1층 또또슈퍼",
  "combination": "자동",
  "lat": 35.14219,
  "lng": 126.79503
 },
 {
  "name": "위앤조이 유천점",
  "address": "대전 중구 계백로 1624,(유천동)",
  "combination": "수동",
  "lat": 36.318806,
  "lng": 127.40034
 },
 {
  "name": "CU(군포덕산점)",
  "address": "경기 군포시  당동 902번지덕산아파트상가1층",
  "combination": "자동",
  "lat": 37.348972,
  "lng": 126.94522
 },
 {
  "name": "명가로또복권",
  "address": "경남 거제시 사등면  덕호리  110-21번지 대교제일할인마트내",
  "combination": "수동",
  "lat": 34.881504,
  "lng": 128.4776
 },
 {
  "name": "다음정보텔레콤(훼미리마트내)",
  "address": "경남 진주시 평거로9번길  18 1층 2호",
  "combination": "자동",
  "lat": 35.173115,
  "lng": 128.06183
 }
]