[
 {
  "name": "로또판매",
  "address": "서울 강남구 삼성로86길 10 1층 삼성슈퍼",
  "combination": "자동",
  "lat": 37.505627,
  "lng": 127.058334
 },
 {
  "name": "교통카드판매대",
  "address": "서울 강동구 상일로15길 18 1층",
  "combination": "수동",
  "lat": 37.557686,
  "lng": 127.17006
 },
 {
  "name": "교통카드판매대",
  "address": "서울 강동구 상일로15길 18 1층",
  "combination": "수동",
  "lat": 37.557686,
  "lng": 127.17006
 },
 {
  "name": "복터진나라",
  "address": "부산 서구 대영로 27 1층 복권판매점",
  "combination": "수동",
  "lat": 35.109715,
  "lng": 129.01494
 },
 {
  "name": "안성맞춤",
  "address": "경기 안성시 안성맞춤대로 1099-1",
  "combination": "수동",
  "lat": 37.01107,
  "lng": 127.2699
 },
 {
  "name": "안성맞춤",
  "address": "경기 안성시 안성맞춤대로 1099-1",
  "combination": "수동",
  "lat": 37.01107,
  "lng": 127.2699
 },
 {
  "name": "복권나라",
  "address": "경기 포천시 죽엽산로35번길 1",
  "combination": "자동",
  "lat": 37.826786,
  "lng": 127.152664
 },
 {
  "name": "행운천하명당",
  "address": "충남 서천군 서천로  120",
  "combination": "수동",
  "lat": 36.078808,
  "lng": 126.68722
 },
 {
  "name": "대산슈퍼",
  "address": "충남 천안시 동남구 복구정3길 1",
  "combination": "자동",
  "lat": 36.76989,
  "lng": 127.250206
 },
 {
  "name": "제이엠정보통신",
  "address": "경남 함안군 함안대로 552 1층",
  "combination": "자동",
  "lat": 35.27584,
  "lng": 128.40576
 }
]