[
 {
  "name": "원스탑",
  "address": "서울 송파구 백제고분로7길 39",
  "combination": "자동",
  "lat": 37.510902,
  "lng": 127.08321
 },
 {
  "name": "응암2호점로또판매",
  "address": "서울 은평구 역촌동  74-5번지",
  "combination": "수동",
  "lat": 37.604916,
  "lng": 126.90777
 },
 {
  "name": "즐거운복권방",
  "address": "인천 미추홀구 미추홀대로 541",
  "combination": "수동",
  "lat": 37.44568,
  "lng": 126.67861
 },
 {
  "name": "로또판매점",
  "address": "경기 고양시 일산동구 정발산로 24 1층 K-114호",
  "combination": "수동",
  "lat": 37.65477,
  "lng": 126.77263
 },
 {
  "name": "공단슈퍼",
  "address": "경기 평택시 산단로52번길 3 1층",
  "combination": "자동",
  "lat": 37.03672,
  "lng": 127.07599
 },
 {
  "name": "복권나라",
  "address": "강원 춘천시 춘천로 286-1",
  "combination": "자동",
  "lat": 37.880527,
  "lng": 127.74493
 },
 {
  "name": "토토원",
  "address": "충북 청주시 청원구 공항로 95",
  "combination": "수동",
  "lat": 36.66572,
  "lng": 127.48628
 },
 {
  "name": "양산덕계점(로또)",
  "address": "경남 양산시 평산6길 6 복권판매점",
  "combination": "자동",
  "lat": 35.382153,
  "lng": 129.15137
 },
 {
  "name": "복권파는집",
  "address": "경남 창원시 마산회원구 3·15대로 765",
  "combination": "자동",
  "lat": 35.240227,
  "lng": 128.58365
 }
]