[
 {
  "name": "행운마트",
  "address": "서울 송파구 마천로15길 9 1층",
  "combination": "자동",
  "lat": 37.50558,
  "lng": 127.13482
 },
 {
  "name": "행운복권방",
  "address": "부산 중구 구덕로 47",
  "combination": "자동",
  "lat": 35.09806,
  "lng": 129.03053
 },
 {
  "name": "돈벼락복권방",
  "address": "대구 북구 동변로 82-1 1층",
  "combination": "자동",
  "lat": 35.920517,
  "lng": 128.60385
 },
 {
  "name": "흥건슈퍼",
  "address": "전북 전주시 완산구 거마평로 25 흥건1차아파트상가 흥건슈퍼",
  "combination": "자동",
  "lat": 35.794403,
  "lng": 127.11578
 },
 {
  "name": "로또복권하대점",
  "address": "경남 진주시 도동로 188",
  "combination": "자동",
  "lat": 35.18703,
  "lng": 128.12248
 }
]