[
 {
  "name": "GS25(구로미성)",
  "address": "서울 구로구  신도림동 399번지기임빌딩101",
  "combination": "자동",
  "lat": 37.506195,
  "lng": 126.876656
 },
 {
  "name": "연신내3호점로또판매",
  "address": "서울 은평구 진관동  은평뉴타운구파발아파트 22번지  905동 107호",
  "combination": "자동",
  "lat": 37.638287,
  "lng": 126.9178
 },
 {
  "name": "복권나라",
  "address": "인천 서구 거북로 80",
  "combination": "자동",
  "lat": 37.503014,
  "lng": 126.670654
 },
 {
  "name": "대박로또방",
  "address": "대전 서구 탄방동  764번지 세븐일레븐 편의점",
  "combination": "자동",
  "lat": 36.346104,
  "lng": 127.387665
 },
 {
  "name": "월드컵복권방",
  "address": "경기 광주시 경안로 20",
  "combination": "자동",
  "lat": 37.409946,
  "lng": 127.2584
 },
 {
  "name": "행운복권방",
  "address": "경기 성남시 분당구 구미동  185-1번지 비즈파이코리아103호",
  "combination": "자동",
  "lat": 37.339294,
  "lng": 127.10936
 },
 {
  "name": "준",
  "address": "경기 평택시 서동대로 1152",
  "combination": "자동",
  "lat": 36.982677,
  "lng": 126.882225
 },
 {
  "name": "창운로또",
  "address": "충북 청주시 흥덕구 오송생명로 208-9 리움오피스텔 1층 104호",
  "combination": "수동",
  "lat": 36.63015,
  "lng": 127.33232
 },
 {
  "name": "복권천지",
  "address": "전남 여수시 흥국로 79",
  "combination": "수동",
  "lat": 34.76119,
  "lng": 127.67327
 },
 {
  "name": "행복복권방",
  "address": "경남 창원시 의창구 팔용로 399",
  "combination": "자동",
  "lat": 35.25288,
  "lng": 128.6106
 },
 {
  "name": "프리코너로또방",
  "address": "경남 창원시 마산회원구 석전동로 1",
  "combination": "자동",
  "lat": 35.231186,
  "lng": 128.57639
 }
]