[
 {
  "name": "세븐일레븐",
  "address": "서울 강동구 천호동  35-29번지 세븐일레븐내",
  "combination": "자동",
  "lat": 37.549,
  "lng": 127.129684
 },
 {
  "name": "영광정보통신",
  "address": "서울 성북구 화랑로 92 1층 우측1호",
  "combination": "수동",
  "lat": 37.602676,
  "lng": 127.0425
 },
 {
  "name": "노다지복권방",
  "address": "부산 사하구 당리동  313-33번지 CU편의점",
  "combination": "수동",
  "lat": 35.10396,
  "lng": 128.97362
 },
 {
  "name": "김포로또",
  "address": "경기 김포시 돌문로 48 한솔프라자101",
  "combination": "자동",
  "lat": 37.619404,
  "lng": 126.71802
 },
 {
  "name": "대박복권방",
  "address": "경기 부천시 고리울로 51 고강빌딩1층",
  "combination": "자동",
  "lat": 37.527355,
  "lng": 126.8216
 },
 {
  "name": "대운복권",
  "address": "경기 성남시 중원구 성남대로 1149",
  "combination": "수동",
  "lat": 37.432377,
  "lng": 127.12866
 },
 {
  "name": "행복충전소",
  "address": "경기 평택시 탄현로 332-2",
  "combination": "자동",
  "lat": 37.0818,
  "lng": 127.05637
 },
 {
  "name": "GS25(두정메트로점)",
  "address": "충남 천안시 서북구 성정동 1451번지",
  "combination": "자동",
  "lat": 36.826557,
  "lng": 127.14148
 }
]