[
 {
  "name": "희성상사",
  "address": "인천 남구 주안동  1282-8번지",
  "combination": "자동",
  "lat": 37.44472,
  "lng": 126.67983
 },
 {
  "name": "인천연수점로또판매",
  "address": "인천 연수구  연수동 631번지세븐일레븐편의점내",
  "combination": "수동",
  "lat": 37.41185,
  "lng": 126.67784
 },
 {
  "name": "동화나라",
  "address": "광주 광산구 월곡산정로 7 1층",
  "combination": "자동",
  "lat": 35.16682,
  "lng": 126.803
 },
 {
  "name": "복권세상",
  "address": "광주 광산구 무진대로231번길 28 복권세상",
  "combination": "자동",
  "lat": 35.163258,
  "lng": 126.80636
 },
 {
  "name": "로또암반수베팅샵",
  "address": "경기 남양주시 수레로 32",
  "combination": "수동",
  "lat": 37.587234,
  "lng": 127.215675
 },
 {
  "name": "3번출구가판점",
  "address": "경기 성남시 수정구 수정로 80",
  "combination": "자동",
  "lat": 37.439934,
  "lng": 127.12953
 },
 {
  "name": "이플러스",
  "address": "경기 수원시 영통구 매탄동  153-14번지",
  "combination": "자동",
  "lat": 37.274273,
  "lng": 127.04432
 }
]