[
 {
  "name": "장안2호점",
  "address": "서울 동대문구 한천로14길 56",
  "combination": "자동",
  "lat": 37.566525,
  "lng": 127.06563
 },
 {
  "name": "천하명당복권방",
  "address": "서울 동작구 동작대로7길 11",
  "combination": "자동",
  "lat": 37.479813,
  "lng": 126.98096
 },
 {
  "name": "제이복권방",
  "address": "서울 종로구 종로 225-1 평창빌딩 1층 103호",
  "combination": "자동",
  "lat": 37.571293,
  "lng": 127.00283
 },
 {
  "name": "따봉복권방",
  "address": "인천 부평구 주부토로 109",
  "combination": "자동",
  "lat": 37.50489,
  "lng": 126.72531
 },
 {
  "name": "원당역복권방",
  "address": "경기 고양시 덕양구 성사동  410-17번지",
  "combination": "자동",
  "lat": 37.653427,
  "lng": 126.843094
 },
 {
  "name": "한샘행운복권방",
  "address": "경기 양주시 가래비길 57-1",
  "combination": "자동",
  "lat": 37.82315,
  "lng": 126.98549
 },
 {
  "name": "복터져",
  "address": "충북 청주시 청원구 율량로 36 103호",
  "combination": "반자동",
  "lat": 36.673286,
  "lng": 127.49005
 },
 {
  "name": "로또복권",
  "address": "전남  해보면  문장리 822-25번지 문장중앙식품",
  "combination": "수동",
  "lat": 35.181183,
  "lng": 126.60484
 },
 {
  "name": "왕대박복권방",
  "address": "경북 문경시 중앙로 15,(모전동)",
  "combination": "자동",
  "lat": 36.588123,
  "lng": 128.19293
 }
]