[
 {
  "name": "안동슈퍼",
  "address": "대구 중구 중앙대로 463",
  "combination": "자동",
  "lat": 35.87457,
  "lng": 128.59447
 },
 {
  "name": "호반할인마트",
  "address": "광주 광산구 도산로9번길 40",
  "combination": "자동",
  "lat": 35.127934,
  "lng": 126.790115
 },
 {
  "name": "월드이동통신",
  "address": "대전 중구 충무로 169 1층 슈퍼",
  "combination": "자동",
  "lat": 36.320896,
  "lng": 127.43496
 },
 {
  "name": "현대사",
  "address": "경기 성남시 분당구 미금일로 77 구미제2조합상가 102호",
  "combination": "수동",
  "lat": 37.3456,
  "lng": 127.111084
 },
 {
  "name": "현대사",
  "address": "경기 성남시 분당구 미금일로 77 구미제2조합상가 102호",
  "combination": "수동",
  "lat": 37.3456,
  "lng": 127.111084
 },
 {
  "name": "현대사",
  "address": "경기 성남시 분당구 미금일로 77 구미제2조합상가 102호",
  "combination": "수동",
  "lat": 37.3456,
  "lng": 127.111084
 },
 {
  "name": "준",
  "address": "경기 평택시 서동대로 1152",
  "combination": "자동",
  "lat": 36.982677,
  "lng": 126.882225
 },
 {
  "name": "복권나라동성점",
  "address": "전남 순천시 연향번영길 94 동성아파트 상가113호",
  "combination": "자동",
  "lat": 34.950096,
  "lng": 127.51894
 }
]