[
 {
  "name": "대박로또",
  "address": "서울 성동구 용답19길 11",
  "combination": "수동",
  "lat": 37.56328,
  "lng": 127.052055
 },
 {
  "name": "우일",
  "address": "서울 송파구 마천로 235",
  "combination": "자동",
  "lat": 37.49996,
  "lng": 127.14397
 },
 {
  "name": "잠실매점",
  "address": "서울 송파구 올림픽로 269 잠실역 8번출구 앞 가판",
  "combination": "자동",
  "lat": 37.514446,
  "lng": 127.10071
 },
 {
  "name": "CU(신길도림점)",
  "address": "서울 영등포구  신길동 289-6번지",
  "combination": "반자동",
  "lat": 37.508198,
  "lng": 126.905426
 },
 {
  "name": "복권방",
  "address": "부산 사하구 하단동  589-1번지 강서할인마트 내",
  "combination": "자동",
  "lat": 35.105904,
  "lng": 128.96559
 },
 {
  "name": "태양슈퍼마켓",
  "address": "부산 해운대구 신반송로 171 삼한115호",
  "combination": "자동",
  "lat": 35.227863,
  "lng": 129.1608
 },
 {
  "name": "프랜드리",
  "address": "대구 동구 아양로7길 12 신암뜨랜채상가111호",
  "combination": "자동",
  "lat": 35.883347,
  "lng": 128.61774
 },
 {
  "name": "왕대박복권",
  "address": "인천 부평구 동수천로 108 1층",
  "combination": "수동",
  "lat": 37.495102,
  "lng": 126.73705
 },
 {
  "name": "대광슈퍼",
  "address": "경기 군포시 고산로 679 미성프라자106호",
  "combination": "자동",
  "lat": 37.371067,
  "lng": 126.93395
 },
 {
  "name": "알뜰슈퍼",
  "address": "경기 동두천시 평화로 2436-1 4/6",
  "combination": "수동",
  "lat": 37.90527,
  "lng": 127.05821
 },
 {
  "name": "복권나라",
  "address": "강원 정선군 정선로 1333-1 복권방",
  "combination": "자동",
  "lat": 37.379654,
  "lng": 128.66212
 },
 {
  "name": "도깨비 복권 전문점",
  "address": "충북 증평군 광장로 119",
  "combination": "수동",
  "lat": 36.78428,
  "lng": 127.585045
 }
]