[
 {
  "name": "복권1번",
  "address": "부산 부산진구 서면로 56 서면시장1층46호",
  "combination": "자동",
  "lat": 35.15564,
  "lng": 129.05817
 },
 {
  "name": "복권전문점",
  "address": "인천 부평구 원적로 437",
  "combination": "자동",
  "lat": 37.50383,
  "lng": 126.7151
 },
 {
  "name": "운천점(복권나라)",
  "address": "광주 서구 운천로 153 1층",
  "combination": "자동",
  "lat": 35.14632,
  "lng": 126.85665
 },
 {
  "name": "풍무대박복권",
  "address": "경기 김포시 황금3로7번길 85 가동 109호",
  "combination": "자동",
  "lat": 37.6097,
  "lng": 126.724846
 },
 {
  "name": "행복한집",
  "address": "경기 오산시 경기대로148번길 8,(원동)",
  "combination": "자동",
  "lat": 37.13778,
  "lng": 127.074196
 },
 {
  "name": "GS25(이천현대)",
  "address": "경기 이천시  대월면 대흥리1-6",
  "combination": "수동",
  "lat": 37.249588,
  "lng": 127.47492
 },
 {
  "name": "GS25(천안신방)",
  "address": "충남 천안시 동남구 신방동 905번지 현대아파트상가102호 GS25편의점",
  "combination": "수동",
  "lat": 36.789265,
  "lng": 127.13003
 },
 {
  "name": "복권왕국",
  "address": "전남 여수시 화산로 134",
  "combination": "수동",
  "lat": 34.77723,
  "lng": 127.651146
 }
]