[
 {
  "name": "보경식품",
  "address": "서울 강북구 도봉로 211,(미아동)",
  "combination": "반자동",
  "lat": 37.627495,
  "lng": 127.02538
 },
 {
  "name": "GS25(동천화성)",
  "address": "대구 북구 동천동  933-3번지",
  "combination": "자동",
  "lat": 35.936787,
  "lng": 128.5582
 },
 {
  "name": "주택복권방",
  "address": "경기 용인시 수지구 풍덕천로 144-1 103호",
  "combination": "수동",
  "lat": 37.323883,
  "lng": 127.09745
 },
 {
  "name": "버스표판매소",
  "address": "경기 의정부시 평화로 535 의정부역 동부광장 앞(버스정류장)",
  "combination": "자동",
  "lat": 37.740177,
  "lng": 127.04713
 },
 {
  "name": "로또방",
  "address": "전북 전주시 완산구 소대배기로 9",
  "combination": "자동",
  "lat": 35.787586,
  "lng": 127.13131
 },
 {
  "name": "세방매점",
  "address": "경북 경주시 산업로 4447 (용강동)",
  "combination": "자동",
  "lat": 35.877205,
  "lng": 129.22649
 },
 {
  "name": "천하명당복권방",
  "address": "경남 거제시 옥포성안로 60",
  "combination": "수동",
  "lat": 34.891693,
  "lng": 128.69492
 }
]