[
 {
  "name": "G마트",
  "address": "서울 영등포구 디지털로 387",
  "combination": "자동",
  "lat": 37.491634,
  "lng": 126.902115
 },
 {
  "name": "엔타임편의점(대승복권)",
  "address": "부산 해운대구 좌동  1479-3번지 세종월드프라자 137 엔타임편의점내",
  "combination": "자동",
  "lat": 35.169605,
  "lng": 129.17772
 },
 {
  "name": "그린마트",
  "address": "대전 중구 대종로 465 이안과병원 건너편",
  "combination": "자동",
  "lat": 36.326027,
  "lng": 127.4271
 },
 {
  "name": "대박",
  "address": "충북 청주시 상당구 용담동 398번지",
  "combination": "자동",
  "lat": 36.63106,
  "lng": 127.50617
 },
 {
  "name": "로또판매점",
  "address": "충남 당진시 읍내동  227-12번지",
  "combination": "수동",
  "lat": 36.89354,
  "lng": 126.62829
 },
 {
  "name": "대동도기상사",
  "address": "경북 영천시 금완로 30",
  "combination": "자동",
  "lat": 35.960327,
  "lng": 128.93187
 },
 {
  "name": "팬더복권",
  "address": "경북 포항시 남구 충무로 39-1 1층,우측상가",
  "combination": "자동",
  "lat": 35.97604,
  "lng": 129.41425
 },
 {
  "name": "목화휴게소",
  "address": "경남 사천시 사천대로 912",
  "combination": "자동",
  "lat": 35.0018,
  "lng": 128.05415
 }
]