[
 {
  "name": "노다지훼밀리",
  "address": "서울 강동구 구천면로 251",
  "combination": "수동",
  "lat": 37.542835,
  "lng": 127.13127
 },
 {
  "name": "상암DMC빌점",
  "address": "서울 마포구 상암동  1584번지 상암동DMC빌상가 104호",
  "combination": "자동",
  "lat": 37.582474,
  "lng": 126.88505
 },
 {
  "name": "프로토베팅샵",
  "address": "부산 중구 국제시장2길 5 4호",
  "combination": "수동",
  "lat": 35.099678,
  "lng": 129.0284
 },
 {
  "name": "CU(도화향기점)",
  "address": "인천 남구  도화동 119-44번지",
  "combination": "수동",
  "lat": 37.46806,
  "lng": 126.67169
 },
 {
  "name": "훼미리마트인천선학점",
  "address": "인천 연수구 봉재산로 20 상가동 107호",
  "combination": "수동",
  "lat": 37.409782,
  "lng": 126.66613
 },
 {
  "name": "대야지복권",
  "address": "광주 남구 회재로 1255-1",
  "combination": "자동",
  "lat": 35.134727,
  "lng": 126.89801
 },
 {
  "name": "로또판매점(복권방)",
  "address": "경기 군포시 당동  921-5번지 금강프라자1-110호",
  "combination": "수동",
  "lat": 37.346558,
  "lng": 126.94431
 },
 {
  "name": "미소로또",
  "address": "경기 남양주시 가운로1길 17 마이라이프 오피스텔",
  "combination": "자동",
  "lat": 37.604572,
  "lng": 127.15699
 },
 {
  "name": "행운슈퍼 복권사는날",
  "address": "경기 부천시 경인로 148,(송내동)",
  "combination": "자동",
  "lat": 37.48377,
  "lng": 126.77174
 },
 {
  "name": "GS25(수원황골)",
  "address": "경기 수원시 영통구 영통동 945-7번지",
  "combination": "수동",
  "lat": 37.266285,
  "lng": 127.081604
 },
 {
  "name": "GS25(수원황골)",
  "address": "경기 수원시 영통구 영통동 945-7번지",
  "combination": "수동",
  "lat": 37.266285,
  "lng": 127.081604
 },
 {
  "name": "엑스트라",
  "address": "경기 안성시 인지동  419-2번지 1층 엑스트라비디오",
  "combination": "수동",
  "lat": 37.00457,
  "lng": 127.26838
 },
 {
  "name": "복권방",
  "address": "경기 용인시 기흥구 신갈로68번길 24",
  "combination": "자동",
  "lat": 37.273155,
  "lng": 127.10815
 },
 {
  "name": "CU(원주명륜점)",
  "address": "강원 원주시  명륜동 751번지",
  "combination": "수동",
  "lat": 37.33302,
  "lng": 127.941826
 }
]