[
 {
  "name": "드림로또",
  "address": "대구 북구 침산로 153 명성푸르지오 상가 103동 B2호",
  "combination": "자동",
  "lat": 35.889423,
  "lng": 128.59015
 },
 {
  "name": "왕대박복권",
  "address": "인천 부평구 동수천로 108 1층",
  "combination": "수동",
  "lat": 37.495102,
  "lng": 126.73705
 },
 {
  "name": "오렌지25",
  "address": "경기 고양시 일산서구 고봉로 291 양우에이스스타디움109",
  "combination": "자동",
  "lat": 37.68528,
  "lng": 126.777145
 },
 {
  "name": "CU(횡성점)",
  "address": "강원 횡성군  횡성읍 읍하리118-1번지",
  "combination": "수동",
  "lat": 37.48886,
  "lng": 127.9855
 },
 {
  "name": "행운복권",
  "address": "충북 제천시 명륜로 67 1층",
  "combination": "자동",
  "lat": 37.142334,
  "lng": 128.20863
 },
 {
  "name": "복권나라",
  "address": "충북 청주시 상당구 상당로 9",
  "combination": "자동",
  "lat": 36.629227,
  "lng": 127.491035
 },
 {
  "name": "돈벼락복권방",
  "address": "충남 논산시 시민로 337 1층 상가",
  "combination": "자동",
  "lat": 36.194923,
  "lng": 127.089935
 },
 {
  "name": "한솔복권방",
  "address": "전남 목포시 남교동  34-1번지 한솔복권방",
  "combination": "자동",
  "lat": 34.794006,
  "lng": 126.38017
 }
]