[
 {
  "name": "스파",
  "address": "서울 노원구 동일로 1493 상계주공아파트(10단지) 주공10단지종합상가111",
  "combination": "수동",
  "lat": 37.66166,
  "lng": 127.05787
 },
 {
  "name": "스파",
  "address": "서울 노원구 동일로 1493 상계주공아파트(10단지) 주공10단지종합상가111",
  "combination": "자동",
  "lat": 37.66166,
  "lng": 127.05787
 },
 {
  "name": "부일카서비스",
  "address": "부산 동구 자성로133번길 35",
  "combination": "수동",
  "lat": 35.140015,
  "lng": 129.06306
 },
 {
  "name": "세븐일레븐 수완점",
  "address": "광주 광산구 장신로 68  101호",
  "combination": "자동",
  "lat": 35.190487,
  "lng": 126.81769
 },
 {
  "name": "로또복권방",
  "address": "경기 시흥시 은계호수로 31 그린타워 1층 112호",
  "combination": "자동",
  "lat": 37.444515,
  "lng": 126.80343
 },
 {
  "name": "25시슈퍼",
  "address": "경기 시흥시 함송로14번길 13-17 홍익프라자1층107호",
  "combination": "자동",
  "lat": 37.362453,
  "lng": 126.72994
 },
 {
  "name": "찬스365",
  "address": "경기 양평군 양서면  양수리  562-6번지",
  "combination": "자동",
  "lat": 37.54478,
  "lng": 127.31804
 },
 {
  "name": "천하명당복권방",
  "address": "경기 의왕시 경수대로 248 보왕빌딩",
  "combination": "자동",
  "lat": 37.348602,
  "lng": 126.974144
 },
 {
  "name": "화성슈퍼",
  "address": "경남 창원시 의창구 남산로17번길 33",
  "combination": "자동",
  "lat": 35.26091,
  "lng": 128.61499
 }
]