[
 {
  "name": "가로판매점",
  "address": "서울 관악구 과천대로 955",
  "combination": "수동",
  "lat": 37.47595,
  "lng": 126.98115
 },
 {
  "name": "하이로또",
  "address": "서울 금천구 금하로 686",
  "combination": "자동",
  "lat": 37.451874,
  "lng": 126.906334
 },
 {
  "name": "성서제일복권",
  "address": "대구 달서구 성서동로 320 1층",
  "combination": "수동",
  "lat": 35.849182,
  "lng": 128.516
 },
 {
  "name": "세븐일레븐 현풍대로점",
  "address": "대구 달성군 비슬로 581 세븐일레븐현풍대로점",
  "combination": "수동",
  "lat": 35.690544,
  "lng": 128.44447
 },
 {
  "name": "복권명당",
  "address": "대구 중구 태평로1가  19-1번지",
  "combination": "자동",
  "lat": 35.873936,
  "lng": 128.59943
 },
 {
  "name": "대광광고사",
  "address": "대전 유성구 구즉로 54",
  "combination": "자동",
  "lat": 36.433846,
  "lng": 127.385056
 },
 {
  "name": "로또가게",
  "address": "경기 용인시 처인구 경기동로706번길 1",
  "combination": "수동",
  "lat": 37.13827,
  "lng": 127.19789
 },
 {
  "name": "로또.토토.블루베리",
  "address": "경기 평택시 안현로서6길 7 대건빌딩 105호",
  "combination": "자동",
  "lat": 36.98331,
  "lng": 126.928055
 },
 {
  "name": "CU로또(구미고아점)",
  "address": "경북 구미시 고아읍  관심리  668-9번지 CU편의점 내",
  "combination": "자동",
  "lat": 36.20934,
  "lng": 128.33025
 }
]