[
 {
  "name": "Today",
  "address": "서울 광진구 광나루로56길 85 테크노마트9층판매동24호",
  "combination": "자동",
  "lat": 37.53569,
  "lng": 127.09574
 },
 {
  "name": "버스판매소",
  "address": "서울 영등포구 영중로 2 1층(영등포동3가)",
  "combination": "자동",
  "lat": 37.516743,
  "lng": 126.906746
 },
 {
  "name": "대영당안경원",
  "address": "부산 동래구 충렬대로237번길 9,(수안동)",
  "combination": "자동",
  "lat": 35.201954,
  "lng": 129.08519
 },
 {
  "name": "서구연희로또",
  "address": "인천 서구 염곡로 39 1층",
  "combination": "자동",
  "lat": 37.4884,
  "lng": 126.664154
 },
 {
  "name": "대전우표사",
  "address": "대전 동구 중앙로204번길 16-1",
  "combination": "자동",
  "lat": 36.330036,
  "lng": 127.432076
 },
 {
  "name": "㈜현대택배권선영업소",
  "address": "경기 수원시 권선구 곡반정로 95-1 104호",
  "combination": "자동",
  "lat": 37.23694,
  "lng": 127.03014
 },
 {
  "name": "천하명당복권방",
  "address": "경기 안성시 중앙로 424",
  "combination": "수동",
  "lat": 37.006596,
  "lng": 127.27369
 },
 {
  "name": "천하명당복권방",
  "address": "경기 안성시 중앙로 424",
  "combination": "수동",
  "lat": 37.006596,
  "lng": 127.27369
 },
 {
  "name": "행운복권",
  "address": "충북 제천시 명륜로 67 1층",
  "combination": "자동",
  "lat": 37.142334,
  "lng": 128.20863
 },
 {
  "name": "천하제일복권명당연무점",
  "address": "충남 논산시 연무읍  안심리  1126-36번지",
  "combination": "수동",
  "lat": 36.13547,
  "lng": 127.10008
 },
 {
  "name": "천하제일복권명당연무점",
  "address": "충남 논산시 연무읍  안심리  1126-36번지",
  "combination": "수동",
  "lat": 36.13547,
  "lng": 127.10008
 }
]