[
 {
  "name": "동수슈퍼문구복권",
  "address": "인천 부평구 동수로 101",
  "combination": "자동",
  "lat": 37.485455,
  "lng": 126.72979
 },
 {
  "name": "버스표거리판매점",
  "address": "경기 수원시 장안구 조원동  768-10번지",
  "combination": "수동",
  "lat": 37.29874,
  "lng": 127.01599
 },
 {
  "name": "노다지복권방",
  "address": "경기 안산시 단원구 와동  779-7번지 102호",
  "combination": "수동",
  "lat": 37.34525,
  "lng": 126.821724
 },
 {
  "name": "터미널식품",
  "address": "경기 의정부시 동일로 640,(금오동)",
  "combination": "자동",
  "lat": 37.745457,
  "lng": 127.05505
 },
 {
  "name": "황금복권마트",
  "address": "경기 이천시 증신로325번길 5 1층",
  "combination": "자동",
  "lat": 37.297546,
  "lng": 127.438866
 },
 {
  "name": "원동슈퍼",
  "address": "충남 보령시 대천로 28",
  "combination": "자동",
  "lat": 36.35113,
  "lng": 126.59745
 },
 {
  "name": "GS25(두정메트로점)",
  "address": "충남 천안시 서북구 성정동 1451번지",
  "combination": "자동",
  "lat": 36.826557,
  "lng": 127.14148
 },
 {
  "name": "행운복권방 보생당건강원",
  "address": "전북 익산시 무왕로 1268",
  "combination": "자동",
  "lat": 35.960304,
  "lng": 126.99727
 }
]