[
 {
  "name": "행운마트",
  "address": "서울 강동구 구천면로34길 71",
  "combination": "수동",
  "lat": 37.542873,
  "lng": 127.13504
 },
 {
  "name": "삼덕상회",
  "address": "부산 금정구  구서1동 409-11번지하프타임 편의점 내",
  "combination": "자동",
  "lat": 35.21402,
  "lng": 129.10315
 },
 {
  "name": "강화상회",
  "address": "인천 강화군 강화읍  갑곳리  846-1번지 102호",
  "combination": "자동",
  "lat": 37.74287,
  "lng": 126.49272
 },
 {
  "name": "훼미리로또",
  "address": "광주 남구 봉선로 164 삼환빌딩 CU봉선쌍용점 내",
  "combination": "자동",
  "lat": 35.122723,
  "lng": 126.91318
 },
 {
  "name": "태일이엔지",
  "address": "경기 수원시 권선구 경수대로302번길 22 상가동 107호(권선동, 권선한양아파트)",
  "combination": "수동",
  "lat": 37.25249,
  "lng": 127.02103
 },
 {
  "name": "천하명당우만점",
  "address": "경기 수원시 팔달구 월드컵로369번길 4",
  "combination": "수동",
  "lat": 37.29025,
  "lng": 127.03013
 },
 {
  "name": "스타마트",
  "address": "경북 구미시 임은길 15",
  "combination": "자동",
  "lat": 36.087524,
  "lng": 128.36456
 },
 {
  "name": "대박찬스로또복권방",
  "address": "경북 의성군 문소3길 95-1",
  "combination": "자동",
  "lat": 36.354443,
  "lng": 128.69412
 },
 {
  "name": "로터리편의마트",
  "address": "경북 포항시 북구 서동로 85 육거리",
  "combination": "자동",
  "lat": 36.040768,
  "lng": 129.36725
 },
 {
  "name": "창원병원앞매표소",
  "address": "경남 창원시 성산구 중앙동  104-1번지  가판",
  "combination": "자동",
  "lat": 35.2185,
  "lng": 128.67143
 }
]