[
 {
  "name": "준마트",
  "address": "경기 고양시 덕양구 행당로 35",
  "combination": "수동",
  "lat": 37.619385,
  "lng": 126.82859
 },
 {
  "name": "로또판매점",
  "address": "경기 안산시 상록구 영화6길 21-1 102호",
  "combination": "수동",
  "lat": 37.280636,
  "lng": 126.85183
 },
 {
  "name": "가두판매점",
  "address": "경기 안양시 만안구 안양로 330-1",
  "combination": "수동",
  "lat": 37.401344,
  "lng": 126.91967
 },
 {
  "name": "로또부자세상",
  "address": "강원 원주시 천사로 286 1층",
  "combination": "수동",
  "lat": 37.35452,
  "lng": 127.954575
 },
 {
  "name": "이효민나눔로또",
  "address": "경남 거제시 능포로 164 1층",
  "combination": "자동",
  "lat": 34.877945,
  "lng": 128.73323
 },
 {
  "name": "대우할인매장",
  "address": "경남 창원시 성산구 정동로162번길 74 대운상가1층109",
  "combination": "수동",
  "lat": 35.200825,
  "lng": 128.69797
 }
]