[
 {
  "name": "GS25(구로제일)",
  "address": "서울 구로구  구로동 685-215번지103호",
  "combination": "자동",
  "lat": 37.49201,
  "lng": 126.87578
 },
 {
  "name": "복권천국방",
  "address": "서울 마포구 동교로 92 1층",
  "combination": "자동",
  "lat": 37.554207,
  "lng": 126.91237
 },
 {
  "name": "천복권방",
  "address": "대전 대덕구 한밭대로1043번길 2",
  "combination": "수동",
  "lat": 36.358776,
  "lng": 127.41447
 },
 {
  "name": "로또복권방",
  "address": "경기 고양시 덕양구 행신동 950-1 삼일프라자1층105호",
  "combination": "자동",
  "lat": 37.623337,
  "lng": 126.837
 },
 {
  "name": "금강종합공구",
  "address": "경기 김포시 대곶면  율생리  350-5번지",
  "combination": "수동",
  "lat": 37.652786,
  "lng": 126.59066
 },
 {
  "name": "버스표가두판매점",
  "address": "경기 수원시 팔달구 중부대로  171-2 가로판매대11",
  "combination": "자동",
  "lat": 37.277588,
  "lng": 127.03502
 },
 {
  "name": "가야홀인원복권방",
  "address": "경기 의정부시 체육로 306-14,(녹양동)",
  "combination": "수동",
  "lat": 37.760475,
  "lng": 127.04132
 },
 {
  "name": "명성복권방",
  "address": "경기 화성시 경기대로 1043",
  "combination": "자동",
  "lat": 37.208466,
  "lng": 127.0343
 },
 {
  "name": "로또복권",
  "address": "경기 화성시 사강로 172",
  "combination": "자동",
  "lat": 37.21268,
  "lng": 126.73488
 }
]