[
 {
  "name": "우리들마트",
  "address": "부산 동래구 온천장로119번길 20 10호(온천동, 온천아파트 점포)",
  "combination": "자동",
  "lat": 35.222446,
  "lng": 129.08429
 },
 {
  "name": "플러스24",
  "address": "광주 광산구 장신로 143 45타워 109호 로또플러스24",
  "combination": "자동",
  "lat": 35.191006,
  "lng": 126.825905
 },
 {
  "name": "보경복권",
  "address": "울산 북구 명촌6길 7",
  "combination": "수동",
  "lat": 35.558064,
  "lng": 129.36029
 },
 {
  "name": "초월대박복권방",
  "address": "경기 광주시 경충대로 1252",
  "combination": "수동",
  "lat": 37.386677,
  "lng": 127.28821
 },
 {
  "name": "장군슈퍼",
  "address": "경기 부천시 소사로 837",
  "combination": "수동",
  "lat": 37.530933,
  "lng": 126.80509
 },
 {
  "name": "은미복권방",
  "address": "경기 부천시 소사로794번길 6",
  "combination": "수동",
  "lat": 37.52689,
  "lng": 126.80513
 },
 {
  "name": "GS25(영통번영점)",
  "address": "경기 수원시 영통구 영통동 1038-1번지",
  "combination": "수동",
  "lat": 37.2538,
  "lng": 127.0769
 },
 {
  "name": "왕대박",
  "address": "경기 평택시 안정로29번길 32 1층 우측",
  "combination": "수동",
  "lat": 36.96071,
  "lng": 127.0464
 },
 {
  "name": "CU(제천역점)",
  "address": "충북 제천시 화산동 208-1번지",
  "combination": "수동",
  "lat": 37.129704,
  "lng": 128.20674
 },
 {
  "name": "CU(제천역점)",
  "address": "충북 제천시 화산동 208-1번지",
  "combination": "수동",
  "lat": 37.129704,
  "lng": 128.20674
 },
 {
  "name": "천금복권방",
  "address": "충북 청주시 상당구 쇠내로 150-1",
  "combination": "수동",
  "lat": 36.620747,
  "lng": 127.50797
 },
 {
  "name": "해적책대여점 복권방",
  "address": "충북 청주시 서원구 대원로 28",
  "combination": "자동",
  "lat": 36.639973,
  "lng": 127.479355
 },
 {
  "name": "신방복권",
  "address": "충남 천안시 동남구 신촌로 19 101호",
  "combination": "자동",
  "lat": 36.788727,
  "lng": 127.12157
 },
 {
  "name": "대박복권방",
  "address": "전북 전주시 덕진구 건산로 252",
  "combination": "자동",
  "lat": 35.834652,
  "lng": 127.16473
 }
]