[
 {
  "name": "강북구교통카드판매대",
  "address": "서울 강북구 솔샘로 260 가판",
  "combination": "자동",
  "lat": 37.61919,
  "lng": 127.0214
 },
 {
  "name": "우면점로또판매",
  "address": "서울 서초구 우면동 2-9번지",
  "combination": "자동",
  "lat": 37.469906,
  "lng": 127.02541
 },
 {
  "name": "안전열쇠",
  "address": "인천 계양구 경명대로 1124 명인프라자102호",
  "combination": "자동",
  "lat": 37.54285,
  "lng": 126.731895
 },
 {
  "name": "노다지복권방",
  "address": "인천 미추홀구 한나루로 400 학익시장 외7필지125호",
  "combination": "자동",
  "lat": 37.443375,
  "lng": 126.66496
 },
 {
  "name": "역전복권방",
  "address": "광주 광산구 상무대로 208 1층",
  "combination": "자동",
  "lat": 35.13774,
  "lng": 126.79203
 },
 {
  "name": "공단마트로또점",
  "address": "경남 함안군 삼칠로 831 슈퍼 옆 1층",
  "combination": "자동",
  "lat": 35.360252,
  "lng": 128.48526
 }
]