[
 {
  "name": "덕성상회",
  "address": "서울 강서구 외발산동 424번지 강서농수산물도매시장내 1층 슈퍼",
  "combination": "수동",
  "lat": 37.566425,
  "lng": 126.81504
 },
 {
  "name": "헬로마트",
  "address": "서울 도봉구 도봉로170길 8,(도봉동)",
  "combination": "반자동",
  "lat": 37.680374,
  "lng": 127.04596
 },
 {
  "name": "가로판매점",
  "address": "서울 송파구 올림픽로37길 109 잠실나루역 2번출구",
  "combination": "자동",
  "lat": 37.522404,
  "lng": 127.104744
 },
 {
  "name": "복권",
  "address": "서울 중랑구 망우로30길 8 105호",
  "combination": "자동",
  "lat": 37.592857,
  "lng": 127.07427
 },
 {
  "name": "부영마트",
  "address": "서울 중랑구 상봉동 108번지",
  "combination": "반자동",
  "lat": 37.594753,
  "lng": 127.085655
 },
 {
  "name": "모닝마트",
  "address": "대구 남구 성당로18길 45-10,(대명동)",
  "combination": "자동",
  "lat": 35.84553,
  "lng": 128.56494
 },
 {
  "name": "삼성로또명당",
  "address": "인천 계양구 하느재로 14",
  "combination": "자동",
  "lat": 37.544548,
  "lng": 126.72533
 },
 {
  "name": "영진슈퍼",
  "address": "경기 성남시 분당구 야탑동 353-1번지 영진다이비스117호",
  "combination": "수동",
  "lat": 37.411606,
  "lng": 127.12633
 },
 {
  "name": "태일이엔지",
  "address": "경기 수원시 권선구 경수대로302번길 22 상가동 107호(권선동, 권선한양아파트)",
  "combination": "자동",
  "lat": 37.25249,
  "lng": 127.02103
 },
 {
  "name": "로또복권",
  "address": "경기 안산시 단원구 선부광장1로 121 중앙슈퍼 101호",
  "combination": "수동",
  "lat": 37.33222,
  "lng": 126.81208
 },
 {
  "name": "GS25(안산신영점)",
  "address": "경기 안산시 상록구 본오동 874-12번지 신영빌딩103호104호",
  "combination": "수동",
  "lat": 37.301926,
  "lng": 126.86434
 },
 {
  "name": "현대장미슈퍼",
  "address": "전북 익산시 동서로61길 41 현대아파트1층108호",
  "combination": "수동",
  "lat": 35.95509,
  "lng": 126.98032
 },
 {
  "name": "로또복권나라",
  "address": "전북 정읍시 연지동 315-15번지",
  "combination": "수동",
  "lat": 35.573956,
  "lng": 126.845375
 },
 {
  "name": "SKY정보통신",
  "address": "경북 청도군 청도읍 청화로 140,(고수리)",
  "combination": "수동",
  "lat": 35.644585,
  "lng": 128.74147
 },
 {
  "name": "성심상회",
  "address": "경북 포항시 북구 불종로 78",
  "combination": "자동",
  "lat": 36.038174,
  "lng": 129.36801
 },
 {
  "name": "대박찬스",
  "address": "경남 창원시 마산합포구 자산삼거리로 16",
  "combination": "수동",
  "lat": 35.202923,
  "lng": 128.56621
 }
]