[
 {
  "name": "땡큐마트",
  "address": "대구 수성구 만촌1동 636-21번지",
  "combination": "자동",
  "lat": 35.872864,
  "lng": 128.64719
 },
 {
  "name": "GS25(둔산을지점)",
  "address": "대전 서구 둔산동 1349번지",
  "combination": "자동",
  "lat": 36.354984,
  "lng": 127.38061
 },
 {
  "name": "골든복권방",
  "address": "울산 남구 문수로435번길 24",
  "combination": "자동",
  "lat": 35.535637,
  "lng": 129.30103
 },
 {
  "name": "부강로또",
  "address": "세종 부강면 부강로 34,(부강리)",
  "combination": "자동",
  "lat": 36.529217,
  "lng": 127.3665
 },
 {
  "name": "행복충전소",
  "address": "경기 평택시 탄현로 332-2",
  "combination": "자동",
  "lat": 37.0818,
  "lng": 127.05637
 },
 {
  "name": "세종로또복권방",
  "address": "세종  금남면 용포리 88-17번지",
  "combination": "자동",
  "lat": 36.463173,
  "lng": 127.28049
 },
 {
  "name": "로또판매점",
  "address": "전북 장수군 장수읍 싸리재로 18",
  "combination": "자동",
  "lat": 35.648823,
  "lng": 127.520744
 },
 {
  "name": "복권명당판매소",
  "address": "경북 의성군 안계면 용기리 851-29",
  "combination": "자동",
  "lat": 36.38624,
  "lng": 128.43475
 },
 {
  "name": "목화휴게소",
  "address": "경남 사천시 사천대로 912",
  "combination": "자동",
  "lat": 35.0018,
  "lng": 128.05415
 }
]