[
 {
  "name": "토큰판매점",
  "address": "서울 강북구 도봉로 45 가판",
  "combination": "자동",
  "lat": 37.61315,
  "lng": 127.02949
 },
 {
  "name": "스파",
  "address": "서울 노원구 동일로 1493 상계주공아파트(10단지) 주공10단지종합상가111",
  "combination": "수동",
  "lat": 37.66166,
  "lng": 127.05787
 },
 {
  "name": "로또복권판매대",
  "address": "서울 서초구 반포동 54-7번지 e-b/d1층",
  "combination": "수동",
  "lat": 37.50102,
  "lng": 127.009895
 },
 {
  "name": "동성당",
  "address": "서울 종로구 청계천로 261",
  "combination": "자동",
  "lat": 37.569958,
  "lng": 127.00655
 },
 {
  "name": "명동역5번출구가판",
  "address": "서울 중구 퇴계로 115",
  "combination": "자동",
  "lat": 37.561043,
  "lng": 126.9845
 },
 {
  "name": "복권천국",
  "address": "경기 부천시 부일로 502",
  "combination": "자동",
  "lat": 37.485237,
  "lng": 126.785835
 },
 {
  "name": "로또(파발마점)",
  "address": "경기 시흥시 마유로 415 역전프라자105호",
  "combination": "자동",
  "lat": 37.351974,
  "lng": 126.740585
 },
 {
  "name": "하이로또복권방",
  "address": "경기 안양시 동안구 관악대로339번길 7,(관양동)",
  "combination": "자동",
  "lat": 37.404186,
  "lng": 126.96016
 },
 {
  "name": "로또휴게실",
  "address": "경기 용인시 기흥구 용구대로 1885",
  "combination": "수동",
  "lat": 37.256386,
  "lng": 127.10432
 },
 {
  "name": "진성식품",
  "address": "충북 제천시 의병대로 84 1층",
  "combination": "자동",
  "lat": 37.136086,
  "lng": 128.20995
 },
 {
  "name": "상우상사",
  "address": "경남 통영시 광도면 죽림리 1580-42번지 1층 CU편의점 內",
  "combination": "자동",
  "lat": 34.877377,
  "lng": 128.42078
 }
]