[
 {
  "name": "복권천국",
  "address": "서울 서초구 서초대로 97 1층",
  "combination": "자동",
  "lat": 37.48771,
  "lng": 126.99283
 },
 {
  "name": "복권명당율하점",
  "address": "대구 동구 율하동로23길 37",
  "combination": "자동",
  "lat": 35.87035,
  "lng": 128.69803
 },
 {
  "name": "한국인세계대박복권",
  "address": "인천 연수구 한나루로197번길 34",
  "combination": "수동",
  "lat": 37.42769,
  "lng": 126.65522
 },
 {
  "name": "로또복권",
  "address": "경기 광명시 하안동 260-2번지 8단지종합상가공유지",
  "combination": "자동",
  "lat": 37.45889,
  "lng": 126.88217
 },
 {
  "name": "복권백화점",
  "address": "경기 여주시 세종로 41 1층",
  "combination": "수동",
  "lat": 37.294037,
  "lng": 127.63629
 },
 {
  "name": "로또휴게실",
  "address": "경기 용인시 기흥구 용구대로 1885",
  "combination": "자동",
  "lat": 37.256386,
  "lng": 127.10432
 },
 {
  "name": "베스트올수성점",
  "address": "전북 정읍시 수성2로 28",
  "combination": "수동",
  "lat": 35.58169,
  "lng": 126.854416
 },
 {
  "name": "복권전문점선산",
  "address": "경북 구미시 선산읍 완전리 11-3 세븐일레븐 편의점",
  "combination": "자동",
  "lat": 36.241978,
  "lng": 128.30127
 }
]