[
 {
  "name": "재벌 로터리",
  "address": "부산 중구 구덕로 1 재벌마트",
  "combination": "수동",
  "lat": 35.097614,
  "lng": 129.03546
 },
 {
  "name": "가정슈퍼",
  "address": "인천 미추홀구 숙골로43번길 158-19",
  "combination": "자동",
  "lat": 37.46708,
  "lng": 126.657074
 },
 {
  "name": "아리러브마트복권방",
  "address": "울산 중구 유곡로 19-1",
  "combination": "수동",
  "lat": 35.55638,
  "lng": 129.30725
 },
 {
  "name": "로또명당구래점",
  "address": "경기 김포시 구래동 6683-16번지 경서프라자 106호 CU김포구래점",
  "combination": "자동",
  "lat": 37.64419,
  "lng": 126.627335
 },
 {
  "name": "로또방",
  "address": "경기 성남시 분당구 야탑로139번길 6-14  B02호",
  "combination": "자동",
  "lat": 37.40982,
  "lng": 127.13512
 },
 {
  "name": "로또통신",
  "address": "경기 안성시 장기로 36",
  "combination": "수동",
  "lat": 37.00587,
  "lng": 127.26738
 },
 {
  "name": "GS25(이천현대점)",
  "address": "경기 이천시 대월면 대흥리 1-6번지",
  "combination": "자동",
  "lat": 37.249588,
  "lng": 127.47492
 },
 {
  "name": "일확천금로또판매점",
  "address": "충남 보령시 죽정동 691 다육농원(꽃가게)옆 점포",
  "combination": "자동",
  "lat": 36.358685,
  "lng": 126.604195
 },
 {
  "name": "태안로또복권방",
  "address": "충남 태안군 독샘로 57",
  "combination": "수동",
  "lat": 36.75318,
  "lng": 126.29935
 }
]