[
 {
  "name": "복권나라",
  "address": "서울 관악구 남부순환로 1739-9",
  "combination": "자동",
  "lat": 37.482788,
  "lng": 126.943474
 },
 {
  "name": "신나라복권나라",
  "address": "서울 동대문구 이문로 201",
  "combination": "자동",
  "lat": 37.604477,
  "lng": 127.061775
 },
 {
  "name": "GS25 동작양지",
  "address": "서울 동작구 상도동 365-1번지",
  "combination": "수동",
  "lat": 37.50203,
  "lng": 126.94469
 },
 {
  "name": "로또판매점(바이더웨이)",
  "address": "부산 금정구 구서동 415-2번지 세븐일레븐내",
  "combination": "수동",
  "lat": 35.246536,
  "lng": 129.09087
 },
 {
  "name": "씨스페이스(범어사역점)",
  "address": "부산 금정구 남산동 21-4번지",
  "combination": "수동",
  "lat": 35.27165,
  "lng": 129.09244
 },
 {
  "name": "행운 마트",
  "address": "인천 중구 운중로 39-2 1층 1호",
  "combination": "수동",
  "lat": 37.493896,
  "lng": 126.53794
 },
 {
  "name": "로또25",
  "address": "울산 남구 삼산동 1543-1번지",
  "combination": "자동",
  "lat": 35.5436,
  "lng": 129.3422
 },
 {
  "name": "팡팡사동복권방",
  "address": "경기 안산시 상록구 석호로 170 1층",
  "combination": "수동",
  "lat": 37.296867,
  "lng": 126.85053
 },
 {
  "name": "엑스트라",
  "address": "경기 안성시 인지동(안성2동) 419-2 1층 엑스트라비디오",
  "combination": "수동",
  "lat": 37.00457,
  "lng": 127.26838
 },
 {
  "name": "행운복권방",
  "address": "경기 양평군 용문로 358-1 1층",
  "combination": "수동",
  "lat": 37.484356,
  "lng": 127.59362
 },
 {
  "name": "팡팡복권방",
  "address": "충북 진천군 상산로 71",
  "combination": "수동",
  "lat": 36.854687,
  "lng": 127.44187
 },
 {
  "name": "부자복권방",
  "address": "전북 군산시 구시장로 4",
  "combination": "수동",
  "lat": 35.980473,
  "lng": 126.72023
 },
 {
  "name": "대광복권방",
  "address": "전남 화순군 칠충로 55 대광로제비앙 대광그린상가동 1층109호",
  "combination": "수동",
  "lat": 35.05548,
  "lng": 126.97712
 },
 {
  "name": "행운의집제1호점",
  "address": "경북 안동시 영가로 24",
  "combination": "수동",
  "lat": 36.56516,
  "lng": 128.7333
 },
 {
  "name": "CU(마산합성점)",
  "address": "경남 창원시 마산회원구 합성동 316-37번지",
  "combination": "수동",
  "lat": 35.228886,
  "lng": 128.58452
 }
]