[
 {
  "name": "신규판매점",
  "address": "서울 광진구 자양4동 829번지 현대종합상가114호",
  "combination": "자동",
  "lat": 37.53316,
  "lng": 127.06724
 },
 {
  "name": "욱일슈퍼",
  "address": "인천 부평구 경인로 1144",
  "combination": "자동",
  "lat": 37.484604,
  "lng": 126.746704
 },
 {
  "name": "하나로슈퍼복권방",
  "address": "경기 성남시 분당구 정자로 78 104호 (정자동, 영동프라자)",
  "combination": "자동",
  "lat": 37.36312,
  "lng": 127.11351
 },
 {
  "name": "버스표가판점",
  "address": "경기 안양시 동안구 동안로 125-2 범계역4-1출구앞 버스표가판점",
  "combination": "자동",
  "lat": 37.389736,
  "lng": 126.95106
 },
 {
  "name": "굿타임24아산석정점(구드림통신)",
  "address": "충남 아산시 충무로 230",
  "combination": "자동",
  "lat": 36.8013,
  "lng": 127.00762
 },
 {
  "name": "행복을주는집",
  "address": "충남 예산군 예덕로 13",
  "combination": "자동",
  "lat": 36.705246,
  "lng": 126.66933
 }
]