[
 {
  "name": "천하명당복권방독산점",
  "address": "서울 금천구 독산로85길 16",
  "combination": "수동",
  "lat": 37.472534,
  "lng": 126.90221
 },
 {
  "name": "삼육구마트",
  "address": "서울 양천구 목동중앙서로 43 1층",
  "combination": "자동",
  "lat": 37.53738,
  "lng": 126.86832
 },
 {
  "name": "심봤다복권나라",
  "address": "대구 북구 노원로 128",
  "combination": "자동",
  "lat": 35.8964,
  "lng": 128.57538
 },
 {
  "name": "세이브슈퍼",
  "address": "대구 수성구 달구벌대로 2467",
  "combination": "자동",
  "lat": 35.85927,
  "lng": 128.63261
 },
 {
  "name": "GS25(대전원내점)",
  "address": "대전 유성구 원내동 343-11번지",
  "combination": "자동",
  "lat": 36.29803,
  "lng": 127.319984
 },
 {
  "name": "행운복권방",
  "address": "경기 광주시 양벌로 329",
  "combination": "자동",
  "lat": 37.369953,
  "lng": 127.246414
 },
 {
  "name": "버스표가판점",
  "address": "경기 안양시 동안구 흥안대로  498-2",
  "combination": "자동",
  "lat": 37.398514,
  "lng": 126.97752
 },
 {
  "name": "행운복권방",
  "address": "경기 의정부시 충의로 55",
  "combination": "자동",
  "lat": 37.73674,
  "lng": 127.08712
 },
 {
  "name": "로또편의점",
  "address": "전남 강진군 보은로 115",
  "combination": "반자동",
  "lat": 34.63695,
  "lng": 126.77138
 },
 {
  "name": "베스트원",
  "address": "전남 영광군 신남로 209-1 1층",
  "combination": "자동",
  "lat": 35.276035,
  "lng": 126.5051
 }
]