[
 {
  "name": "행복나눔복권방",
  "address": "서울 강서구 가양동 155-8번지",
  "combination": "자동",
  "lat": 37.56886,
  "lng": 126.84109
 },
 {
  "name": "충무로또",
  "address": "부산 서구 구덕로 115-2",
  "combination": "반자동",
  "lat": 35.096386,
  "lng": 129.02332
 },
 {
  "name": "복권명당(영남점)",
  "address": "대구 달서구 월배로 122,(진천동)",
  "combination": "수동",
  "lat": 35.814716,
  "lng": 128.52782
 },
 {
  "name": "토큰박스",
  "address": "대구 동구 해동로 49 1층  CU편의점",
  "combination": "자동",
  "lat": 35.8937,
  "lng": 128.63759
 },
 {
  "name": "버스매표소",
  "address": "인천 부평구 부평대로 3 가판",
  "combination": "반자동",
  "lat": 37.49181,
  "lng": 126.722725
 },
 {
  "name": "포시즌마전점",
  "address": "인천 서구 완정로10번길 6-6 검단2지구37블록1롯트",
  "combination": "자동",
  "lat": 37.59451,
  "lng": 126.67347
 },
 {
  "name": "1등복권방",
  "address": "울산 울주군 동문길 84",
  "combination": "자동",
  "lat": 35.564198,
  "lng": 129.1246
 },
 {
  "name": "복권나라",
  "address": "경기 안산시 단원구 원본로 38,(원곡동)",
  "combination": "수동",
  "lat": 37.329906,
  "lng": 126.79361
 },
 {
  "name": "영일종합장식",
  "address": "경기 안산시 단원구 고잔로 112 신광프라자102호",
  "combination": "수동",
  "lat": 37.318695,
  "lng": 126.83853
 },
 {
  "name": "로또휴게실",
  "address": "경기 용인시 기흥구 용구대로 1885",
  "combination": "자동",
  "lat": 37.256386,
  "lng": 127.10432
 },
 {
  "name": "HX복권방",
  "address": "경기 이천시 부발읍 아미리 726-9 현대시티플라자106호",
  "combination": "자동",
  "lat": 37.25275,
  "lng": 127.48955
 }
]