[
 {
  "name": "다모아복권",
  "address": "서울 구로구 경인로19길 4",
  "combination": "자동",
  "lat": 37.495926,
  "lng": 126.84278
 },
 {
  "name": "다모아복권",
  "address": "서울 구로구 경인로19길 4",
  "combination": "수동",
  "lat": 37.495926,
  "lng": 126.84278
 },
 {
  "name": "조은복권방",
  "address": "울산 남구 수암로 124",
  "combination": "자동",
  "lat": 35.527668,
  "lng": 129.32079
 },
 {
  "name": "복권방",
  "address": "울산 동구 일산동 462-23번지",
  "combination": "반자동",
  "lat": 35.50411,
  "lng": 129.42747
 },
 {
  "name": "샘복권방",
  "address": "울산 울주군 천상중앙길 69",
  "combination": "자동",
  "lat": 35.56302,
  "lng": 129.22873
 },
 {
  "name": "쌍굴다리슈퍼",
  "address": "경기 부천시 부천로 173 1층 일부",
  "combination": "자동",
  "lat": 37.500458,
  "lng": 126.786064
 },
 {
  "name": "명진슈퍼",
  "address": "경기 의왕시 효행로 15",
  "combination": "자동",
  "lat": 37.34923,
  "lng": 126.974396
 },
 {
  "name": "행복충전소",
  "address": "경기 평택시 탄현로 332-2",
  "combination": "자동",
  "lat": 37.0818,
  "lng": 127.05637
 },
 {
  "name": "봉의산마트",
  "address": "강원 춘천시 춘천로 326 1층",
  "combination": "자동",
  "lat": 37.88261,
  "lng": 127.74867
 },
 {
  "name": "로또명당",
  "address": "충남 천안시 동남구 천안대로 103 5호",
  "combination": "수동",
  "lat": 36.759037,
  "lng": 127.171036
 }
]