[
 {
  "name": "로또사랑점",
  "address": "서울 강남구 역삼동 706-20번지 한화진넥스빌제1층106호",
  "combination": "자동",
  "lat": 37.501945,
  "lng": 127.04422
 },
 {
  "name": "교통카드충전",
  "address": "서울 서초구 서초대로77길 3",
  "combination": "자동",
  "lat": 37.497936,
  "lng": 127.02651
 },
 {
  "name": "구포라인점",
  "address": "부산 북구 구포동 700-148번지",
  "combination": "자동",
  "lat": 35.202557,
  "lng": 129.00429
 },
 {
  "name": "풍인식품",
  "address": "인천 남동구 남동대로934번길 13 2호",
  "combination": "반자동",
  "lat": 37.465904,
  "lng": 126.70883
 },
 {
  "name": "복권전문점",
  "address": "인천 부평구 원적로 437",
  "combination": "자동",
  "lat": 37.50383,
  "lng": 126.7151
 },
 {
  "name": "정우",
  "address": "경기 용인시 처인구 백옥대로 574 C동상가",
  "combination": "수동",
  "lat": 37.18781,
  "lng": 127.20619
 },
 {
  "name": "건강마트",
  "address": "경기 하남시 신장2동 315-2번지",
  "combination": "자동",
  "lat": 37.547123,
  "lng": 127.211426
 },
 {
  "name": "천하명당",
  "address": "충남 천안시 서북구 직산읍 수헐리 85-4 미니스탑 내",
  "combination": "자동",
  "lat": 36.889416,
  "lng": 127.13991
 }
]