[
 {
  "name": "상호없음",
  "address": "서울 광진구 구의동 589-10번지 대림아크로리버상가102",
  "combination": "자동",
  "lat": 37.55465,
  "lng": 127.07817
 },
 {
  "name": "와이케이파트너스",
  "address": "서울 동작구 사당동 265-29번지 1층",
  "combination": "자동",
  "lat": 37.483833,
  "lng": 126.97233
 },
 {
  "name": "빛고을로또",
  "address": "광주 광산구 소촌로 147 세븐일레븐",
  "combination": "수동",
  "lat": 35.15734,
  "lng": 126.79186
 },
 {
  "name": "주택복권방",
  "address": "경기 안양시 만안구 수리산로 53,(안양동)",
  "combination": "자동",
  "lat": 37.389378,
  "lng": 126.93165
 },
 {
  "name": "평택포승점로또",
  "address": "경기 평택시 여술로 24 CU편의점 내",
  "combination": "자동",
  "lat": 36.988068,
  "lng": 126.84539
 },
 {
  "name": "왕대박복권전문점",
  "address": "강원 동해시 중앙로 234 이주민상가1층18호",
  "combination": "자동",
  "lat": 37.52171,
  "lng": 129.115
 },
 {
  "name": "서울로또방",
  "address": "충북 옥천군 삼금로 8",
  "combination": "반자동",
  "lat": 36.29949,
  "lng": 127.56668
 },
 {
  "name": "로또판매점",
  "address": "충북 음성군 신내로 443 1층",
  "combination": "자동",
  "lat": 36.966633,
  "lng": 127.49071
 }
]