[
 {
  "name": "CU(타워팰리스점)",
  "address": "서울 강남구 언주로30길 56",
  "combination": "수동",
  "lat": 37.488213,
  "lng": 127.05441
 },
 {
  "name": "로또복권방",
  "address": "서울 강남구 강남대로122길 50 상명빌딩 103호",
  "combination": "자동",
  "lat": 37.508858,
  "lng": 127.027054
 },
 {
  "name": "복권나라",
  "address": "서울 관악구 남부순환로 1739-9",
  "combination": "자동",
  "lat": 37.482788,
  "lng": 126.943474
 },
 {
  "name": "중구-가로가판대-37",
  "address": "서울 중구 남대문로 20-2,(남대문로3가)",
  "combination": "자동",
  "lat": 37.56083,
  "lng": 126.97805
 },
 {
  "name": "왕대박",
  "address": "부산 동래구 여고로113번길 59-4",
  "combination": "자동",
  "lat": 35.201073,
  "lng": 129.0741
 },
 {
  "name": "대박로또",
  "address": "대구 북구 고성북로 3 고성아파트상가101동18호",
  "combination": "반자동",
  "lat": 35.88018,
  "lng": 128.58212
 },
 {
  "name": "용두천하",
  "address": "광주 북구 하서로 373",
  "combination": "자동",
  "lat": 35.20835,
  "lng": 126.87351
 },
 {
  "name": "행운로또복권",
  "address": "울산 남구 무거동 852-1 CU마트 내",
  "combination": "자동",
  "lat": 35.547806,
  "lng": 129.26038
 },
 {
  "name": "코리아마트",
  "address": "경기 광명시 안재로14번길 27",
  "combination": "자동",
  "lat": 37.461033,
  "lng": 126.87407
 },
 {
  "name": "복권백화점",
  "address": "경기 여주시 세종로 41 1층",
  "combination": "자동",
  "lat": 37.294037,
  "lng": 127.63629
 }
]