[
 {
  "name": "대박종합복권가로판매점",
  "address": "서울 서대문구 신촌로 75,(창천동)",
  "combination": "자동",
  "lat": 37.55614,
  "lng": 126.934845
 },
 {
  "name": "CU(대림중앙점)",
  "address": "서울 영등포구 대림로 209 1층",
  "combination": "수동",
  "lat": 37.499256,
  "lng": 126.897675
 },
 {
  "name": "CU(대림중앙점)",
  "address": "서울 영등포구 대림로 209 1층",
  "combination": "수동",
  "lat": 37.499256,
  "lng": 126.897675
 },
 {
  "name": "CU(대림중앙점)",
  "address": "서울 영등포구 대림로 209 1층",
  "combination": "수동",
  "lat": 37.499256,
  "lng": 126.897675
 },
 {
  "name": "CU(대림중앙점)",
  "address": "서울 영등포구 대림로 209 1층",
  "combination": "수동",
  "lat": 37.499256,
  "lng": 126.897675
 },
 {
  "name": "CU(역촌제일점)",
  "address": "서울 은평구 역촌동 78-45",
  "combination": "수동",
  "lat": 37.603203,
  "lng": 126.91021
 },
 {
  "name": "세븐일레븐동천점",
  "address": "광주 서구 동천동 600번지 세븐일레븐 동천점 내",
  "combination": "수동",
  "lat": 35.1711,
  "lng": 126.8682
 },
 {
  "name": "성안편의점",
  "address": "경기 안산시 상록구 용신로 197 한영빌딩",
  "combination": "자동",
  "lat": 37.303665,
  "lng": 126.84419
 },
 {
  "name": "버스가판점",
  "address": "경기 안양시 만안구 관악대로 55 진흥아파트앞 버스정류장",
  "combination": "자동",
  "lat": 37.397255,
  "lng": 126.930504
 },
 {
  "name": "팡팡복권방",
  "address": "충북 진천군 상산로 71",
  "combination": "자동",
  "lat": 36.854687,
  "lng": 127.44187
 },
 {
  "name": "낙동복권방",
  "address": "경남 창원시 의창구 북면 신촌리 451-6",
  "combination": "수동",
  "lat": 35.35332,
  "lng": 128.60927
 }
]