[
 {
  "name": "북가좌2호점로또판매",
  "address": "서울 서대문구 북가좌동 329-8번지",
  "combination": "수동",
  "lat": 37.58209,
  "lng": 126.9091
 },
 {
  "name": "황금어장",
  "address": "부산 중구 중앙대로 96 흥우빌딩1층 나들가게편의점",
  "combination": "수동",
  "lat": 35.10627,
  "lng": 129.03659
 },
 {
  "name": "월드복권",
  "address": "대구 서구 북비산로 98",
  "combination": "수동",
  "lat": 35.878357,
  "lng": 128.54366
 },
 {
  "name": "황금대박방",
  "address": "경기 고양시 덕양구 삼송동 30-29번지",
  "combination": "수동",
  "lat": 37.653103,
  "lng": 126.89347
 },
 {
  "name": "에이스복권방",
  "address": "경기 동두천시 삼육사로 1005 1층",
  "combination": "자동",
  "lat": 37.899334,
  "lng": 127.06164
 }
]