[
 {
  "name": "행운복권",
  "address": "서울 노원구 동일로 992 1층",
  "combination": "자동",
  "lat": 37.61881,
  "lng": 127.07561
 },
 {
  "name": "제이복권방",
  "address": "서울 종로구 종로 225-1 평창빌딩 1층 103호",
  "combination": "수동",
  "lat": 37.571293,
  "lng": 127.00283
 },
 {
  "name": "복권백화점",
  "address": "울산 중구 태화동 37-7번지 1층 리버스트 24hour편의점내",
  "combination": "자동",
  "lat": 35.554863,
  "lng": 129.30864
 },
 {
  "name": "마리오슈퍼",
  "address": "경기 부천시 송내대로265번길 85 뱅뱅프라자 1층 118호",
  "combination": "자동",
  "lat": 37.50734,
  "lng": 126.753876
 },
 {
  "name": "HX복권방",
  "address": "경기 이천시 부발읍 아미리 726-9 현대시티플라자106호",
  "combination": "반자동",
  "lat": 37.25275,
  "lng": 127.48955
 },
 {
  "name": "아띠로또판매점",
  "address": "충남 천안시 서북구 두정동 1063번지 레몬타워 110호",
  "combination": "수동",
  "lat": 36.837246,
  "lng": 127.13406
 },
 {
  "name": "천하명당복권방",
  "address": "전북 익산시 선화로 130",
  "combination": "자동",
  "lat": 35.94789,
  "lng": 126.94501
 },
 {
  "name": "로타리상회",
  "address": "경북 구미시 산호대로 199 상가1층4호",
  "combination": "자동",
  "lat": 36.101402,
  "lng": 128.38506
 },
 {
  "name": "진영로또판매점",
  "address": "경남 김해시 진영읍 진영로 189-2",
  "combination": "자동",
  "lat": 35.30304,
  "lng": 128.73392
 }
]