[
 {
  "name": "호미복권방",
  "address": "서울 관악구 인헌4길 9",
  "combination": "자동",
  "lat": 37.474533,
  "lng": 126.96624
 },
 {
  "name": "가로매점",
  "address": "서울 구로구 구로동 604-19번지",
  "combination": "수동",
  "lat": 37.503567,
  "lng": 126.87976
 },
 {
  "name": "GS25(사당남사점)",
  "address": "서울 동작구 사당동 1005-54번지",
  "combination": "수동",
  "lat": 37.482853,
  "lng": 126.98076
 },
 {
  "name": "행운복권방",
  "address": "서울 성동구 성수동2가 250-64번지",
  "combination": "수동",
  "lat": 37.53935,
  "lng": 127.062096
 },
 {
  "name": "미래통신",
  "address": "서울 성북구 장월로 118-1",
  "combination": "수동",
  "lat": 37.616188,
  "lng": 127.04891
 },
 {
  "name": "하이퍼",
  "address": "서울 영등포구 당산동4가(당산제2동) 32-58",
  "combination": "수동",
  "lat": 37.529243,
  "lng": 126.89868
 },
 {
  "name": "가판점(신문)",
  "address": "서울 영등포구 양평로 48",
  "combination": "자동",
  "lat": 37.534508,
  "lng": 126.90126
 },
 {
  "name": "노다지복권",
  "address": "부산 남구 문현동 60-2번지 애플마트내",
  "combination": "자동",
  "lat": 35.144684,
  "lng": 129.07649
 },
 {
  "name": "행운복권방",
  "address": "부산 중구 구덕로 47",
  "combination": "자동",
  "lat": 35.09806,
  "lng": 129.03053
 },
 {
  "name": "복권매니아",
  "address": "인천 남동구 만수동 937-3번지 1층",
  "combination": "수동",
  "lat": 37.451576,
  "lng": 126.72854
 },
 {
  "name": "송정마트",
  "address": "울산 동구 월봉4길 29",
  "combination": "자동",
  "lat": 35.489582,
  "lng": 129.41843
 },
 {
  "name": "황금복권마트",
  "address": "경기 이천시 증신로325번길 5 1층",
  "combination": "자동",
  "lat": 37.297546,
  "lng": 127.438866
 },
 {
  "name": "나눔로또 신동탄점",
  "address": "경기 화성시 능동 1098-8",
  "combination": "자동",
  "lat": 37.215828,
  "lng": 127.05615
 },
 {
  "name": "반딧불로또",
  "address": "전북 무주군 무주읍 읍내리 249-4번지",
  "combination": "수동",
  "lat": 36.007782,
  "lng": 127.663
 },
 {
  "name": "복권나라",
  "address": "전북 전주시 완산구 거마평로 60",
  "combination": "수동",
  "lat": 35.797844,
  "lng": 127.11708
 },
 {
  "name": "남평로또점",
  "address": "전남 나주시 남평1로 12 파평회관 1층",
  "combination": "수동",
  "lat": 35.046345,
  "lng": 126.8391
 },
 {
  "name": "동원복권",
  "address": "경남 양산시 북정중앙로 30",
  "combination": "수동",
  "lat": 35.36137,
  "lng": 129.04784
 }
]