[
 {
  "name": "복권전문점",
  "address": "서울 강북구 솔샘로64길 43,(미아동)",
  "combination": "자동",
  "lat": 37.61555,
  "lng": 127.028656
 },
 {
  "name": "장안홈타운",
  "address": "서울 동대문구 장안동 355-1번지",
  "combination": "자동",
  "lat": 37.56795,
  "lng": 127.073814
 },
 {
  "name": "굿-7",
  "address": "부산 수영구 광안로 49",
  "combination": "자동",
  "lat": 35.1553,
  "lng": 129.1177
 },
 {
  "name": "동광슈퍼",
  "address": "광주 서구 천변좌로 228",
  "combination": "자동",
  "lat": 35.154858,
  "lng": 126.90159
 },
 {
  "name": "대박찬스",
  "address": "경기 남양주시 진접읍 장현로 111 1층1호",
  "combination": "자동",
  "lat": 37.719795,
  "lng": 127.18393
 },
 {
  "name": "대운복권",
  "address": "경기 성남시 중원구 성남대로 1149",
  "combination": "자동",
  "lat": 37.432377,
  "lng": 127.12866
 },
 {
  "name": "행복충전소",
  "address": "경기 평택시 탄현로 332-2",
  "combination": "자동",
  "lat": 37.0818,
  "lng": 127.05637
 },
 {
  "name": "중앙로또(로손편의점내)",
  "address": "경북 칠곡군 북삼로 41 복권판매점",
  "combination": "자동",
  "lat": 36.071457,
  "lng": 128.34279
 },
 {
  "name": "로또복권",
  "address": "경남 창원시 진해구 냉천로 93 그린프라자 이마트24편의점",
  "combination": "자동",
  "lat": 35.153454,
  "lng": 128.7071
 }
]