[
 {
  "name": "복권파티",
  "address": "서울 송파구 오금로 516,(거여동)",
  "combination": "수동",
  "lat": 37.492775,
  "lng": 127.146126
 },
 {
  "name": "로또로또",
  "address": "서울 영등포구 영등포동(영등포본동) 618-496 세븐일레븐영등포역사",
  "combination": "자동",
  "lat": 37.535877,
  "lng": 126.89954
 },
 {
  "name": "가로판매점",
  "address": "서울 중랑구 망우로 212",
  "combination": "자동",
  "lat": 37.593704,
  "lng": 127.07617
 },
 {
  "name": "돈벼락맞는곳",
  "address": "부산 기장군 읍내로 109",
  "combination": "수동",
  "lat": 35.24525,
  "lng": 129.21635
 },
 {
  "name": "돈벼락복권방",
  "address": "대구 북구 동변로 82-1 1층",
  "combination": "자동",
  "lat": 35.920517,
  "lng": 128.60385
 },
 {
  "name": "하나마트(하남4번로)",
  "address": "광주 광산구 하남산단4번로 172 로또카페",
  "combination": "수동",
  "lat": 35.19074,
  "lng": 126.80882
 },
 {
  "name": "형제기획 복권시대",
  "address": "광주 동구 금남로 193-1 복권시대",
  "combination": "자동",
  "lat": 35.151287,
  "lng": 126.91412
 },
 {
  "name": "광명나눔로또",
  "address": "광주 서구 동천동(동림동) 164 건축자재공구백화점 1층",
  "combination": "자동",
  "lat": 35.151566,
  "lng": 126.881645
 },
 {
  "name": "태일이엔지",
  "address": "경기 수원시 권선구 경수대로302번길 22 상가동 107호(권선동, 권선한양아파트)",
  "combination": "자동",
  "lat": 37.25249,
  "lng": 127.02103
 },
 {
  "name": "터미널식품",
  "address": "경기 의정부시 동일로 640,(금오동)",
  "combination": "자동",
  "lat": 37.745457,
  "lng": 127.05505
 },
 {
  "name": "D-마트담배",
  "address": "강원 속초시 조양상가길 25 롯데마트속초점, 1층 복권판매점",
  "combination": "수동",
  "lat": 38.190304,
  "lng": 128.57982
 },
 {
  "name": "민우로또",
  "address": "충북 청주시 서원구 장암동 326-1",
  "combination": "자동",
  "lat": 36.59404,
  "lng": 127.48701
 },
 {
  "name": "로또복권두정점",
  "address": "충남 천안시 서북구 두정로 251 대원빌딩104호",
  "combination": "수동",
  "lat": 36.833515,
  "lng": 127.14499
 },
 {
  "name": "알리바이(나주점)",
  "address": "전남 나주시 나주로 142 알리바이",
  "combination": "자동",
  "lat": 35.031338,
  "lng": 126.71719
 }
]