[
 {
  "name": "삼정그린환경",
  "address": "서울 강동구 양재대로 1355 오스카상가136호",
  "combination": "수동",
  "lat": 37.527393,
  "lng": 127.13561
 },
 {
  "name": "복권명당곰달래점",
  "address": "서울 강서구 화곡동 799-10번지",
  "combination": "자동",
  "lat": 37.53213,
  "lng": 126.860245
 },
 {
  "name": "행운복권",
  "address": "서울 관악구 봉천동(청룡동) 1568-8",
  "combination": "자동",
  "lat": 37.47902,
  "lng": 126.9511
 },
 {
  "name": "크로바",
  "address": "서울 종로구 종로54길 42",
  "combination": "자동",
  "lat": 37.57039,
  "lng": 127.01396
 },
 {
  "name": "노다지복권방",
  "address": "서울 종로구 종로 333",
  "combination": "자동",
  "lat": 37.572903,
  "lng": 127.01451
 },
 {
  "name": "부흥청과식품점",
  "address": "경북 경산시 하양읍 하양로 35 우방3차상가",
  "combination": "자동",
  "lat": 35.90926,
  "lng": 128.81354
 },
 {
  "name": "CU(구평희망점)",
  "address": "경북 구미시 인동46길 5 cu 구평희망점",
  "combination": "자동",
  "lat": 36.09269,
  "lng": 128.44077
 },
 {
  "name": "나나 복권판매소",
  "address": "경남 양산시 상북중앙로 319 복권판매점",
  "combination": "자동",
  "lat": 35.4122,
  "lng": 129.05919
 }
]