[
 {
  "name": "수서역로또명당",
  "address": "서울 강남구 수서동 724 벨리상가1층세븐일레븐수서역점",
  "combination": "수동",
  "lat": 37.487316,
  "lng": 127.10312
 },
 {
  "name": "스파",
  "address": "서울 노원구 동일로 1493 상계주공아파트(10단지) 주공10단지종합상가111",
  "combination": "자동",
  "lat": 37.66166,
  "lng": 127.05787
 },
 {
  "name": "-",
  "address": "서울 서초구 반포동(반포4동) 19-4 서울고속버스터미널경부선대합식2H로또판매점",
  "combination": "자동",
  "lat": 37.50551,
  "lng": 127.007034
 },
 {
  "name": "장보고복권방",
  "address": "서울 중랑구 면목로 288",
  "combination": "수동",
  "lat": 37.578384,
  "lng": 127.08619
 },
 {
  "name": "대박천하마트",
  "address": "인천 부평구 굴포로 48",
  "combination": "자동",
  "lat": 37.51157,
  "lng": 126.72634
 },
 {
  "name": "역전로또방",
  "address": "강원 영월군 영월읍 덕포리 501-4번지 1호",
  "combination": "반자동",
  "lat": 37.182358,
  "lng": 128.47981
 },
 {
  "name": "광포로또복권",
  "address": "경북 울진군 죽변북로 154",
  "combination": "수동",
  "lat": 37.06768,
  "lng": 129.41031
 },
 {
  "name": "광포로또복권",
  "address": "경북 울진군 죽변북로 154",
  "combination": "수동",
  "lat": 37.06768,
  "lng": 129.41031
 }
]