[
 {
  "name": "드림로또",
  "address": "서울 은평구 진관동 72 1층 112호",
  "combination": "자동",
  "lat": 37.638535,
  "lng": 126.92209
 },
 {
  "name": "복권",
  "address": "서울 중구 을지로 지하 58 을지입구지하도상가 92호",
  "combination": "자동",
  "lat": 37.566036,
  "lng": 126.98364
 },
 {
  "name": "고향편의점복권방",
  "address": "대구 북구 노원로 184",
  "combination": "수동",
  "lat": 35.89945,
  "lng": 128.5801
 },
 {
  "name": "복권명당",
  "address": "대구 북구 복현로 32-1",
  "combination": "자동",
  "lat": 35.899063,
  "lng": 128.58038
 },
 {
  "name": "코사24편의점 (나들가게)",
  "address": "경기 고양시 일산서구 일산로 502 후곡마을14단지 105,106호",
  "combination": "자동",
  "lat": 37.677185,
  "lng": 126.77169
 },
 {
  "name": "행운Cafe",
  "address": "경기 김포시 김포한강1로97번길 10-14 1동 101호",
  "combination": "수동",
  "lat": 37.64755,
  "lng": 126.671555
 },
 {
  "name": "로또암반수베팅샵",
  "address": "경기 남양주시 수레로 32",
  "combination": "수동",
  "lat": 37.587234,
  "lng": 127.215675
 },
 {
  "name": "HX복권방",
  "address": "경기 이천시 부발읍 아미리 726-9 현대시티플라자106호",
  "combination": "자동",
  "lat": 37.25275,
  "lng": 127.48955
 },
 {
  "name": "천사마트",
  "address": "충남 천안시 서북구 두정로 117 상가1층6호",
  "combination": "수동",
  "lat": 36.834194,
  "lng": 127.12997
 },
 {
  "name": "대광복권방",
  "address": "전남 화순군 칠충로 55 대광로제비앙 대광그린상가동 1층109호",
  "combination": "자동",
  "lat": 35.05548,
  "lng": 126.97712
 },
 {
  "name": "대도레코드사",
  "address": "경남 진주시 진양호로 334",
  "combination": "자동",
  "lat": 35.182484,
  "lng": 128.06752
 }
]