[
 {
  "name": "복권마을",
  "address": "서울 강동구 풍성로 173",
  "combination": "자동",
  "lat": 37.530457,
  "lng": 127.13124
 },
 {
  "name": "행운복권",
  "address": "서울 관악구 봉천동(청룡동) 1568-8",
  "combination": "자동",
  "lat": 37.47902,
  "lng": 126.9511
 },
 {
  "name": "로또판매",
  "address": "서울 구로구 구로동(구로제5동) 3-25 1층 077호",
  "combination": "반자동",
  "lat": 37.50696,
  "lng": 126.8903
 },
 {
  "name": "나눔의 로또",
  "address": "서울 노원구 한글비석로 383 삼창타워플라자아파트",
  "combination": "수동",
  "lat": 37.661465,
  "lng": 127.07279
 },
 {
  "name": "명당복권",
  "address": "서울 동대문구 왕산로 112-1 가판",
  "combination": "수동",
  "lat": 37.577915,
  "lng": 127.035774
 },
 {
  "name": "원스탑",
  "address": "서울 송파구 백제고분로7길 39",
  "combination": "자동",
  "lat": 37.510902,
  "lng": 127.08321
 },
 {
  "name": "코리아마트(비산점)",
  "address": "대구 서구 비산동 368-2번지",
  "combination": "자동",
  "lat": 35.872482,
  "lng": 128.5687
 },
 {
  "name": "로또명당",
  "address": "인천 미추홀구 문학길 4 편의점내",
  "combination": "수동",
  "lat": 37.43852,
  "lng": 126.681046
 },
 {
  "name": "25운수점",
  "address": "광주 광산구 어등대로 581-1 1층 운수대통",
  "combination": "자동",
  "lat": 35.15126,
  "lng": 126.786285
 },
 {
  "name": "썬마트",
  "address": "충북 청주시 흥덕구 진재로23번길 25",
  "combination": "수동",
  "lat": 36.632607,
  "lng": 127.42811
 },
 {
  "name": "로또복권방",
  "address": "충남 서산시 고운로 164 미림화랑 옆 1층 상가",
  "combination": "반자동",
  "lat": 36.783356,
  "lng": 126.45343
 },
 {
  "name": "광시당",
  "address": "경북 영주시 원당로 121",
  "combination": "자동",
  "lat": 36.82263,
  "lng": 128.62712
 },
 {
  "name": "로또명당(왜관IC)",
  "address": "경북 칠곡군 중앙로 95 1층 커피\u0026로또명당",
  "combination": "수동",
  "lat": 35.983677,
  "lng": 128.39816
 },
 {
  "name": "신우운동구",
  "address": "경남 사천시 사천읍 읍내로 20-1",
  "combination": "자동",
  "lat": 35.08378,
  "lng": 128.08789
 }
]