[
 {
  "name": "럭키복권방",
  "address": "서울 도봉구 노해로63길 79 우림빌딩106",
  "combination": "자동",
  "lat": 37.653114,
  "lng": 127.04623
 },
 {
  "name": "경성식품",
  "address": "서울 동대문구 망우로21길 52",
  "combination": "자동",
  "lat": 37.590435,
  "lng": 127.06028
 },
 {
  "name": "행운복권방",
  "address": "부산 서구 충무동1가 28-19번지",
  "combination": "자동",
  "lat": 35.09553,
  "lng": 129.02344
 },
 {
  "name": "로또(복권방)",
  "address": "인천 서구 신석로77번길 38",
  "combination": "자동",
  "lat": 37.513268,
  "lng": 126.67086
 },
 {
  "name": "영웅기획",
  "address": "광주 남구 독립로 77",
  "combination": "자동",
  "lat": 35.140537,
  "lng": 126.90203
 },
 {
  "name": "초월대박복권방",
  "address": "경기 광주시 경충대로 1252",
  "combination": "수동",
  "lat": 37.386677,
  "lng": 127.28821
 },
 {
  "name": "복권방",
  "address": "경기 군포시 당동로 8",
  "combination": "수동",
  "lat": 37.35095,
  "lng": 126.943695
 },
 {
  "name": "풍전슈퍼",
  "address": "경기 부천시 조마루로 428,(원미동)",
  "combination": "자동",
  "lat": 37.49708,
  "lng": 126.79113
 },
 {
  "name": "아성슈퍼",
  "address": "경기 부천시 부흥로 202",
  "combination": "자동",
  "lat": 37.495853,
  "lng": 126.764984
 },
 {
  "name": "드림",
  "address": "경기 수원시 권선구 정조로 615",
  "combination": "수동",
  "lat": 37.263794,
  "lng": 127.01421
 },
 {
  "name": "GS25(안산산호점)",
  "address": "경기 안산시 단원구 선부동 1081번지 산호한양상가101호",
  "combination": "자동",
  "lat": 37.336678,
  "lng": 126.81326
 },
 {
  "name": "서해로또방",
  "address": "경기 화성시 화성로 1471",
  "combination": "자동",
  "lat": 37.223217,
  "lng": 126.84257
 },
 {
  "name": "뉴팡팡복권",
  "address": "전북 전주시 덕진구 쪽구름로 117",
  "combination": "수동",
  "lat": 35.873688,
  "lng": 127.07243
 },
 {
  "name": "영화복권",
  "address": "경남 창원시 진해구 안청남로 14",
  "combination": "자동",
  "lat": 35.10107,
  "lng": 128.8045
 }
]