[
 {
  "name": "서재강변로또",
  "address": "대구 달성군 다사읍 서재로 172,(서재리)",
  "combination": "자동",
  "lat": 35.878708,
  "lng": 128.49748
 },
 {
  "name": "대박천하마트",
  "address": "인천 부평구 굴포로 48",
  "combination": "자동",
  "lat": 37.51157,
  "lng": 126.72634
 },
 {
  "name": "프리웨이스토어",
  "address": "경기 광주시 회안대로 605 1층",
  "combination": "자동",
  "lat": 37.40682,
  "lng": 127.237946
 },
 {
  "name": "매표소",
  "address": "경기 부천시 원미구 도당동 255-2번지 도로부지",
  "combination": "자동",
  "lat": 37.508667,
  "lng": 126.78507
 },
 {
  "name": "왕대박천하명당",
  "address": "충남 천안시 동남구 광풍로 1767 1층 다호",
  "combination": "자동",
  "lat": 36.77657,
  "lng": 127.14302
 }
]