[
 {
  "name": "묵동식품",
  "address": "서울 중랑구 동일로 919",
  "combination": "자동",
  "lat": 37.612457,
  "lng": 127.07704
 },
 {
  "name": "복권백화점(대백.한라앞)",
  "address": "대구 달서구 달구벌대로 1223",
  "combination": "수동",
  "lat": 35.852062,
  "lng": 128.50122
 },
 {
  "name": "복권닷컴",
  "address": "강원 양양군 양양로 62",
  "combination": "수동",
  "lat": 38.075512,
  "lng": 128.62233
 },
 {
  "name": "로또판매점",
  "address": "충북 음성군 신내로 443 1층",
  "combination": "수동",
  "lat": 36.966633,
  "lng": 127.49071
 },
 {
  "name": "누가마트",
  "address": "전북 군산시 백릉로 64",
  "combination": "자동",
  "lat": 35.975273,
  "lng": 126.7328
 },
 {
  "name": "노다지복권방거창점",
  "address": "경남 거창군 중앙로 108-1",
  "combination": "수동",
  "lat": 35.68605,
  "lng": 127.91028
 },
 {
  "name": "GS25(양산혜인점)",
  "address": "경남 양산시 평산동 31-5번지",
  "combination": "수동",
  "lat": 35.384815,
  "lng": 129.15508
 }
]