[
 {
  "name": "행운마트",
  "address": "서울 구로구 개봉동(개봉제3동) 359-40",
  "combination": "수동",
  "lat": 37.486473,
  "lng": 126.85501
 },
 {
  "name": "찬스센터",
  "address": "인천 남동구 남동대로370번길 114 동보아파트상가 상가동 1층 101호",
  "combination": "수동",
  "lat": 37.41274,
  "lng": 126.71224
 },
 {
  "name": "한일로또나라",
  "address": "경기 수원시 장안구 경수대로 930 삼성홈플러스 북수원홈플러스內",
  "combination": "자동",
  "lat": 37.302715,
  "lng": 127.00877
 },
 {
  "name": "복권명당천안터미널점",
  "address": "충남 천안시 동남구 만남로 43 emart24 편의점 내",
  "combination": "수동",
  "lat": 36.819386,
  "lng": 127.154274
 },
 {
  "name": "카카오복권방",
  "address": "전북 익산시 금마4길 5-5",
  "combination": "자동",
  "lat": 35.991646,
  "lng": 127.052986
 },
 {
  "name": "포시즌마트",
  "address": "전남 순천시 장천3길 10 포시즌마트",
  "combination": "자동",
  "lat": 34.947544,
  "lng": 127.490486
 },
 {
  "name": "대동복권방",
  "address": "경남 김해시 월산로 112-57 월산마을5단지두산위브아파트상가 이마트편의점 좌측 복권판매점",
  "combination": "자동",
  "lat": 35.206844,
  "lng": 128.80473
 }
]