[
 {
  "name": "스파",
  "address": "서울 노원구 동일로 1493 상계주공아파트(10단지) 주공10단지종합상가111",
  "combination": "자동",
  "lat": 37.66166,
  "lng": 127.05787
 },
 {
  "name": "가로판매점",
  "address": "서울 은평구 대조동 185-5번지",
  "combination": "자동",
  "lat": 37.618237,
  "lng": 126.92146
 },
 {
  "name": "로또(파발마점)",
  "address": "경기 시흥시 마유로 415 역전프라자105호",
  "combination": "수동",
  "lat": 37.351974,
  "lng": 126.740585
 },
 {
  "name": "복권나라",
  "address": "전북 군산시 번영로 891",
  "combination": "자동",
  "lat": 35.94672,
  "lng": 126.81039
 },
 {
  "name": "팡팡복권마트.잡화슈퍼",
  "address": "전북 전주시 덕진구 가리내로 26",
  "combination": "자동",
  "lat": 35.834366,
  "lng": 127.13327
 },
 {
  "name": "복권명당",
  "address": "경북 경주시 동문로 46",
  "combination": "자동",
  "lat": 35.848606,
  "lng": 129.2142
 },
 {
  "name": "로또복권역전점",
  "address": "경북 경주시 금성로259번길 38 1층 CU 노서점 내",
  "combination": "자동",
  "lat": 35.841015,
  "lng": 129.20303
 },
 {
  "name": "로또행운마트",
  "address": "경남 김해시 능동로 177 복권판매점",
  "combination": "자동",
  "lat": 35.203793,
  "lng": 128.81001
 },
 {
  "name": "GS25(창원코아점)",
  "address": "경남 창원시 성산구 중앙동 84-1번지",
  "combination": "자동",
  "lat": 35.226273,
  "lng": 128.67802
 }
]