[
 {
  "name": "토큰판매소",
  "address": "대구 동구 아양로 200",
  "combination": "자동",
  "lat": 35.885696,
  "lng": 128.6349
 },
 {
  "name": "로또명당",
  "address": "인천 미추홀구 문학길 4 편의점내",
  "combination": "자동",
  "lat": 37.43852,
  "lng": 126.681046
 },
 {
  "name": "L마트",
  "address": "인천 서구 승학로 528 아카데미프라자 아카데미프라자107호",
  "combination": "자동",
  "lat": 37.565594,
  "lng": 126.678185
 },
 {
  "name": "대박복권전문점",
  "address": "광주 서구 금화로115번길 9 한국APT 2차상가 106호",
  "combination": "수동",
  "lat": 35.133663,
  "lng": 126.860535
 },
 {
  "name": "씨유 대전원내점",
  "address": "대전 유성구 원내로 35",
  "combination": "수동",
  "lat": 36.300095,
  "lng": 127.31983
 },
 {
  "name": "우리들동부점",
  "address": "울산 동구 동해안로 27",
  "combination": "수동",
  "lat": 35.541866,
  "lng": 129.42636
 },
 {
  "name": "로또명당가두판매점",
  "address": "경기 안양시 동안구 경수대로 848-2 동안구가로판매대2005-00065",
  "combination": "자동",
  "lat": 37.393017,
  "lng": 126.94313
 },
 {
  "name": "열두보석복권방",
  "address": "경기 용인시 기흥구 구갈로 74 구갈스포츠센타 구갈스포츠센터106호",
  "combination": "자동",
  "lat": 37.281136,
  "lng": 127.11181
 },
 {
  "name": "현대슈퍼",
  "address": "강원 강릉시 입암로 157 103호",
  "combination": "자동",
  "lat": 37.759712,
  "lng": 128.91841
 },
 {
  "name": "다원마트",
  "address": "경북 김천시 영남대로 1953",
  "combination": "자동",
  "lat": 36.11925,
  "lng": 128.1436
 }
]