[
 {
  "name": "버스판매소",
  "address": "서울 영등포구 영중로 2 1층(영등포동3가)",
  "combination": "자동",
  "lat": 37.516743,
  "lng": 126.906746
 },
 {
  "name": "현리행운복권방",
  "address": "경기 가평군 조종희망로 14 1층",
  "combination": "수동",
  "lat": 37.818184,
  "lng": 127.35024
 },
 {
  "name": "풍무복권방",
  "address": "경기 김포시 풍무로 73",
  "combination": "자동",
  "lat": 37.60208,
  "lng": 126.721214
 },
 {
  "name": "돼지방",
  "address": "경기 성남시 중원구 상대원동 1964번지",
  "combination": "자동",
  "lat": 37.433643,
  "lng": 127.16063
 },
 {
  "name": "드림",
  "address": "경기 수원시 권선구 정조로 615",
  "combination": "반자동",
  "lat": 37.263794,
  "lng": 127.01421
 },
 {
  "name": "114로또복권판매점",
  "address": "경기 수원시 영통구 태장로54번길 66 1층 104호",
  "combination": "자동",
  "lat": 37.236088,
  "lng": 127.051704
 },
 {
  "name": "파란만장복권방",
  "address": "경기 화성시 진안동 878-4 101호",
  "combination": "자동",
  "lat": 37.21241,
  "lng": 127.038826
 },
 {
  "name": "복권나라",
  "address": "충북 청주시 청원구 율봉로176번길 8-2",
  "combination": "자동",
  "lat": 36.668503,
  "lng": 127.488235
 },
 {
  "name": "충주복권명당",
  "address": "충북 충주시 예성로 23,(호암동)",
  "combination": "자동",
  "lat": 36.961075,
  "lng": 127.92912
 },
 {
  "name": "시영마트",
  "address": "전북 익산시 부송로 52",
  "combination": "자동",
  "lat": 35.956783,
  "lng": 126.99182
 },
 {
  "name": "로또복권하대점",
  "address": "경남 진주시 도동로 188",
  "combination": "자동",
  "lat": 35.18703,
  "lng": 128.12248
 }
]