[
 {
  "name": "행운로또",
  "address": "서울 강동구 길동 125-5",
  "combination": "자동",
  "lat": 37.537727,
  "lng": 127.14621
 },
 {
  "name": "가판14호",
  "address": "서울 중구 퇴계로 37",
  "combination": "수동",
  "lat": 37.557816,
  "lng": 126.97671
 },
 {
  "name": "GS25 뉴강서역점",
  "address": "부산 강서구 대저로 275 1층",
  "combination": "자동",
  "lat": 35.212795,
  "lng": 128.98227
 },
 {
  "name": "슈퍼복권나라수정점",
  "address": "부산 동구 고관로 95,(수정동)",
  "combination": "수동",
  "lat": 35.127537,
  "lng": 129.04518
 },
 {
  "name": "나도대박",
  "address": "부산 사상구 덕포동 421-6번지 CU편의점",
  "combination": "자동",
  "lat": 35.17224,
  "lng": 128.98312
 },
 {
  "name": "로또복권방",
  "address": "인천 부평구 광장로 16 부평민자역사 지하 2층 223호",
  "combination": "수동",
  "lat": 37.489662,
  "lng": 126.722664
 },
 {
  "name": "장군슈퍼",
  "address": "인천 연수구 청량로 104",
  "combination": "자동",
  "lat": 37.41734,
  "lng": 126.65594
 },
 {
  "name": "금집복권",
  "address": "광주 북구 첨단연신로108번길 134",
  "combination": "자동",
  "lat": 35.2088,
  "lng": 126.86471
 },
 {
  "name": "베스트로또(수원탑동)",
  "address": "경기 수원시 권선구 탑동(서둔동) 749-1",
  "combination": "자동",
  "lat": 37.274883,
  "lng": 126.973366
 },
 {
  "name": "샘내로또판매",
  "address": "경기 양주시 산북동 333-13번지",
  "combination": "수동",
  "lat": 37.805496,
  "lng": 127.045364
 },
 {
  "name": "대박",
  "address": "경기 여주시 창동(중앙동) 181-7 CU 여주대로점",
  "combination": "수동",
  "lat": 37.22399,
  "lng": 127.55877
 },
 {
  "name": "로또복권판매점",
  "address": "경기 의정부시 용현로 144 태원프라자103",
  "combination": "자동",
  "lat": 37.740723,
  "lng": 127.0918
 },
 {
  "name": "복권백화점",
  "address": "경기 파주시 평화로 70",
  "combination": "자동",
  "lat": 37.763588,
  "lng": 126.76989
 },
 {
  "name": "로또명당인주점",
  "address": "충남 아산시 서해로 519-2",
  "combination": "자동",
  "lat": 36.87784,
  "lng": 126.89828
 },
 {
  "name": "천안역로또토토복권방",
  "address": "충남 천안시 동남구 대흥로 237 아시아마트내",
  "combination": "반자동",
  "lat": 36.809166,
  "lng": 127.14774
 },
 {
  "name": "영유통(로또복권)",
  "address": "전북 군산시 미룡로 45",
  "combination": "자동",
  "lat": 35.944042,
  "lng": 126.68995
 },
 {
  "name": "GS25(경산사동점)",
  "address": "경북 경산시 삼풍동 509-4번지",
  "combination": "자동",
  "lat": 35.821297,
  "lng": 128.75475
 },
 {
  "name": "GS25(진해제일점)",
  "address": "경남 창원시 진해구 화천동 19-2번지",
  "combination": "자동",
  "lat": 35.152073,
  "lng": 128.6598
 }
]