[
 {
  "name": "천하명당복권방",
  "address": "서울 광진구 능동로 413",
  "combination": "자동",
  "lat": 37.565952,
  "lng": 127.08408
 },
 {
  "name": "-",
  "address": "서울 서초구 신반포로 194 강남고속버스터미널 코너1호점 (하차장로또)",
  "combination": "자동",
  "lat": 37.50551,
  "lng": 127.007034
 },
 {
  "name": "묵동식품",
  "address": "서울 중랑구 동일로 919",
  "combination": "자동",
  "lat": 37.612457,
  "lng": 127.07704
 },
 {
  "name": "하프타임(괴정점)",
  "address": "부산 사하구 승학로284번길 42",
  "combination": "자동",
  "lat": 35.102444,
  "lng": 128.9978
 },
 {
  "name": "세진전자통신",
  "address": "대구 서구 서대구로 156",
  "combination": "자동",
  "lat": 35.8719,
  "lng": 128.5552
 },
 {
  "name": "도안스마트공인중개사사무소",
  "address": "대전 유성구 원신흥남로 13",
  "combination": "수동",
  "lat": 36.333645,
  "lng": 127.33791
 },
 {
  "name": "그린로또",
  "address": "대전 중구 대흥로 94",
  "combination": "수동",
  "lat": 36.322495,
  "lng": 127.42251
 },
 {
  "name": "베스토아",
  "address": "경기 성남시 분당구 내정로166번길 43 104호(수내동, 금산프라자빌딩)",
  "combination": "자동",
  "lat": 37.37034,
  "lng": 127.12261
 },
 {
  "name": "인덕원가판점",
  "address": "경기 안양시 동안구 관악대로 478",
  "combination": "자동",
  "lat": 37.402664,
  "lng": 126.97511
 },
 {
  "name": "금도끼 은도끼",
  "address": "경기 양주시 부흥로 1830",
  "combination": "수동",
  "lat": 37.788265,
  "lng": 127.07031
 },
 {
  "name": "서정천하명당",
  "address": "경기 평택시 송탄로 160",
  "combination": "자동",
  "lat": 37.058094,
  "lng": 127.05932
 },
 {
  "name": "준",
  "address": "경기 평택시 서동대로 1152",
  "combination": "자동",
  "lat": 36.982677,
  "lng": 126.882225
 },
 {
  "name": "로또다 로또",
  "address": "충북 청주시 청원구 2산단1로 14 편의점",
  "combination": "수동",
  "lat": 36.731724,
  "lng": 127.45047
 },
 {
  "name": "복권명당",
  "address": "충남 공주시 번영1로 41",
  "combination": "자동",
  "lat": 36.471832,
  "lng": 127.13313
 },
 {
  "name": "대박행운복권방",
  "address": "충남 아산시 온천대로 104 서해안 휴게소내 편의점",
  "combination": "반자동",
  "lat": 36.746223,
  "lng": 126.86672
 },
 {
  "name": "천하명당복권방",
  "address": "제주 제주시 중앙로 129",
  "combination": "자동",
  "lat": 33.507114,
  "lng": 126.52496
 }
]