[
 {
  "name": "위드미강동본점",
  "address": "서울 강동구 성내동 38-3번지",
  "combination": "수동",
  "lat": 37.53613,
  "lng": 127.125595
 },
 {
  "name": "단골집편의점",
  "address": "서울 강동구 구천면로 194",
  "combination": "수동",
  "lat": 37.540585,
  "lng": 127.12622
 },
 {
  "name": "부일카서비스",
  "address": "부산 동구 자성로133번길 35",
  "combination": "자동",
  "lat": 35.140015,
  "lng": 129.06306
 },
 {
  "name": "왕대박복권게임방",
  "address": "대구 달서구 달서대로 713",
  "combination": "수동",
  "lat": 35.862953,
  "lng": 128.49113
 },
 {
  "name": "세븐일레븐 수완점",
  "address": "광주 광산구 장신로 68  101호",
  "combination": "자동",
  "lat": 35.190487,
  "lng": 126.81769
 },
 {
  "name": "시청슈퍼",
  "address": "광주 동구 무등로 309-1",
  "combination": "자동",
  "lat": 35.162334,
  "lng": 126.9171
 },
 {
  "name": "천하명당복권방역전점",
  "address": "대전 동구 대전로 815",
  "combination": "수동",
  "lat": 36.332386,
  "lng": 127.43188
 },
 {
  "name": "천하제일복권명당유성점",
  "address": "대전 유성구 유성대로654번길 111",
  "combination": "수동",
  "lat": 36.350956,
  "lng": 127.33514
 },
 {
  "name": "노다지복권방",
  "address": "경기 광명시 범안로 1043 (하안동, 원촌빌딩 1층)",
  "combination": "자동",
  "lat": 37.462326,
  "lng": 126.878654
 },
 {
  "name": "L-마트",
  "address": "경기 부천시 삼작로 22 부천테크노파크100-103",
  "combination": "자동",
  "lat": 37.518986,
  "lng": 126.76236
 },
 {
  "name": "가판대",
  "address": "경기 부천시 부일로 293,(상동)",
  "combination": "수동",
  "lat": 37.488617,
  "lng": 126.762764
 },
 {
  "name": "나눔로또 판교역점",
  "address": "경기 성남시 분당구 대왕판교로606번길 39 107호",
  "combination": "자동",
  "lat": 37.396473,
  "lng": 127.11148
 },
 {
  "name": "가판점",
  "address": "경기 성남시 수정구 수정로 188",
  "combination": "자동",
  "lat": 37.443333,
  "lng": 127.14071
 },
 {
  "name": "CU(안산와동점)",
  "address": "경기 안산시 단원구 와동 679-7",
  "combination": "자동",
  "lat": 37.33241,
  "lng": 126.82774
 },
 {
  "name": "스카이편의점",
  "address": "경기 안양시 만안구 박달로 527",
  "combination": "수동",
  "lat": 37.40275,
  "lng": 126.91124
 }
]