[
 {
  "name": "신사우리가판",
  "address": "서울 강남구 강남대로 620",
  "combination": "자동",
  "lat": 37.51676,
  "lng": 127.02005
 },
 {
  "name": "GS25(강남나누리점)",
  "address": "서울 강남구 논현동(논현2동) 63-19 1층 GS25(강남나누리점)",
  "combination": "수동",
  "lat": 37.520023,
  "lng": 127.03336
 },
 {
  "name": "행복한 꿈 이야기",
  "address": "서울 관악구 남부순환로 1626-1 1층",
  "combination": "수동",
  "lat": 37.4842,
  "lng": 126.93132
 },
 {
  "name": "행복편의점",
  "address": "서울 구로구 구로중앙로 14",
  "combination": "수동",
  "lat": 37.491585,
  "lng": 126.89228
 },
 {
  "name": "가로판매점",
  "address": "서울 금천구 시흥대로 480 가판",
  "combination": "자동",
  "lat": 37.47635,
  "lng": 126.89906
 },
 {
  "name": "스파",
  "address": "서울 노원구 동일로 1493 상계주공아파트(10단지) 주공10단지종합상가111",
  "combination": "반자동",
  "lat": 37.66166,
  "lng": 127.05787
 },
 {
  "name": "어머화장품",
  "address": "서울 송파구 가락로11길 19",
  "combination": "반자동",
  "lat": 37.502045,
  "lng": 127.10405
 },
 {
  "name": "윈마트",
  "address": "서울 송파구 삼학사로16길 4 삼학사로 16길 우측 건물 1층",
  "combination": "수동",
  "lat": 37.503494,
  "lng": 127.09767
 },
 {
  "name": "바른 행정사 . 공인중개사 사무소",
  "address": "경기 고양시 일산서구 현중로 32",
  "combination": "수동",
  "lat": 37.693535,
  "lng": 126.76803
 },
 {
  "name": "영원한대박복권",
  "address": "경기 수원시 장안구 천천동 502-4",
  "combination": "수동",
  "lat": 37.300148,
  "lng": 126.97974
 },
 {
  "name": "로그인안산자유복권",
  "address": "경기 안산시 단원구 화랑로 358 자유센터빌딩",
  "combination": "수동",
  "lat": 37.320984,
  "lng": 126.82747
 },
 {
  "name": "GS25(안양병목점)",
  "address": "경기 안양시 만안구 안양동(안양4동) 782-7 신광빌딩",
  "combination": "수동",
  "lat": 37.399616,
  "lng": 126.91938
 },
 {
  "name": "로또복권방",
  "address": "경기 안양시 만안구 경수대로 1265 103호",
  "combination": "수동",
  "lat": 37.42011,
  "lng": 126.90889
 },
 {
  "name": "역전광장상회",
  "address": "경기 파주시 금촌1동 329-19번지",
  "combination": "수동",
  "lat": 37.765278,
  "lng": 126.77464
 },
 {
  "name": "해수로또",
  "address": "충북 청주시 상당구 산성로 22-1",
  "combination": "자동",
  "lat": 36.62615,
  "lng": 127.49938
 },
 {
  "name": "로또명당인주점",
  "address": "충남 아산시 서해로 519-2",
  "combination": "자동",
  "lat": 36.87784,
  "lng": 126.89828
 },
 {
  "name": "안면로또점",
  "address": "충남 태안군 안면읍 승언리 1148번지",
  "combination": "수동",
  "lat": 36.518147,
  "lng": 126.34509
 },
 {
  "name": "알짜마트왕지점",
  "address": "전남 순천시 왕궁길 60 중흥파크상가 309-101호",
  "combination": "자동",
  "lat": 34.956314,
  "lng": 127.53233
 },
 {
  "name": "위드미 마산만복점",
  "address": "경남 창원시 마산회원구 합성옛길 152",
  "combination": "자동",
  "lat": 35.238274,
  "lng": 128.5839
 },
 {
  "name": "소답시내버스매표소",
  "address": "경남 창원시 의창구 의안로2번길 17 가판",
  "combination": "자동",
  "lat": 35.261776,
  "lng": 128.62564
 }
]