[
 {
  "name": "신문가판점",
  "address": "서울 용산구 한강대로77길 19 남영역 앞",
  "combination": "자동",
  "lat": 37.541813,
  "lng": 126.97192
 },
 {
  "name": "부일카서비스",
  "address": "부산 동구 자성로133번길 35",
  "combination": "자동",
  "lat": 35.140015,
  "lng": 129.06306
 },
 {
  "name": "인더라인 로또",
  "address": "인천 부평구 경인로667번길 4 105호(십정동)",
  "combination": "자동",
  "lat": 37.46936,
  "lng": 126.707855
 },
 {
  "name": "우미슈퍼",
  "address": "광주 서구 풍암순환로 183 우미아파트상가118동-101호",
  "combination": "자동",
  "lat": 35.12672,
  "lng": 126.88115
 },
 {
  "name": "대림통상",
  "address": "울산 중구 신기14길 1 일신아파트 일신아파트상가102호",
  "combination": "자동",
  "lat": 35.55233,
  "lng": 129.29778
 },
 {
  "name": "로데오복권방",
  "address": "경기 고양시 일산동구 무궁화로 40 우림보보카운티108",
  "combination": "반자동",
  "lat": 37.662975,
  "lng": 126.76896
 },
 {
  "name": "으뜸할인마트",
  "address": "경기 안양시 동안구 관악대로287번길 27 태광빌딩 27",
  "combination": "자동",
  "lat": 37.40415,
  "lng": 126.954414
 },
 {
  "name": "복권왕국",
  "address": "충북 제천시 풍양로 108 중앙시장상가 지하145",
  "combination": "자동",
  "lat": 37.136654,
  "lng": 128.2113
 },
 {
  "name": "Goodday복권전문점",
  "address": "경남 창원시 성산구 반송로50번길 14",
  "combination": "자동",
  "lat": 35.239998,
  "lng": 128.66164
 }
]