[
 {
  "name": "잠실매점",
  "address": "서울 송파구 올림픽로 269 잠실역 8번출구 앞 가판",
  "combination": "자동",
  "lat": 37.514446,
  "lng": 127.10071
 },
 {
  "name": "CU(구월프랜드점)",
  "address": "인천 남동구 구월동 1191-10번지",
  "combination": "수동",
  "lat": 37.44723,
  "lng": 126.7076
 },
 {
  "name": "CU(구월프랜드점)",
  "address": "인천 남동구 구월동 1191-10번지",
  "combination": "수동",
  "lat": 37.44723,
  "lng": 126.7076
 },
 {
  "name": "호반할인마트",
  "address": "광주 광산구 도산로9번길 40",
  "combination": "수동",
  "lat": 35.127934,
  "lng": 126.790115
 },
 {
  "name": "나눔로또 스포츠토토(김포장기점)",
  "address": "경기 김포시 김포한강1로78번길 7 장기음식주차타운 1층 110호",
  "combination": "수동",
  "lat": 37.64487,
  "lng": 126.67066
 },
 {
  "name": "대박",
  "address": "경기 안양시 동안구 관평로170번길 33",
  "combination": "수동",
  "lat": 37.392975,
  "lng": 126.962234
 },
 {
  "name": "가판대",
  "address": "경기 안양시 만안구 안양동 456-2번지",
  "combination": "자동",
  "lat": 37.3927,
  "lng": 126.92598
 },
 {
  "name": "조치원복권방",
  "address": "세종   조치원로 9-1",
  "combination": "수동",
  "lat": 36.601532,
  "lng": 127.29785
 },
 {
  "name": "씨유(거창대동점)",
  "address": "경남 거창군 거창대로 93",
  "combination": "자동",
  "lat": 35.689865,
  "lng": 127.91475
 }
]