[
 {
  "name": "우리식품",
  "address": "서울 광진구 아차산로 589",
  "combination": "자동",
  "lat": 37.54599,
  "lng": 127.10473
 },
 {
  "name": "가로판매점",
  "address": "서울 중구 서소문로 109",
  "combination": "자동",
  "lat": 37.563053,
  "lng": 126.97326
 },
 {
  "name": "로또복권방",
  "address": "부산 동래구 반송로 202",
  "combination": "자동",
  "lat": 35.19889,
  "lng": 129.0973
 },
 {
  "name": "월롱엘지복권방",
  "address": "경기 파주시 월롱면 덕은리 1247 105호 (파크뷰)",
  "combination": "수동",
  "lat": 37.811913,
  "lng": 126.75621
 },
 {
  "name": "시네마천국",
  "address": "강원 춘천시 금강로 12 1층",
  "combination": "자동",
  "lat": 37.880795,
  "lng": 127.713455
 },
 {
  "name": "정관장홍삼부안점",
  "address": "전북 부안군 부안읍 석정로 197",
  "combination": "수동",
  "lat": 35.72811,
  "lng": 126.737434
 },
 {
  "name": "알리바이(나주점)",
  "address": "전남 나주시 나주로 142 알리바이",
  "combination": "자동",
  "lat": 35.031338,
  "lng": 126.71719
 },
 {
  "name": "나우리고현점",
  "address": "경남 거제시 거제중앙로 1904",
  "combination": "자동",
  "lat": 34.88801,
  "lng": 128.62357
 },
 {
  "name": "GS25(양산혜인점)",
  "address": "경남 양산시 평산동 31-5번지",
  "combination": "자동",
  "lat": 35.384815,
  "lng": 129.15508
 }
]