[
 {
  "name": "행운폰스토리",
  "address": "서울 강동구 천호동(천호제3동) 410-188 상가 1층",
  "combination": "자동",
  "lat": 37.539047,
  "lng": 127.129745
 },
 {
  "name": "가판 창동역점",
  "address": "서울 도봉구 마들로11길 73 창동역문화마당앞",
  "combination": "수동",
  "lat": 37.653225,
  "lng": 127.04908
 },
 {
  "name": "-",
  "address": "서울 서초구 서초동 1571-18번지 청화빌딩",
  "combination": "자동",
  "lat": 37.50712,
  "lng": 127.00982
 },
 {
  "name": "경남슈퍼행운복권방",
  "address": "서울 양천구 목3동 606-13번지",
  "combination": "자동",
  "lat": 37.54995,
  "lng": 126.86413
 },
 {
  "name": "씨유학장중앙점 로또판매",
  "address": "부산 사상구 가야대로378번길 20 제비표페인트",
  "combination": "수동",
  "lat": 35.15033,
  "lng": 129.01381
 },
 {
  "name": "예스로또",
  "address": "부산 사하구 낙동남로 1381",
  "combination": "자동",
  "lat": 35.106487,
  "lng": 128.9629
 },
 {
  "name": "복권뱅크",
  "address": "대구 수성구 지산동 1193-3번지",
  "combination": "수동",
  "lat": 35.8219,
  "lng": 128.63008
 },
 {
  "name": "금맥을캐다",
  "address": "대전 중구 대둔산로 472-1",
  "combination": "반자동",
  "lat": 36.3112,
  "lng": 127.38884
 },
 {
  "name": "김포로또",
  "address": "경기 김포시 돌문로 48 한솔프라자101",
  "combination": "자동",
  "lat": 37.619404,
  "lng": 126.71802
 },
 {
  "name": "애플마트",
  "address": "경기 평택시 포승원정길 35-5 1층 애플마트내",
  "combination": "자동",
  "lat": 36.99481,
  "lng": 126.840546
 },
 {
  "name": "복권방",
  "address": "강원 원주시 관설동(반곡관설동) 1702-1 1층 (CU)",
  "combination": "수동",
  "lat": 37.318775,
  "lng": 127.965
 },
 {
  "name": "로또명당인주점",
  "address": "충남 아산시 서해로 519-2",
  "combination": "자동",
  "lat": 36.87784,
  "lng": 126.89828
 },
 {
  "name": "인제로또",
  "address": "전남 순천시 매안로 66 CU편의점내",
  "combination": "자동",
  "lat": 34.932346,
  "lng": 127.55535
 }
]