[
 {
  "name": "24시슈퍼",
  "address": "경기 군포시 번영로 497 금화프라자 금화프라자102호",
  "combination": "자동",
  "lat": 37.358295,
  "lng": 126.93227
 },
 {
  "name": "세븐일레븐 김포학운공단점",
  "address": "경기 김포시 황금로110번길 2",
  "combination": "수동",
  "lat": 37.619083,
  "lng": 126.621124
 },
 {
  "name": "알뜰슈퍼",
  "address": "경기 동두천시 평화로 2436-1 4/6",
  "combination": "자동",
  "lat": 37.90527,
  "lng": 127.05821
 },
 {
  "name": "풍전슈퍼",
  "address": "경기 부천시 조마루로 428,(원미동)",
  "combination": "자동",
  "lat": 37.49708,
  "lng": 126.79113
 },
 {
  "name": "미금헤리츠점",
  "address": "경기 성남시 분당구 성남대로 151 엠코헤리츠 1층110호",
  "combination": "수동",
  "lat": 37.349277,
  "lng": 127.10829
 },
 {
  "name": "찬스로또복권방",
  "address": "경기 수원시 권선구 권선동 1032-1",
  "combination": "반자동",
  "lat": 37.258583,
  "lng": 127.02389
 },
 {
  "name": "로또24시편의점",
  "address": "경기 안산시 단원구 달미로 85 1층101호",
  "combination": "자동",
  "lat": 37.343452,
  "lng": 126.81495
 },
 {
  "name": "동남슈퍼",
  "address": "전북 부안군 번영로 173",
  "combination": "반자동",
  "lat": 35.727222,
  "lng": 126.73916
 }
]