[
 {
  "name": "복권나라",
  "address": "서울 성동구 용답중앙15길 12-1 1층",
  "combination": "자동",
  "lat": 37.56443,
  "lng": 127.05383
 },
 {
  "name": "우일",
  "address": "서울 송파구 마천로 235",
  "combination": "수동",
  "lat": 37.49996,
  "lng": 127.14397
 },
 {
  "name": "월드24시",
  "address": "서울 은평구 통일로 855-15",
  "combination": "자동",
  "lat": 37.61925,
  "lng": 126.919785
 },
 {
  "name": "홈돌이로또복권",
  "address": "인천 남동구 경원대로 971 삼성홈플러스간석점2층내",
  "combination": "자동",
  "lat": 37.46954,
  "lng": 126.68899
 },
 {
  "name": "로또또",
  "address": "경기 김포시 봉수대로 1704 102호",
  "combination": "자동",
  "lat": 37.62097,
  "lng": 126.63304
 },
 {
  "name": "승일유통",
  "address": "충북 청주시 흥덕구 월명로 42",
  "combination": "수동",
  "lat": 36.63832,
  "lng": 127.45375
 },
 {
  "name": "현텔레콤",
  "address": "전북 전주시 덕진구 아중로 142",
  "combination": "자동",
  "lat": 35.825504,
  "lng": 127.16533
 },
 {
  "name": "천하명당복권방",
  "address": "경남 거제시 옥포성안로 60",
  "combination": "자동",
  "lat": 34.891693,
  "lng": 128.69492
 },
 {
  "name": "블루진 로또점",
  "address": "경남 거제시 거제중앙로19길 8 102호",
  "combination": "수동",
  "lat": 34.885803,
  "lng": 128.62367
 }
]