[
 {
  "name": "다모아복권방",
  "address": "서울 구로구 서해안로30길 13-7 1층",
  "combination": "수동",
  "lat": 37.4933,
  "lng": 126.844315
 },
 {
  "name": "행운마트",
  "address": "서울 노원구 중계로 96",
  "combination": "반자동",
  "lat": 37.64442,
  "lng": 127.083305
 },
 {
  "name": "훼미리로또",
  "address": "서울 동작구 신대방동(신대방제2동) 395-68 102호",
  "combination": "자동",
  "lat": 37.49068,
  "lng": 126.92393
 },
 {
  "name": "복권명당",
  "address": "서울 동작구 국사봉길 26",
  "combination": "자동",
  "lat": 37.498108,
  "lng": 126.92918
 },
 {
  "name": "교통카드판매대",
  "address": "서울 송파구 송파대로28길 27 송파성원쌍떼빌 공영주차장앞가판",
  "combination": "자동",
  "lat": 37.495056,
  "lng": 127.120415
 },
 {
  "name": "사이버정보통신",
  "address": "부산 부산진구 동평로 411 백조상가동103-1호",
  "combination": "수동",
  "lat": 35.17425,
  "lng": 129.07022
 },
 {
  "name": "청구마트",
  "address": "대구 북구 검단로 34 청구아파트상가108동102호",
  "combination": "자동",
  "lat": 35.90048,
  "lng": 128.6171
 },
 {
  "name": "세진전자통신",
  "address": "대구 서구 서대구로 156",
  "combination": "자동",
  "lat": 35.8719,
  "lng": 128.5552
 },
 {
  "name": "대박복권방",
  "address": "인천 서구 대평로 3",
  "combination": "자동",
  "lat": 37.547123,
  "lng": 126.67662
 },
 {
  "name": "복권나라",
  "address": "인천 중구 제물량로 84-3",
  "combination": "수동",
  "lat": 37.467392,
  "lng": 126.63372
 },
 {
  "name": "한꿈복권방",
  "address": "울산 중구 번영로 586",
  "combination": "수동",
  "lat": 35.568794,
  "lng": 129.34589
 },
 {
  "name": "김포로또",
  "address": "경기 김포시 돌문로 48 한솔프라자101",
  "combination": "자동",
  "lat": 37.619404,
  "lng": 126.71802
 },
 {
  "name": "전인정보통신",
  "address": "경기 남양주시 오남읍 진건오남로 658 외1필지1층101",
  "combination": "수동",
  "lat": 37.69125,
  "lng": 127.21451
 },
 {
  "name": "-",
  "address": "경기 성남시 수정구 수정로 128",
  "combination": "자동",
  "lat": 37.44143,
  "lng": 127.13456
 },
 {
  "name": "준",
  "address": "경기 평택시 서동대로 1152",
  "combination": "수동",
  "lat": 36.982677,
  "lng": 126.882225
 },
 {
  "name": "복권방",
  "address": "경기 하남시 하남대로 795 1층6호",
  "combination": "자동",
  "lat": 37.540417,
  "lng": 127.20887
 },
 {
  "name": "세븐일레븐삼척삼원점",
  "address": "강원 삼척시 중앙로 185 용비타워 세븐일레븐삼척삼원점",
  "combination": "자동",
  "lat": 37.440216,
  "lng": 129.16751
 },
 {
  "name": "GS25(청주수곡점)",
  "address": "충북 청주시 서원구 수곡동 910",
  "combination": "수동",
  "lat": 36.61605,
  "lng": 127.47295
 },
 {
  "name": "GS25(청주수곡점)",
  "address": "충북 청주시 서원구 수곡동 910",
  "combination": "수동",
  "lat": 36.61605,
  "lng": 127.47295
 },
 {
  "name": "행운을주는사람들",
  "address": "충북 충주시 연수상가길 42 1층 복권방",
  "combination": "수동",
  "lat": 36.987648,
  "lng": 127.93161
 },
 {
  "name": "바다로또방",
  "address": "경남 통영시 서호동 177-358번지",
  "combination": "자동",
  "lat": 34.840717,
  "lng": 128.42125
 }
]