[
 {
  "name": "성보복권",
  "address": "서울 노원구 석계로 98-1",
  "combination": "자동",
  "lat": 37.62335,
  "lng": 127.06107
 },
 {
  "name": "가판대",
  "address": "서울 중구 을지로4가 28번지",
  "combination": "반자동",
  "lat": 37.56677,
  "lng": 126.99606
 },
 {
  "name": "우리들공업탑점",
  "address": "울산 남구 수암로 21",
  "combination": "수동",
  "lat": 35.532272,
  "lng": 129.3106
 },
 {
  "name": "로또복권",
  "address": "경기 평택시 평택로 59 보광당금은방",
  "combination": "수동",
  "lat": 36.9924,
  "lng": 127.0859
 },
 {
  "name": "(없음)",
  "address": "충북 청주시 상당구 무농정로 10-1",
  "combination": "수동",
  "lat": 36.605873,
  "lng": 127.50429
 },
 {
  "name": "로또",
  "address": "충남 홍성군 조양로 162",
  "combination": "자동",
  "lat": 36.601036,
  "lng": 126.66763
 },
 {
  "name": "봉황로또",
  "address": "전북 임실군 운수로 6",
  "combination": "반자동",
  "lat": 35.616184,
  "lng": 127.28901
 },
 {
  "name": "토큰판매",
  "address": "경북 경산시 대학로 291 토큰박스",
  "combination": "수동",
  "lat": 35.837166,
  "lng": 128.75374
 }
]