[
 {
  "name": "미래통신",
  "address": "서울 성북구 장월로 118-1",
  "combination": "자동",
  "lat": 37.616188,
  "lng": 127.04891
 },
 {
  "name": "종합복권슈퍼",
  "address": "경기 시흥시 마유로 336 정일빌딩104",
  "combination": "수동",
  "lat": 37.34572,
  "lng": 126.73561
 },
 {
  "name": "인제복권방",
  "address": "강원 인제군 비봉로 11-1",
  "combination": "수동",
  "lat": 38.068172,
  "lng": 128.17274
 },
 {
  "name": "작은신부",
  "address": "충남 서산시 구진로 6",
  "combination": "자동",
  "lat": 36.936096,
  "lng": 126.43599
 },
 {
  "name": "GS25(양산혜인점)",
  "address": "경남 양산시 평산동 31-5번지",
  "combination": "자동",
  "lat": 35.384815,
  "lng": 129.15508
 },
 {
  "name": "바다로또방",
  "address": "경남 통영시 서호동 177-358번지",
  "combination": "자동",
  "lat": 34.840717,
  "lng": 128.42125
 }
]