[
 {
  "name": "로또판매점",
  "address": "서울 노원구 상계로 309-1 cu",
  "combination": "자동",
  "lat": 37.67087,
  "lng": 127.07999
 },
 {
  "name": "치즈마트",
  "address": "서울 송파구 양재대로 932 가락동농수산물도매시장 가락몰 2관 1층 2-1호",
  "combination": "수동",
  "lat": 37.493473,
  "lng": 127.11148
 },
 {
  "name": "신세계슈퍼",
  "address": "서울 영등포구 대림로 191",
  "combination": "수동",
  "lat": 37.49777,
  "lng": 126.89829
 },
 {
  "name": "탑플러스",
  "address": "인천 서구 청마로19번길 9 103호",
  "combination": "자동",
  "lat": 37.59243,
  "lng": 126.67142
 },
 {
  "name": "O.K마트",
  "address": "대전 중구 은행동 53-27번지",
  "combination": "자동",
  "lat": 36.328426,
  "lng": 127.428566
 },
 {
  "name": "대박로또편의점",
  "address": "경기 과천시 별양상가2로 20 새서울프라자 1호",
  "combination": "수동",
  "lat": 37.42682,
  "lng": 126.99254
 },
 {
  "name": "세류보석복권방",
  "address": "경기 수원시 권선구 세지로 30",
  "combination": "자동",
  "lat": 37.254864,
  "lng": 127.01586
 },
 {
  "name": "은행복권방",
  "address": "경기 시흥시 대은로104번길 1 우남상가2동101호",
  "combination": "수동",
  "lat": 37.445133,
  "lng": 126.80047
 },
 {
  "name": "로또명당",
  "address": "경기 평택시 동부대로 12 1호",
  "combination": "수동",
  "lat": 37.105522,
  "lng": 127.08245
 },
 {
  "name": "로또편의점",
  "address": "전북 전주시 덕진구 아중로 173",
  "combination": "수동",
  "lat": 35.827095,
  "lng": 127.1683
 }
]