[
 {
  "name": "GS25(동묘역점)",
  "address": "서울 종로구 종로 344",
  "combination": "자동",
  "lat": 37.572796,
  "lng": 127.01605
 },
 {
  "name": "뉴빅마트",
  "address": "부산 기장군 정관중앙로 48 106호",
  "combination": "수동",
  "lat": 35.321114,
  "lng": 129.17929
 },
 {
  "name": "서울복권방",
  "address": "경기 동두천시 어수로 116",
  "combination": "자동",
  "lat": 37.90173,
  "lng": 127.05534
 },
 {
  "name": "주택복권방",
  "address": "경기 용인시 수지구 풍덕천로 144-1 103호",
  "combination": "수동",
  "lat": 37.323883,
  "lng": 127.09745
 },
 {
  "name": "강릉성산점",
  "address": "강원 강릉시 구산길 58 1층 복권판매점",
  "combination": "수동",
  "lat": 37.715824,
  "lng": 128.8306
 },
 {
  "name": "로또복권",
  "address": "충북 청주시 상당구 중고개로 344 103호",
  "combination": "자동",
  "lat": 36.630768,
  "lng": 127.50273
 },
 {
  "name": "대박마트",
  "address": "충남 천안시 동남구 봉서8길 13 봉명청솔아파트상가103호",
  "combination": "자동",
  "lat": 36.81099,
  "lng": 127.13251
 },
 {
  "name": "코사마트크로바점",
  "address": "전북 전주시 덕진구 매봉로 26,(금암동)",
  "combination": "수동",
  "lat": 35.840446,
  "lng": 127.14152
 }
]