[
 {
  "name": "버스카드판매대",
  "address": "서울 관악구 신림로 145-2",
  "combination": "자동",
  "lat": 37.47187,
  "lng": 126.93328
 },
 {
  "name": "노다지복권방",
  "address": "서울 성동구 연무장7길 5 1층 1호",
  "combination": "수동",
  "lat": 37.543236,
  "lng": 127.05435
 },
 {
  "name": "세종장식",
  "address": "서울 양천구 오목로 204",
  "combination": "자동",
  "lat": 37.52534,
  "lng": 126.860054
 },
 {
  "name": "중앙토탈대리점",
  "address": "부산 금정구 금강로565번길 16 복권판매점",
  "combination": "수동",
  "lat": 35.25818,
  "lng": 129.08672
 },
 {
  "name": "서면문화로또",
  "address": "부산 부산진구 신천대로65번길 59",
  "combination": "수동",
  "lat": 35.147545,
  "lng": 129.0582
 },
 {
  "name": "용현시장로또복권",
  "address": "인천 남구 용현동 459-30번지",
  "combination": "수동",
  "lat": 37.45719,
  "lng": 126.65
 },
 {
  "name": "현대할인마트",
  "address": "경기 이천시 경충대로 3142",
  "combination": "자동",
  "lat": 37.306847,
  "lng": 127.403114
 },
 {
  "name": "맨유편의점",
  "address": "충북 청주시 흥덕구 덕암로30번길 31 두진메인빌 상가 105호",
  "combination": "수동",
  "lat": 36.652126,
  "lng": 127.45791
 },
 {
  "name": "대박복권",
  "address": "충남 논산시 계백로 976",
  "combination": "자동",
  "lat": 36.20192,
  "lng": 127.086044
 },
 {
  "name": "로또복권역전점",
  "address": "경북 경주시 금성로259번길 38 1층 CU 노서점 내",
  "combination": "수동",
  "lat": 35.841015,
  "lng": 129.20303
 },
 {
  "name": "로또복권역전점",
  "address": "경북 경주시 금성로259번길 38 1층 CU 노서점 내",
  "combination": "수동",
  "lat": 35.841015,
  "lng": 129.20303
 },
 {
  "name": "로또복권역전점",
  "address": "경북 경주시 금성로259번길 38 1층 CU 노서점 내",
  "combination": "수동",
  "lat": 35.841015,
  "lng": 129.20303
 },
 {
  "name": "로또복권역전점",
  "address": "경북 경주시 금성로259번길 38 1층 CU 노서점 내",
  "combination": "수동",
  "lat": 35.841015,
  "lng": 129.20303
 },
 {
  "name": "로또복권역전점",
  "address": "경북 경주시 금성로259번길 38 1층 CU 노서점 내",
  "combination": "수동",
  "lat": 35.841015,
  "lng": 129.20303
 },
 {
  "name": "스타마트",
  "address": "경북 구미시 임은길 15",
  "combination": "자동",
  "lat": 36.087524,
  "lng": 128.36456
 }
]