[
 {
  "name": "뉴빅마트",
  "address": "부산 기장군 정관중앙로 48 106호",
  "combination": "자동",
  "lat": 35.321114,
  "lng": 129.17929
 },
 {
  "name": "골드로또복권",
  "address": "부산 동래구 사직동 48-21번지 CU사직제일점 내",
  "combination": "자동",
  "lat": 35.198685,
  "lng": 129.0603
 },
 {
  "name": "소망복권방",
  "address": "인천 남동구 만수5동 925-2번지 진우빌딩101호",
  "combination": "자동",
  "lat": 37.452003,
  "lng": 126.72654
 },
 {
  "name": "대박슈퍼",
  "address": "인천 부평구 경원대로 1438",
  "combination": "반자동",
  "lat": 37.490837,
  "lng": 126.728645
 },
 {
  "name": "운수대통",
  "address": "경기 수원시 권선구 매실로 73",
  "combination": "자동",
  "lat": 37.269012,
  "lng": 126.95872
 },
 {
  "name": "가말로또",
  "address": "전북 남원시 도통동 498-7번지 CU",
  "combination": "자동",
  "lat": 35.421642,
  "lng": 127.39352
 },
 {
  "name": "대동도기상사",
  "address": "경북 영천시 금완로 30",
  "combination": "수동",
  "lat": 35.960327,
  "lng": 128.93187
 },
 {
  "name": "위드미로또경화점",
  "address": "경남 창원시 진해구 조천로 29 세븐일레븐",
  "combination": "자동",
  "lat": 35.1603,
  "lng": 128.68478
 }
]