[
 {
  "name": "진흥슈퍼",
  "address": "서울 강남구 논현로150길 31",
  "combination": "자동",
  "lat": 37.519833,
  "lng": 127.03093
 },
 {
  "name": "가로판매점",
  "address": "서울 서대문구 신촌로 103,(창천동)",
  "combination": "자동",
  "lat": 37.55555,
  "lng": 126.93745
 },
 {
  "name": "평안당",
  "address": "서울 종로구 종로 219",
  "combination": "자동",
  "lat": 37.57123,
  "lng": 127.00219
 },
 {
  "name": "CU(망우점)",
  "address": "서울 중랑구 망우동 470-10번지",
  "combination": "자동",
  "lat": 37.598965,
  "lng": 127.0976
 },
 {
  "name": "위드미 달서송현점",
  "address": "대구 달서구 송현로 32",
  "combination": "자동",
  "lat": 35.822025,
  "lng": 128.54869
 },
 {
  "name": "로또3공단",
  "address": "대구 북구 노원동3가 1038-3번지",
  "combination": "자동",
  "lat": 35.894455,
  "lng": 128.57187
 },
 {
  "name": "GS25(대전시네마점)",
  "address": "대전 서구 괴정동 423-19번지 1층",
  "combination": "수동",
  "lat": 36.339935,
  "lng": 127.3893
 },
 {
  "name": "GS25(대전시네마점)",
  "address": "대전 서구 괴정동 423-19번지 1층",
  "combination": "수동",
  "lat": 36.339935,
  "lng": 127.3893
 },
 {
  "name": "GS25(대전시네마점)",
  "address": "대전 서구 괴정동 423-19번지 1층",
  "combination": "수동",
  "lat": 36.339935,
  "lng": 127.3893
 },
 {
  "name": "GS25(대전시네마점)",
  "address": "대전 서구 괴정동 423-19번지 1층",
  "combination": "수동",
  "lat": 36.339935,
  "lng": 127.3893
 },
 {
  "name": "GS25(대전시네마점)",
  "address": "대전 서구 괴정동 423-19번지 1층",
  "combination": "수동",
  "lat": 36.339935,
  "lng": 127.3893
 },
 {
  "name": "인덕원복권방",
  "address": "경기 안양시 동안구 흥안대로 523",
  "combination": "수동",
  "lat": 37.400696,
  "lng": 126.97621
 },
 {
  "name": "CU(정동진모래시계점)",
  "address": "강원 강릉시 강동면 정동진리 3-2번지",
  "combination": "자동",
  "lat": 37.68632,
  "lng": 129.0366
 },
 {
  "name": "행운복권방",
  "address": "충북 청주시 서원구 분평동 246-24번지 1층 편의점",
  "combination": "수동",
  "lat": 36.61088,
  "lng": 127.4842
 },
 {
  "name": "천하명당(팔용점)",
  "address": "경남 창원시 의창구 사화로 26",
  "combination": "자동",
  "lat": 35.256348,
  "lng": 128.6103
 }
]