[
 {
  "name": "로또복권",
  "address": "서울 노원구 하계동 272번지 시영아파트5단지상가104",
  "combination": "자동",
  "lat": 37.633224,
  "lng": 127.06564
 },
 {
  "name": "헬로마트",
  "address": "서울 도봉구 도봉로170길 8,(도봉동)",
  "combination": "자동",
  "lat": 37.680374,
  "lng": 127.04596
 },
 {
  "name": "서교동가판점",
  "address": "서울 마포구 양화로 115",
  "combination": "자동",
  "lat": 37.554047,
  "lng": 126.91951
 },
 {
  "name": "세진전자통신",
  "address": "대구 서구 서대구로 156",
  "combination": "자동",
  "lat": 35.8719,
  "lng": 128.5552
 },
 {
  "name": "인생대역전",
  "address": "인천 계양구 임학동 10-10번지",
  "combination": "자동",
  "lat": 37.545486,
  "lng": 126.7387
 },
 {
  "name": "GS25시 나눔로또",
  "address": "경기 양주시 호국로 511",
  "combination": "자동",
  "lat": 37.716553,
  "lng": 126.97139
 },
 {
  "name": "행복충전소",
  "address": "경기 평택시 탄현로 332-2",
  "combination": "자동",
  "lat": 37.0818,
  "lng": 127.05637
 },
 {
  "name": "행운의시작복권전문점",
  "address": "강원 삼척시 사대안길 5 8통1반",
  "combination": "자동",
  "lat": 37.444267,
  "lng": 129.16542
 },
 {
  "name": "주공S.P",
  "address": "충남 서산시 동문동 228-2번지",
  "combination": "자동",
  "lat": 36.777824,
  "lng": 126.46421
 },
 {
  "name": "CU구례중앙점복권방",
  "address": "전남 구례군 봉동길 8  구례 하나로 마트 앞",
  "combination": "자동",
  "lat": 35.209152,
  "lng": 127.46866
 },
 {
  "name": "하당복권방",
  "address": "전남 목포시 옥암로 46",
  "combination": "자동",
  "lat": 34.803894,
  "lng": 126.429474
 },
 {
  "name": "플러스하나",
  "address": "전남 순천시 비봉길 6 상가동 1층 107호",
  "combination": "자동",
  "lat": 34.93302,
  "lng": 127.48947
 },
 {
  "name": "불국사명당복권",
  "address": "경북 경주시 산업로 3033",
  "combination": "수동",
  "lat": 35.7765,
  "lng": 129.29813
 }
]