[
 {
  "name": "수공화원로또",
  "address": "서울 성동구 마장동 792번지 1층 수공화원",
  "combination": "수동",
  "lat": 37.565346,
  "lng": 127.042274
 },
 {
  "name": "무지개슈퍼",
  "address": "서울 영등포구 영등포로 379-1 (신길동)",
  "combination": "수동",
  "lat": 37.505875,
  "lng": 126.91818
 },
 {
  "name": "행운복권방",
  "address": "경기 광주시 양벌로 329",
  "combination": "자동",
  "lat": 37.369953,
  "lng": 127.246414
 },
 {
  "name": "운수대통",
  "address": "경기 군포시 군포로745번길 24",
  "combination": "자동",
  "lat": 37.37093,
  "lng": 126.94142
 },
 {
  "name": "패밀리복권방",
  "address": "경기 남양주시 늘을2로 20 CH리베로원 103호",
  "combination": "자동",
  "lat": 37.654453,
  "lng": 127.24409
 },
 {
  "name": "행운복권방",
  "address": "경기 평택시 청북면 후사리 271-5 자연휴게소 내",
  "combination": "자동",
  "lat": 37.029663,
  "lng": 126.94141
 },
 {
  "name": "또또복권방",
  "address": "전북 익산시 고봉로32길 3",
  "combination": "자동",
  "lat": 35.95982,
  "lng": 126.971695
 },
 {
  "name": "창원병원앞매표소",
  "address": "경남 창원시 성산구 중앙동 104-1번지 가판",
  "combination": "수동",
  "lat": 35.2185,
  "lng": 128.67143
 },
 {
  "name": "복권나라",
  "address": "경남 창원시 진해구 용원로 107 CU편의점 내",
  "combination": "자동",
  "lat": 35.098515,
  "lng": 128.82086
 }
]