[
 {
  "name": "구청앞로또명당",
  "address": "서울 강북구 수유3동 191-58번지",
  "combination": "자동",
  "lat": 37.639614,
  "lng": 127.0263
 },
 {
  "name": "영일식품",
  "address": "서울 영등포구 당산로32길 10",
  "combination": "수동",
  "lat": 37.526226,
  "lng": 126.8978
 },
 {
  "name": "아이센스복권방",
  "address": "서울 중랑구 중랑역로 17,(중화동)",
  "combination": "수동",
  "lat": 37.59573,
  "lng": 127.07604
 },
 {
  "name": "선경상회",
  "address": "부산 부산진구 범천동 1252-1번지 이훼밀리마트내",
  "combination": "자동",
  "lat": 35.14832,
  "lng": 129.0537
 },
 {
  "name": "라이프마트",
  "address": "인천 중구 연안부두로53번길 36 5호",
  "combination": "자동",
  "lat": 37.45236,
  "lng": 126.60402
 },
 {
  "name": "위드미유성코아점",
  "address": "대전 유성구 문화원로6번길 103 코아마트",
  "combination": "수동",
  "lat": 36.35746,
  "lng": 127.33811
 },
 {
  "name": "위드미유성코아점",
  "address": "대전 유성구 문화원로6번길 103 코아마트",
  "combination": "수동",
  "lat": 36.35746,
  "lng": 127.33811
 },
 {
  "name": "진성식품",
  "address": "충북 제천시 의병대로 84 1층",
  "combination": "수동",
  "lat": 37.136086,
  "lng": 128.20995
 },
 {
  "name": "심마니대박복권방",
  "address": "충북 충주시 국원대로 68",
  "combination": "자동",
  "lat": 36.977448,
  "lng": 127.92788
 },
 {
  "name": "북마산복권전문점",
  "address": "경남 창원시 마산합포구 북성로 98",
  "combination": "수동",
  "lat": 35.215973,
  "lng": 128.5708
 }
]