[
 {
  "name": "비디오카페(성수점)",
  "address": "서울 성동구 성덕정길 84 1층",
  "combination": "자동",
  "lat": 37.53776,
  "lng": 127.052765
 },
 {
  "name": "꿈의나라",
  "address": "부산 동래구 명륜동 533-49번지 세븐일레븐마트 내",
  "combination": "자동",
  "lat": 35.205193,
  "lng": 129.07956
 },
 {
  "name": "노다지복권방",
  "address": "부산 북구 덕천로 287",
  "combination": "반자동",
  "lat": 35.20986,
  "lng": 129.03535
 },
 {
  "name": "천하복권방",
  "address": "울산 동구 전하로 29",
  "combination": "자동",
  "lat": 35.512436,
  "lng": 129.4275
 },
 {
  "name": "복권방",
  "address": "울산 동구 바드래2길 1",
  "combination": "자동",
  "lat": 35.51749,
  "lng": 129.43167
 },
 {
  "name": "복받는복권방",
  "address": "울산 중구 중앙길 77-1",
  "combination": "자동",
  "lat": 35.555424,
  "lng": 129.318
 },
 {
  "name": "마두역상행선가판대",
  "address": "경기 고양시 일산동구 중앙로 1181 교보생명 일산사옥 마두역상행선가판대",
  "combination": "자동",
  "lat": 37.65222,
  "lng": 126.77706
 },
 {
  "name": "행운복권",
  "address": "경기 군포시 대야1로 3 현대팰리스 1동",
  "combination": "자동",
  "lat": 37.32638,
  "lng": 126.91891
 },
 {
  "name": "에이원",
  "address": "경기 안양시 동안구 관평로319번길 29",
  "combination": "자동",
  "lat": 37.40511,
  "lng": 126.95588
 },
 {
  "name": "복권백화점",
  "address": "경기 여주시 세종로 41 1층",
  "combination": "자동",
  "lat": 37.294037,
  "lng": 127.63629
 },
 {
  "name": "유방매표소",
  "address": "경기 용인시 처인구 백옥대로 1388",
  "combination": "자동",
  "lat": 37.25881,
  "lng": 127.21292
 }
]