[
 {
  "name": "담배",
  "address": "서울 강북구 삼양로 252",
  "combination": "자동",
  "lat": 37.62585,
  "lng": 127.01845
 },
 {
  "name": "화곡본마트",
  "address": "서울 강서구 까치산로4길 3",
  "combination": "수동",
  "lat": 37.54247,
  "lng": 126.844124
 },
 {
  "name": "용꿈돼지꿈",
  "address": "서울 마포구 마포대로 112-5",
  "combination": "자동",
  "lat": 37.544727,
  "lng": 126.95221
 },
 {
  "name": "일이오마켓",
  "address": "서울 서초구 방배동(방배2동) 454-20",
  "combination": "자동",
  "lat": 37.479424,
  "lng": 126.98344
 },
 {
  "name": "여명슈퍼마켓",
  "address": "서울 성북구 장위로15길 4",
  "combination": "수동",
  "lat": 37.61431,
  "lng": 127.04147
 },
 {
  "name": "5가로또레드탑",
  "address": "서울 종로구 종로 222",
  "combination": "자동",
  "lat": 37.570747,
  "lng": 127.002335
 },
 {
  "name": "복권세상",
  "address": "대구 북구 칠곡중앙대로46길 32",
  "combination": "수동",
  "lat": 35.918865,
  "lng": 128.55035
 },
 {
  "name": "복권전문점",
  "address": "인천 부평구 원적로 437",
  "combination": "수동",
  "lat": 37.50383,
  "lng": 126.7151
 },
 {
  "name": "인현동지하가판",
  "address": "인천 중구 참외전로 117-15 동인천게임랜드,짱분식 가판",
  "combination": "자동",
  "lat": 37.476265,
  "lng": 126.631454
 },
 {
  "name": "CU(광주서동점)",
  "address": "광주 남구 서동 13-2번지",
  "combination": "수동",
  "lat": 35.148132,
  "lng": 126.90557
 },
 {
  "name": "지산로또방",
  "address": "광주 동구 지호로 25-2",
  "combination": "수동",
  "lat": 35.14832,
  "lng": 126.93205
 },
 {
  "name": "천사로또방",
  "address": "경기 남양주시 사릉로34번길 24 1층 7호",
  "combination": "수동",
  "lat": 37.63618,
  "lng": 127.21105
 },
 {
  "name": "오렌지통신",
  "address": "경기 성남시 수정구 고등동 404-2",
  "combination": "자동",
  "lat": 37.45513,
  "lng": 127.10651
 },
 {
  "name": "여수복권방",
  "address": "경기 성남시 중원구 성남대로997번길 25-9",
  "combination": "수동",
  "lat": 37.418343,
  "lng": 127.12638
 },
 {
  "name": "둘리복권방",
  "address": "경기 시흥시 중심상가2길 12-6 한강프라자제1층101호",
  "combination": "자동",
  "lat": 37.345314,
  "lng": 126.73626
 },
 {
  "name": "금성24시편의점",
  "address": "경기 양주시 화합로 1355",
  "combination": "수동",
  "lat": 37.843998,
  "lng": 127.06234
 },
 {
  "name": "GS25(청주주은점)",
  "address": "충북 청주시 서원구 분평동 1255",
  "combination": "수동",
  "lat": 36.609867,
  "lng": 127.49133
 },
 {
  "name": "장미슈퍼",
  "address": "충남 부여군 부여읍 계백로 265 부여군청 로터리 부근",
  "combination": "수동",
  "lat": 36.27629,
  "lng": 126.90941
 },
 {
  "name": "장미슈퍼",
  "address": "충남 부여군 부여읍 계백로 265 부여군청 로터리 부근",
  "combination": "자동",
  "lat": 36.27629,
  "lng": 126.90941
 },
 {
  "name": "아이24(수송점)",
  "address": "전북 군산시 문화로 119",
  "combination": "자동",
  "lat": 35.970097,
  "lng": 126.71895
 },
 {
  "name": "탑로또",
  "address": "경남 거제시 거제중앙로 1787 서원탑훼밀리마트 서원탑훼밀리마트고현점 내(계룡온천옆)",
  "combination": "자동",
  "lat": 34.878452,
  "lng": 128.62807
 }
]