[
 {
  "name": "돈벼락맞는곳",
  "address": "부산 동구 조방로49번길 18-1",
  "combination": "자동",
  "lat": 35.139168,
  "lng": 129.05995
 },
 {
  "name": "제이지컴퍼니(JGC)",
  "address": "부산 부산진구 연수로 43 1층",
  "combination": "수동",
  "lat": 35.17507,
  "lng": 129.07489
 },
 {
  "name": "원바이원",
  "address": "부산 중구 흑교로 18",
  "combination": "반자동",
  "lat": 35.10113,
  "lng": 129.02533
 },
 {
  "name": "복권명당(서부점)",
  "address": "대구 달서구 월배로 452",
  "combination": "수동",
  "lat": 35.833633,
  "lng": 128.55486
 },
 {
  "name": "로또복권방",
  "address": "인천 서구 장고개로 333",
  "combination": "자동",
  "lat": 37.492275,
  "lng": 126.68656
 },
 {
  "name": "행복세상",
  "address": "대전 대덕구 중리로 52",
  "combination": "자동",
  "lat": 36.363663,
  "lng": 127.42535
 },
 {
  "name": "천사로또방",
  "address": "경기 남양주시 사릉로34번길 24 1층 7호",
  "combination": "자동",
  "lat": 37.63618,
  "lng": 127.21105
 },
 {
  "name": "로또판매점",
  "address": "충북 음성군 신내로 443 1층",
  "combination": "수동",
  "lat": 36.966633,
  "lng": 127.49071
 },
 {
  "name": "복권나라",
  "address": "충남 계룡시 엄사면 엄사리 184-4",
  "combination": "수동",
  "lat": 36.28952,
  "lng": 127.24185
 },
 {
  "name": "씨유 목포세진점",
  "address": "전남 목포시 해안로249번길 17 CU편의점",
  "combination": "수동",
  "lat": 34.787647,
  "lng": 126.38714
 },
 {
  "name": "복권왕국",
  "address": "전남 여수시 중앙로 24-1",
  "combination": "자동",
  "lat": 34.740177,
  "lng": 127.73026
 }
]