[
 {
  "name": "터미널로또수리점",
  "address": "광주 서구 광천동 49-1번지 광주종합버스터미널 내 금호고속사무실부근",
  "combination": "자동",
  "lat": 35.160297,
  "lng": 126.88015
 },
 {
  "name": "세븐일레븐동천점",
  "address": "광주 서구 동천동 600번지 세븐일레븐 동천점 내",
  "combination": "자동",
  "lat": 35.1711,
  "lng": 126.8682
 },
 {
  "name": "새상무복권",
  "address": "광주 서구 치평로 30 수암빌딩 1층 102호",
  "combination": "자동",
  "lat": 35.149944,
  "lng": 126.84769
 },
 {
  "name": "우리로또",
  "address": "경기 김포시 김포대로 1421",
  "combination": "수동",
  "lat": 37.651577,
  "lng": 126.672646
 },
 {
  "name": "평택로또판매",
  "address": "경기 평택시 비전5로 7 중앙프라자 105호",
  "combination": "자동",
  "lat": 36.9969,
  "lng": 127.09144
 },
 {
  "name": "왕대박복권전문점",
  "address": "강원 동해시 중앙로 234 이주민상가1층18호",
  "combination": "자동",
  "lat": 37.52171,
  "lng": 129.115
 },
 {
  "name": "GS25(두정메트로점)",
  "address": "충남 천안시 서북구 성정동 1451번지",
  "combination": "수동",
  "lat": 36.826557,
  "lng": 127.14148
 },
 {
  "name": "종합복권방",
  "address": "전남 해남군 해남로 34 종합복권방편의점",
  "combination": "자동",
  "lat": 34.570763,
  "lng": 126.61092
 },
 {
  "name": "대광복권방",
  "address": "전남 화순군 칠충로 55 대광로제비앙 대광그린상가동 1층109호",
  "combination": "자동",
  "lat": 35.05548,
  "lng": 126.97712
 }
]