[
 {
  "name": "교통카드판매대",
  "address": "서울 강동구 상일로15길 18 1층",
  "combination": "수동",
  "lat": 37.557686,
  "lng": 127.17006
 },
 {
  "name": "소리창고",
  "address": "서울 강서구 강서로 306",
  "combination": "자동",
  "lat": 37.552868,
  "lng": 126.83675
 },
 {
  "name": "복권나라",
  "address": "서울 관악구 은천로 40-1",
  "combination": "자동",
  "lat": 37.48599,
  "lng": 126.93982
 },
 {
  "name": "행운복권방",
  "address": "서울 은평구 응암로11길 3 1층 3호",
  "combination": "자동",
  "lat": 37.58823,
  "lng": 126.91619
 },
 {
  "name": "세븐로또(진천점)",
  "address": "대구 달서구 진천동 622-2번지 1층 세븐일레븐 내",
  "combination": "수동",
  "lat": 35.813343,
  "lng": 128.522
 },
 {
  "name": "알리바이(쌍촌점)",
  "address": "광주 서구 내방로 258 알리바이편의점내",
  "combination": "자동",
  "lat": 35.1576,
  "lng": 126.86871
 },
 {
  "name": "대박집",
  "address": "경기 광주시 퇴촌면 광동리 245-1",
  "combination": "자동",
  "lat": 37.470287,
  "lng": 127.308075
 },
 {
  "name": "훈이슈퍼",
  "address": "경기 군포시 산본천로 119-5 (산본동, 주공아파트 상가 108, 113호)",
  "combination": "수동",
  "lat": 37.365166,
  "lng": 126.93365
 },
 {
  "name": "나나 복권판매소",
  "address": "경남 양산시 상북중앙로 319 복권판매점",
  "combination": "수동",
  "lat": 35.4122,
  "lng": 129.05919
 }
]