[
 {
  "name": "강일코사할인마트",
  "address": "서울 강동구 고덕로97길 29 강일리버파크9단지아파트 105호",
  "combination": "수동",
  "lat": 37.55984,
  "lng": 127.1788
 },
 {
  "name": "대원슈퍼마켓",
  "address": "부산 수영구 수영로 524",
  "combination": "자동",
  "lat": 35.152473,
  "lng": 129.112
 },
 {
  "name": "만세복권",
  "address": "인천 서구 원당동(검단3동) 825-4 CU 만세원당점",
  "combination": "자동",
  "lat": 37.594604,
  "lng": 126.696396
 },
 {
  "name": "태양마트",
  "address": "대전 유성구 노은로 157 골드프라자 106호",
  "combination": "반자동",
  "lat": 36.373707,
  "lng": 127.317375
 },
 {
  "name": "노다지복권방",
  "address": "대전 중구 유천동 214-1번지",
  "combination": "자동",
  "lat": 36.316895,
  "lng": 127.3982
 },
 {
  "name": "오산제일복권",
  "address": "경기 오산시 오산로 273 1동 104호",
  "combination": "자동",
  "lat": 37.15138,
  "lng": 127.06849
 },
 {
  "name": "나라통신",
  "address": "경기 오산시 오산로 200 OK노래연습장",
  "combination": "자동",
  "lat": 37.14465,
  "lng": 127.068695
 },
 {
  "name": "백암복권",
  "address": "경기 용인시 처인구 백암로 208 옆호수",
  "combination": "자동",
  "lat": 37.1652,
  "lng": 127.374794
 },
 {
  "name": "황실복권방",
  "address": "충남 천안시 동남구 충절로 799",
  "combination": "수동",
  "lat": 36.769257,
  "lng": 127.20064
 },
 {
  "name": "황실복권방",
  "address": "충남 천안시 동남구 충절로 799",
  "combination": "수동",
  "lat": 36.769257,
  "lng": 127.20064
 },
 {
  "name": "황실복권방",
  "address": "충남 천안시 동남구 충절로 799",
  "combination": "수동",
  "lat": 36.769257,
  "lng": 127.20064
 },
 {
  "name": "황실복권방",
  "address": "충남 천안시 동남구 충절로 799",
  "combination": "수동",
  "lat": 36.769257,
  "lng": 127.20064
 },
 {
  "name": "황실복권방",
  "address": "충남 천안시 동남구 충절로 799",
  "combination": "수동",
  "lat": 36.769257,
  "lng": 127.20064
 },
 {
  "name": "도소매복권방",
  "address": "전남 광양시 광영로 146",
  "combination": "자동",
  "lat": 34.965645,
  "lng": 127.71704
 },
 {
  "name": "이삭",
  "address": "전남 목포시 남악2로 54 남악프라자A동103호",
  "combination": "자동",
  "lat": 34.809925,
  "lng": 126.45526
 }
]