[
 {
  "name": "수서역로또명당",
  "address": "서울 강남구 수서동 724",
  "combination": "수동",
  "lat": 37.487316,
  "lng": 127.10312
 },
 {
  "name": "가로판매점",
  "address": "서울 서대문구 수색로 32 명동의류앞",
  "combination": "수동",
  "lat": 37.56946,
  "lng": 126.915085
 },
 {
  "name": "대박찬스",
  "address": "서울 영등포구 도림로 356 1층복권방",
  "combination": "수동",
  "lat": 37.508884,
  "lng": 126.90007
 },
 {
  "name": "부영마트",
  "address": "서울 중랑구 상봉동 108번지",
  "combination": "자동",
  "lat": 37.594753,
  "lng": 127.085655
 },
 {
  "name": "수연식품(대박찬스)",
  "address": "서울 중랑구 면목로48길 11,(면목동)",
  "combination": "자동",
  "lat": 37.5823,
  "lng": 127.08937
 },
 {
  "name": "CU(좌동중앙점)",
  "address": "부산 해운대구 좌동 1461-4번지 더샵센텀파크2차)",
  "combination": "자동",
  "lat": 35.171658,
  "lng": 129.17484
 },
 {
  "name": "삼성로또",
  "address": "인천 연수구 학나래로6번길 56",
  "combination": "자동",
  "lat": 37.423843,
  "lng": 126.69732
 },
 {
  "name": "송가상사",
  "address": "경기 안산시 단원구 중앙대로 462 안산역사쇼핑몰1층131-3호",
  "combination": "수동",
  "lat": 37.32702,
  "lng": 126.78955
 },
 {
  "name": "중앙복권방",
  "address": "충북 청주시 청원구 율량로189번길 25",
  "combination": "자동",
  "lat": 36.665707,
  "lng": 127.50038
 },
 {
  "name": "영약국",
  "address": "충남 금산군 인삼로 104",
  "combination": "수동",
  "lat": 36.10224,
  "lng": 127.49309
 },
 {
  "name": "나라복권",
  "address": "경남 진주시 호탄동 961-31번지 CU편의점 내",
  "combination": "자동",
  "lat": 35.163578,
  "lng": 128.11125
 }
]