[
 {
  "name": "바이드",
  "address": "부산 연제구 연산동 710-1번지 세븐일레븐연산점 내",
  "combination": "자동",
  "lat": 35.183994,
  "lng": 129.08246
 },
 {
  "name": "차밍복권방",
  "address": "광주 광산구 풍영로 41 동구빌딩1층",
  "combination": "자동",
  "lat": 35.175617,
  "lng": 126.811584
 },
 {
  "name": "영화유통(1등복권방)",
  "address": "울산 남구 신정로 19 삼성아파트 상가 204-101",
  "combination": "자동",
  "lat": 35.533833,
  "lng": 129.32205
 },
 {
  "name": "일산탑복권",
  "address": "경기 고양시 일산서구 일산로 517 107호",
  "combination": "자동",
  "lat": 37.67641,
  "lng": 126.77
 },
 {
  "name": "CU(정동진모래시계점)",
  "address": "강원 강릉시 강동면 정동진리 3-2번지",
  "combination": "자동",
  "lat": 37.68632,
  "lng": 129.0366
 },
 {
  "name": "복권명당",
  "address": "충남 아산시 음봉로 582",
  "combination": "자동",
  "lat": 36.838066,
  "lng": 127.073845
 },
 {
  "name": "무지개",
  "address": "전북 군산시 수송남로 36-1",
  "combination": "자동",
  "lat": 35.962677,
  "lng": 126.71455
 },
 {
  "name": "로또복권애니타임점",
  "address": "경북 구미시 인동중앙로11길 24 애니타임편의점 내",
  "combination": "자동",
  "lat": 36.10904,
  "lng": 128.42
 }
]