[
 {
  "name": "영남건재상사",
  "address": "부산 연제구 과정로 200-1",
  "combination": "수동",
  "lat": 35.188087,
  "lng": 129.1054
 },
 {
  "name": "경동G-PLUS할인마트",
  "address": "부산 해운대구 세실로 30 경동G-PLUS아파트상가103",
  "combination": "수동",
  "lat": 35.168427,
  "lng": 129.17944
 },
 {
  "name": "드림로또마켓",
  "address": "경기 수원시 권선구 금곡로 206 127호",
  "combination": "자동",
  "lat": 37.273952,
  "lng": 126.95404
 },
 {
  "name": "로또",
  "address": "충남 홍성군 조양로 162",
  "combination": "수동",
  "lat": 36.601036,
  "lng": 126.66763
 },
 {
  "name": "진도로또",
  "address": "전남 진도군 진도읍 동외리 1151-2 진도로또",
  "combination": "자동",
  "lat": 34.481274,
  "lng": 126.269325
 },
 {
  "name": "AM\u0026PM",
  "address": "경남 김해시 가락로 43 복권판매점",
  "combination": "수동",
  "lat": 35.23037,
  "lng": 128.8819
 },
 {
  "name": "목화휴게소",
  "address": "경남 사천시 사천대로 912",
  "combination": "자동",
  "lat": 35.0018,
  "lng": 128.05415
 }
]