[
 {
  "name": "오케이상사",
  "address": "서울 서초구 신반포로 176 센트럴시티내100호매점",
  "combination": "자동",
  "lat": 37.504353,
  "lng": 127.00359
 },
 {
  "name": "잠실매점",
  "address": "서울 송파구 올림픽로 269 잠실역 8번출구 앞 가판",
  "combination": "자동",
  "lat": 37.514446,
  "lng": 127.10071
 },
 {
  "name": "명당복권",
  "address": "인천 계양구 작전동(작전1동) 388-1",
  "combination": "수동",
  "lat": 37.526634,
  "lng": 126.72949
 },
 {
  "name": "OK25",
  "address": "경기 고양시 일산동구 호수로 358-26 203동1층 101호",
  "combination": "자동",
  "lat": 37.63942,
  "lng": 126.78701
 },
 {
  "name": "복권나라",
  "address": "강원 춘천시 춘천로 286-1",
  "combination": "수동",
  "lat": 37.880527,
  "lng": 127.74493
 },
 {
  "name": "대박마트",
  "address": "충남 천안시 동남구 봉서8길 13 봉명청솔아파트상가103호",
  "combination": "수동",
  "lat": 36.81099,
  "lng": 127.13251
 },
 {
  "name": "경마장복권방",
  "address": "충남 천안시 서북구 성정두정로 56 101호",
  "combination": "수동",
  "lat": 36.830467,
  "lng": 127.14181
 },
 {
  "name": "일레븐마트무선점",
  "address": "전남 여수시 성산로 19",
  "combination": "자동",
  "lat": 34.77387,
  "lng": 127.63973
 },
 {
  "name": "이마트24구미황상점",
  "address": "경북 구미시 수출대로 555",
  "combination": "자동",
  "lat": 36.110912,
  "lng": 128.42572
 },
 {
  "name": "복수이 로또판매점",
  "address": "경남 창원시 성산구 가음동 7-3 월드마트 내",
  "combination": "자동",
  "lat": 35.209423,
  "lng": 128.68881
 }
]