[
 {
  "name": "클로버 복권판매점",
  "address": "서울 송파구 백제고분로50길 19 102호",
  "combination": "수동",
  "lat": 37.513836,
  "lng": 127.117065
 },
 {
  "name": "영남건재상사",
  "address": "부산 연제구 과정로 200-1",
  "combination": "자동",
  "lat": 35.188087,
  "lng": 129.1054
 },
 {
  "name": "로또복권방",
  "address": "인천 서구 신현로 44 1층102호",
  "combination": "자동",
  "lat": 37.51731,
  "lng": 126.67237
 },
 {
  "name": "로또복권방",
  "address": "대전 서구 갈마중로 28,(갈마동)",
  "combination": "자동",
  "lat": 36.347527,
  "lng": 127.37245
 },
 {
  "name": "팡팡복권방",
  "address": "경기 군포시 당동(군포1동) 750-26",
  "combination": "반자동",
  "lat": 37.353596,
  "lng": 126.9465
 },
 {
  "name": "복권사랑",
  "address": "경기 안산시 단원구 와동로 117",
  "combination": "자동",
  "lat": 37.340343,
  "lng": 126.82688
 },
 {
  "name": "나눔로또 신동탄점",
  "address": "경기 화성시 능동 1098-8",
  "combination": "자동",
  "lat": 37.215828,
  "lng": 127.05615
 },
 {
  "name": "행운로또",
  "address": "충남 아산시 충무로 1396",
  "combination": "자동",
  "lat": 36.897526,
  "lng": 127.03526
 }
]