[
 {
  "name": "씨스페이스(흑석중대점)",
  "address": "서울 동작구 흑석동 52-1번지",
  "combination": "자동",
  "lat": 37.50771,
  "lng": 126.96327
 },
 {
  "name": "대박천하",
  "address": "인천 연수구 새말로 37 103호",
  "combination": "자동",
  "lat": 37.42203,
  "lng": 126.67539
 },
 {
  "name": "패밀리복권방",
  "address": "경기 남양주시 늘을2로 20 CH리베로원 103호",
  "combination": "수동",
  "lat": 37.654453,
  "lng": 127.24409
 },
 {
  "name": "로또방",
  "address": "경기 용인시 기흥구 고매동 485-16번지 CU(기흥IC점)",
  "combination": "자동",
  "lat": 37.220036,
  "lng": 127.1035
 },
 {
  "name": "녹동하나로마트로또방",
  "address": "전남 고흥군 녹동남촌1길 13 이마트24녹동점옆",
  "combination": "자동",
  "lat": 34.525757,
  "lng": 127.14047
 }
]