[
 {
  "name": "명당복권",
  "address": "서울 동대문구 왕산로 112-1 가판",
  "combination": "자동",
  "lat": 37.577915,
  "lng": 127.035774
 },
 {
  "name": "가판",
  "address": "서울 마포구 마포대로 58 가든호텔정문옆가판",
  "combination": "자동",
  "lat": 37.540684,
  "lng": 126.94833
 },
 {
  "name": "현아상회",
  "address": "부산 남구 동명로145번길 3",
  "combination": "자동",
  "lat": 35.119755,
  "lng": 129.1127
 },
 {
  "name": "은행복권방",
  "address": "경기 시흥시 대은로104번길 1 우남상가2동101호",
  "combination": "수동",
  "lat": 37.445133,
  "lng": 126.80047
 },
 {
  "name": "황금복권마트",
  "address": "경기 이천시 증신로325번길 5 1층",
  "combination": "자동",
  "lat": 37.297546,
  "lng": 127.438866
 },
 {
  "name": "토큰판매",
  "address": "경북 경산시 대학로 291 토큰박스",
  "combination": "자동",
  "lat": 35.837166,
  "lng": 128.75374
 },
 {
  "name": "로또복권삼주봉황",
  "address": "경북 경산시 진량읍 봉회리 57번지",
  "combination": "수동",
  "lat": 35.88434,
  "lng": 128.82066
 },
 {
  "name": "창원병원앞매표소",
  "address": "경남 창원시 성산구 중앙동 104-1번지 가판",
  "combination": "자동",
  "lat": 35.2185,
  "lng": 128.67143
 }
]