[
 {
  "name": "데이앤나잇",
  "address": "서울 성북구 종암로 132 종암우림카이저팰리스 1층 101호",
  "combination": "수동",
  "lat": 37.601955,
  "lng": 127.03346
 },
 {
  "name": "데이앤나잇",
  "address": "서울 성북구 종암로 132 종암우림카이저팰리스 1층 101호",
  "combination": "수동",
  "lat": 37.601955,
  "lng": 127.03346
 },
 {
  "name": "데이앤나잇",
  "address": "서울 성북구 종암로 132 종암우림카이저팰리스 1층 101호",
  "combination": "수동",
  "lat": 37.601955,
  "lng": 127.03346
 },
 {
  "name": "데이앤나잇",
  "address": "서울 성북구 종암로 132 종암우림카이저팰리스 1층 101호",
  "combination": "수동",
  "lat": 37.601955,
  "lng": 127.03346
 },
 {
  "name": "데이앤나잇",
  "address": "서울 성북구 종암로 132 종암우림카이저팰리스 1층 101호",
  "combination": "수동",
  "lat": 37.601955,
  "lng": 127.03346
 },
 {
  "name": "크로바쎄븐",
  "address": "서울 송파구 법원로11길 7 문정현대지식산업센터1-2 1층 128호",
  "combination": "자동",
  "lat": 37.485355,
  "lng": 127.119225
 },
 {
  "name": "세진전자통신",
  "address": "대구 서구 서대구로 156",
  "combination": "자동",
  "lat": 35.8719,
  "lng": 128.5552
 },
 {
  "name": "울릉로또",
  "address": "경북 울릉군 봉래2길 32-14 1층 울릉로또\u0026커피",
  "combination": "수동",
  "lat": 37.497395,
  "lng": 130.90799
 },
 {
  "name": "CU(거제옥포점)",
  "address": "경남 거제시 옥포1동 548-1번지",
  "combination": "반자동",
  "lat": 34.891068,
  "lng": 128.69176
 }
]