[
 {
  "name": "복드림복권방",
  "address": "서울 강동구 상암로 99",
  "combination": "자동",
  "lat": 37.547485,
  "lng": 127.13399
 },
 {
  "name": "로또와공인중개사사무소",
  "address": "서울 은평구 갈현로 304 1층",
  "combination": "자동",
  "lat": 37.623955,
  "lng": 126.91714
 },
 {
  "name": "과정미니슈퍼",
  "address": "부산 연제구 과정로 234-1",
  "combination": "수동",
  "lat": 35.18785,
  "lng": 129.10162
 },
 {
  "name": "반여상회",
  "address": "부산 해운대구 선수촌로 190 1층",
  "combination": "자동",
  "lat": 35.209423,
  "lng": 129.12465
 },
 {
  "name": "다운이앤씨",
  "address": "인천 부평구 평천로 102-1 1층",
  "combination": "자동",
  "lat": 37.51749,
  "lng": 126.702545
 },
 {
  "name": "한국인세계대박복권",
  "address": "인천 연수구 한나루로197번길 34",
  "combination": "자동",
  "lat": 37.42769,
  "lng": 126.65522
 },
 {
  "name": "해피복권방",
  "address": "경기 고양시 일산동구 고봉로 608",
  "combination": "자동",
  "lat": 37.711002,
  "lng": 126.7884
 },
 {
  "name": "복권명당",
  "address": "경기 광명시 광명로832번길 15",
  "combination": "자동",
  "lat": 37.473038,
  "lng": 126.85323
 },
 {
  "name": "황금도끼복권방",
  "address": "경기 광주시 능평로 214",
  "combination": "수동",
  "lat": 37.34523,
  "lng": 127.17725
 },
 {
  "name": "SK@24시편의점",
  "address": "경기 파주시 야동동 589-10번지",
  "combination": "반자동",
  "lat": 37.773052,
  "lng": 126.75124
 },
 {
  "name": "황금복권",
  "address": "강원 원주시 단계동 808 삼익상가 105호",
  "combination": "수동",
  "lat": 37.351185,
  "lng": 127.9295
 },
 {
  "name": "봉평천하",
  "address": "강원 평창군 기풍로 145",
  "combination": "자동",
  "lat": 37.615482,
  "lng": 128.37805
 },
 {
  "name": "목화휴게소",
  "address": "경남 사천시 사천대로 912",
  "combination": "수동",
  "lat": 35.0018,
  "lng": 128.05415
 }
]