[
 {
  "name": "조이풀JOYFUL",
  "address": "부산 동구 범일동(범일제2동) 830-90 한양상가1-1",
  "combination": "자동",
  "lat": 35.140076,
  "lng": 129.06425
 },
 {
  "name": "영희복권",
  "address": "부산 사상구 괘법동 526-51번지 CU사상서부점 내",
  "combination": "자동",
  "lat": 35.16389,
  "lng": 128.98299
 },
 {
  "name": "복권방",
  "address": "부산 사하구 장림번영로 25",
  "combination": "자동",
  "lat": 35.081005,
  "lng": 128.96823
 },
 {
  "name": "혜인상사",
  "address": "부산 사하구 괴정동 955-2",
  "combination": "자동",
  "lat": 35.098225,
  "lng": 128.99417
 },
 {
  "name": "복권명당",
  "address": "대전 중구 목중로 47",
  "combination": "자동",
  "lat": 36.33757,
  "lng": 127.40925
 },
 {
  "name": "CN마트",
  "address": "울산 동구 대학길 76 1층102호",
  "combination": "자동",
  "lat": 35.49841,
  "lng": 129.42188
 },
 {
  "name": "스카이편의점",
  "address": "경기 안양시 만안구 박달로 527",
  "combination": "자동",
  "lat": 37.40275,
  "lng": 126.91124
 },
 {
  "name": "도소매복권방",
  "address": "전남 광양시 광영로 146",
  "combination": "자동",
  "lat": 34.965645,
  "lng": 127.71704
 },
 {
  "name": "해피데이24복권",
  "address": "경북 고령군 다산면 평리리 253-2번지",
  "combination": "수동",
  "lat": 35.825546,
  "lng": 128.45348
 }
]