[
 {
  "name": "가로판매점",
  "address": "서울 강서구 공항동 53-41번지 가판",
  "combination": "자동",
  "lat": 37.561047,
  "lng": 126.81024
 },
 {
  "name": "소리창고",
  "address": "서울 강서구 강서로 306",
  "combination": "자동",
  "lat": 37.552868,
  "lng": 126.83675
 },
 {
  "name": "꿈이현실로",
  "address": "서울 중구 청계천로 182",
  "combination": "자동",
  "lat": 37.568573,
  "lng": 126.99775
 },
 {
  "name": "프로토베팅샵",
  "address": "부산 중구 국제시장2길 5 4호",
  "combination": "수동",
  "lat": 35.099678,
  "lng": 129.0284
 },
 {
  "name": "로또대박파티마삼거리",
  "address": "대구 동구 아양로 119 이노PC방",
  "combination": "자동",
  "lat": 35.884842,
  "lng": 128.62624
 },
 {
  "name": "승차권판매소(서구청1호점)",
  "address": "대구 서구 국채보상로 257",
  "combination": "반자동",
  "lat": 35.871826,
  "lng": 128.55919
 },
 {
  "name": "정다운복권 조이마트",
  "address": "인천 부평구 충선로 171 1층",
  "combination": "자동",
  "lat": 37.504536,
  "lng": 126.736275
 },
 {
  "name": "마두5번출구가판로또",
  "address": "경기 고양시 일산동구 중앙로 1200",
  "combination": "자동",
  "lat": 37.65387,
  "lng": 126.77711
 },
 {
  "name": "로토피아",
  "address": "경기 광명시 오리로 371 상가1층102호",
  "combination": "자동",
  "lat": 37.435596,
  "lng": 126.87925
 },
 {
  "name": "패밀리복권방",
  "address": "경기 광주시 오포읍 오포로 122",
  "combination": "자동",
  "lat": 37.34396,
  "lng": 127.17972
 },
 {
  "name": "광주역점(천운당)",
  "address": "경기 광주시 역동로 107",
  "combination": "자동",
  "lat": 37.3994,
  "lng": 127.253815
 },
 {
  "name": "대박",
  "address": "경기 안양시 동안구 관평로170번길 33",
  "combination": "자동",
  "lat": 37.392975,
  "lng": 126.962234
 },
 {
  "name": "구구상사",
  "address": "경기 용인시 기흥구 구갈동 374-7번지 1층 편의점",
  "combination": "자동",
  "lat": 37.27621,
  "lng": 127.1154
 },
 {
  "name": "동부대박복권방",
  "address": "경북 문경시 신흥로 234 동부코사마트",
  "combination": "자동",
  "lat": 36.600998,
  "lng": 128.20636
 },
 {
  "name": "팬더복권",
  "address": "경북 포항시 남구 충무로 39-1 1층,우측상가",
  "combination": "자동",
  "lat": 35.97604,
  "lng": 129.41425
 }
]