[
 {
  "name": "오로라복권방",
  "address": "서울 광진구 뚝섬로 625 국민은행자양동지점 50m",
  "combination": "수동",
  "lat": 37.532303,
  "lng": 127.0791
 },
 {
  "name": "고경식품",
  "address": "서울 구로구 경인로 381",
  "combination": "수동",
  "lat": 37.49682,
  "lng": 126.86245
 },
 {
  "name": "오케이상사",
  "address": "서울 서초구 신반포로 176 센트럴시티내100호매점",
  "combination": "자동",
  "lat": 37.504353,
  "lng": 127.00359
 },
 {
  "name": "대박복권방",
  "address": "서울 성북구 돌곶이로 60",
  "combination": "자동",
  "lat": 37.609234,
  "lng": 127.058945
 },
 {
  "name": "잠실매점",
  "address": "서울 송파구 올림픽로 269 잠실역 8번출구 앞 가판",
  "combination": "자동",
  "lat": 37.514446,
  "lng": 127.10071
 },
 {
  "name": "복권명당",
  "address": "대구 동구 효동로 45,(효목동)",
  "combination": "수동",
  "lat": 35.881493,
  "lng": 128.6462
 },
 {
  "name": "명당골복권방",
  "address": "경기 수원시 권선구 동수원로242번길 15 104호",
  "combination": "수동",
  "lat": 37.251095,
  "lng": 127.03546
 },
 {
  "name": "명당골복권방",
  "address": "경기 수원시 권선구 동수원로242번길 15 104호",
  "combination": "수동",
  "lat": 37.251095,
  "lng": 127.03546
 },
 {
  "name": "대박복권방",
  "address": "경기 연천군 전곡읍 온골로 57-1,(전곡리)",
  "combination": "반자동",
  "lat": 38.02602,
  "lng": 127.06766
 },
 {
  "name": "거진터미널로또복권판매점",
  "address": "강원 고성군 거진읍 거진길 21-2 거진터미널",
  "combination": "자동",
  "lat": 38.44631,
  "lng": 128.45374
 },
 {
  "name": "복권명당",
  "address": "충남 공주시 번영1로 41",
  "combination": "자동",
  "lat": 36.471832,
  "lng": 127.13313
 },
 {
  "name": "복돼지복권방",
  "address": "전북 익산시 선화로1길 4 배산시티프라자 배산시티프라자 1층 107호",
  "combination": "자동",
  "lat": 35.950245,
  "lng": 126.93804
 }
]