[
 {
  "name": "갈렙분식한식",
  "address": "서울 중랑구 용마산로115길 92",
  "combination": "수동",
  "lat": 37.59823,
  "lng": 127.09528
 },
 {
  "name": "갈렙분식한식",
  "address": "서울 중랑구 용마산로115길 92",
  "combination": "수동",
  "lat": 37.59823,
  "lng": 127.09528
 },
 {
  "name": "갈렙분식한식",
  "address": "서울 중랑구 용마산로115길 92",
  "combination": "수동",
  "lat": 37.59823,
  "lng": 127.09528
 },
 {
  "name": "갈렙분식한식",
  "address": "서울 중랑구 용마산로115길 92",
  "combination": "수동",
  "lat": 37.59823,
  "lng": 127.09528
 },
 {
  "name": "갈렙분식한식",
  "address": "서울 중랑구 용마산로115길 92",
  "combination": "수동",
  "lat": 37.59823,
  "lng": 127.09528
 },
 {
  "name": "로또복권",
  "address": "부산 동구 범일동 830-200번지 한양아파트3동상가1층 세븐일레븐",
  "combination": "자동",
  "lat": 35.14066,
  "lng": 129.06378
 },
 {
  "name": "복권명당(서부점)",
  "address": "대구 달서구 월배로 452",
  "combination": "자동",
  "lat": 35.833633,
  "lng": 128.55486
 },
 {
  "name": "로또세븐죽전점",
  "address": "대구 달서구 성서공단남로 37 1층 117호",
  "combination": "수동",
  "lat": 35.85018,
  "lng": 128.53491
 },
 {
  "name": "대박(토토)",
  "address": "광주 북구 군왕로 196",
  "combination": "수동",
  "lat": 35.178318,
  "lng": 126.9351
 },
 {
  "name": "영통대박복권",
  "address": "경기 수원시 영통구 법조로149번길 101 1층 101호 CU편의점 내",
  "combination": "자동",
  "lat": 37.29386,
  "lng": 127.068924
 },
 {
  "name": "행복정보통신",
  "address": "경기 연천군 연천로 264-1",
  "combination": "자동",
  "lat": 38.100468,
  "lng": 127.07499
 },
 {
  "name": "대성기획",
  "address": "경기 용인시 기흥구 구성로 75-1",
  "combination": "자동",
  "lat": 37.29493,
  "lng": 127.1179
 },
 {
  "name": "행운로또",
  "address": "경기 하남시 미사강변중앙로 164 101호",
  "combination": "자동",
  "lat": 37.561512,
  "lng": 127.19113
 },
 {
  "name": "복권나라",
  "address": "전북 군산시 번영로 891",
  "combination": "자동",
  "lat": 35.94672,
  "lng": 126.81039
 },
 {
  "name": "구례로또",
  "address": "전남 구례군 구례읍 로터리길 2-1",
  "combination": "자동",
  "lat": 35.208714,
  "lng": 127.464806
 }
]