[
 {
  "name": "정화식품",
  "address": "부산 동래구 충렬대로 248",
  "combination": "자동",
  "lat": 35.201023,
  "lng": 129.08624
 },
 {
  "name": "운수대통복권방",
  "address": "부산 부산진구 전포대로200번길 13",
  "combination": "자동",
  "lat": 35.154648,
  "lng": 129.0664
 },
 {
  "name": "로또흑석점",
  "address": "광주 광산구 흑석동 595 CU편의점 내",
  "combination": "자동",
  "lat": 35.182293,
  "lng": 126.81116
 },
 {
  "name": "GS25(수원삼성점)",
  "address": "경기 수원시 영통구 매탄동 1267-7번지 중앙프라자104호",
  "combination": "반자동",
  "lat": 37.259037,
  "lng": 127.04512
 },
 {
  "name": "헬로복권",
  "address": "경기 안성시 종합운동장로 161",
  "combination": "자동",
  "lat": 37.012398,
  "lng": 12.238893
 },
 {
  "name": "신세계로또",
  "address": "경기 양평군 공흥로 16 1층",
  "combination": "자동",
  "lat": 37.4935,
  "lng": 127.49934
 },
 {
  "name": "1등행운로또",
  "address": "충남 아산시 온천대로 1315",
  "combination": "자동",
  "lat": 36.78663,
  "lng": 126.98499
 },
 {
  "name": "터미널매점",
  "address": "충남 예산군 예산읍 산성리 647",
  "combination": "자동",
  "lat": 36.694378,
  "lng": 126.832756
 },
 {
  "name": "베스트원",
  "address": "전남 영광군 신남로 209-1 1층",
  "combination": "수동",
  "lat": 35.276035,
  "lng": 126.5051
 },
 {
  "name": "주택복권2호점",
  "address": "경북 구미시 금오시장로 13 114호",
  "combination": "수동",
  "lat": 36.126236,
  "lng": 128.3407
 },
 {
  "name": "씨유(진해제일점)",
  "address": "경남 창원시 진해구 덕산로46번길 2 동부회센타 1층 102~105호",
  "combination": "자동",
  "lat": 35.145824,
  "lng": 128.70442
 },
 {
  "name": "성산복권방",
  "address": "제주 서귀포시 성산읍 고성리 1197-8",
  "combination": "자동",
  "lat": 33.450214,
  "lng": 126.91453
 },
 {
  "name": "GS25(제주삼화점)",
  "address": "제주 제주시 화북일동 1023-2",
  "combination": "수동",
  "lat": 33.514515,
  "lng": 126.5761
 }
]