[
 {
  "name": "대박나라",
  "address": "서울 마포구 망원로 86",
  "combination": "반자동",
  "lat": 37.55746,
  "lng": 126.90624
 },
 {
  "name": "행운복권방",
  "address": "서울 성동구 성수동2가 250-64번지",
  "combination": "자동",
  "lat": 37.53935,
  "lng": 127.062096
 },
 {
  "name": "복권천국(덕포점)",
  "address": "부산 사상구 사상로309번길 39",
  "combination": "자동",
  "lat": 35.17245,
  "lng": 128.98119
 },
 {
  "name": "럭키뱅크",
  "address": "대전 동구 계족로 491,(용전동)",
  "combination": "자동",
  "lat": 36.35568,
  "lng": 127.43251
 },
 {
  "name": "대박복권",
  "address": "경기 부천시 원미구 심곡동(심곡2동) 173-1 실주소 : 경기 부천시 원미구 심곡동 316-2 부천역 지하상가 w6 7-2 호",
  "combination": "자동",
  "lat": 37.484024,
  "lng": 126.78282
 },
 {
  "name": "용꿈돼지꿈복권방",
  "address": "경기 시흥시 하중로 235 법조타운103호",
  "combination": "수동",
  "lat": 37.390877,
  "lng": 126.806526
 },
 {
  "name": "로또천국",
  "address": "충북 충주시 금봉1길  48 1층",
  "combination": "자동",
  "lat": 36.981762,
  "lng": 127.91459
 },
 {
  "name": "삼양오아시스",
  "address": "제주 제주시 삼양이동(삼양동) 2142-6 1층 CU삼양대로점",
  "combination": "수동",
  "lat": 33.521088,
  "lng": 126.57973
 }
]