[
 {
  "name": "원스탑",
  "address": "서울 송파구 백제고분로7길 39",
  "combination": "자동",
  "lat": 37.510902,
  "lng": 127.08321
 },
 {
  "name": "은혜",
  "address": "서울 중랑구 면목로91길 46,(상봉동)",
  "combination": "자동",
  "lat": 37.594112,
  "lng": 127.08339
 },
 {
  "name": "후생사제3매장",
  "address": "대전 동구 비래서로42번길 105,(가양동)",
  "combination": "수동",
  "lat": 36.349724,
  "lng": 127.446815
 },
 {
  "name": "그린로또",
  "address": "대전 중구 대흥로 94",
  "combination": "자동",
  "lat": 36.322495,
  "lng": 127.42251
 },
 {
  "name": "로또휴게실",
  "address": "경기 용인시 기흥구 용구대로 1885",
  "combination": "자동",
  "lat": 37.256386,
  "lng": 127.10432
 },
 {
  "name": "CU(광탄개나리점)",
  "address": "경기 파주시 광탄면 신산리 358-10번지 화설프라자",
  "combination": "수동",
  "lat": 37.78273,
  "lng": 126.84627
 },
 {
  "name": "불티나",
  "address": "강원 춘천시 후석로462번길 94-1 1층",
  "combination": "자동",
  "lat": 37.890953,
  "lng": 127.751976
 },
 {
  "name": "현대로또판매점",
  "address": "충남 서산시 율지5로 16",
  "combination": "수동",
  "lat": 36.77752,
  "lng": 126.46427
 },
 {
  "name": "울릉로또",
  "address": "경북 울릉군 봉래2길 32-14 1층 울릉로또\u0026커피",
  "combination": "자동",
  "lat": 37.497395,
  "lng": 130.90799
 }
]