[
 {
  "name": "삼호복권",
  "address": "서울 도봉구 도봉로 457",
  "combination": "자동",
  "lat": 37.646816,
  "lng": 127.03317
 },
 {
  "name": "서초대박로또",
  "address": "서울 서초구 서초동(서초1동) 1673-10",
  "combination": "반자동",
  "lat": 37.493988,
  "lng": 127.01552
 },
 {
  "name": "바이더웨이녹번중앙점",
  "address": "서울 은평구 갈현로 88 은평성심의원 1층 우측 두번째 점포",
  "combination": "자동",
  "lat": 37.60575,
  "lng": 126.91073
 },
 {
  "name": "제이복권방",
  "address": "서울 종로구 종로 225-1 평창빌딩 1층 103호",
  "combination": "자동",
  "lat": 37.571293,
  "lng": 127.00283
 },
 {
  "name": "성광복권명당",
  "address": "부산 연제구 과정로 335",
  "combination": "수동",
  "lat": 35.19,
  "lng": 129.0911
 },
 {
  "name": "일등복권편의점",
  "address": "대구 달서구 대명천로 220 1층",
  "combination": "수동",
  "lat": 35.84214,
  "lng": 128.53621
 },
 {
  "name": "서창동 로또방",
  "address": "인천 남동구 서창남순환로 222 센타프라자 1층 106호",
  "combination": "자동",
  "lat": 37.424126,
  "lng": 126.74947
 },
 {
  "name": "천하제일복권명당유성점",
  "address": "대전 유성구 유성대로654번길 111",
  "combination": "자동",
  "lat": 36.350956,
  "lng": 127.33514
 },
 {
  "name": "차부상회",
  "address": "경기 김포시 통진읍 조강로 50",
  "combination": "수동",
  "lat": 37.690342,
  "lng": 126.60031
 },
 {
  "name": "행운을주는로또판매점",
  "address": "경기 안산시 단원구 초지로 90 태영프라자 태영프라자111호",
  "combination": "수동",
  "lat": 37.306877,
  "lng": 126.81511
 },
 {
  "name": "복만이복권",
  "address": "경기 오산시 은계동(신장동) 13-15",
  "combination": "자동",
  "lat": 37.16193,
  "lng": 127.07567
 },
 {
  "name": "드래곤복권",
  "address": "경기 용인시 기흥구 중부대로 814",
  "combination": "수동",
  "lat": 37.25603,
  "lng": 127.143364
 },
 {
  "name": "행운",
  "address": "경기 용인시 기흥구 언남동(구성동) 336-7",
  "combination": "수동",
  "lat": 37.293976,
  "lng": 127.120735
 },
 {
  "name": "행운복권방",
  "address": "충북 청주시 흥덕구 복대로 207",
  "combination": "수동",
  "lat": 36.63505,
  "lng": 127.44054
 },
 {
  "name": "터미널슈퍼",
  "address": "충북 청주시 흥덕구 풍년로150번길 10-2",
  "combination": "자동",
  "lat": 36.62587,
  "lng": 127.433754
 },
 {
  "name": "도소매복권방",
  "address": "전남 광양시 광영로 146",
  "combination": "반자동",
  "lat": 34.965645,
  "lng": 127.71704
 }
]