[
 {
  "name": "일등복권편의점",
  "address": "대구 달서구 대명천로 220 1층",
  "combination": "자동",
  "lat": 35.84214,
  "lng": 128.53621
 },
 {
  "name": "하나마트(하남4번로)",
  "address": "광주 광산구 하남산단4번로 172 로또카페",
  "combination": "수동",
  "lat": 35.19074,
  "lng": 126.80882
 },
 {
  "name": "장고분로또(토토편의방)",
  "address": "광주 광산구 월계로 144 1층",
  "combination": "수동",
  "lat": 35.21327,
  "lng": 126.841156
 },
 {
  "name": "하나마트(하남4번로)",
  "address": "광주 광산구 하남산단4번로 172 로또카페",
  "combination": "수동",
  "lat": 35.19074,
  "lng": 126.80882
 },
 {
  "name": "은미복권방",
  "address": "경기 부천시 소사로794번길 6",
  "combination": "자동",
  "lat": 37.52689,
  "lng": 126.80513
 },
 {
  "name": "로또카페",
  "address": "경기 평택시 관광특구로 13 1층102호",
  "combination": "수동",
  "lat": 37.06724,
  "lng": 127.06053
 },
 {
  "name": "남평로또점",
  "address": "전남 나주시 남평1로 12 파평회관 1층",
  "combination": "자동",
  "lat": 35.046345,
  "lng": 126.8391
 },
 {
  "name": "조례로또복권방",
  "address": "전남 순천시 봉화2길 58 조례로또복권방",
  "combination": "자동",
  "lat": 34.95842,
  "lng": 127.51815
 },
 {
  "name": "북마산복권전문점",
  "address": "경남 창원시 마산합포구 북성로 98",
  "combination": "자동",
  "lat": 35.215973,
  "lng": 128.5708
 }
]