[
 {
  "name": "노다지 노원역점 복권방",
  "address": "서울 노원구 상계로 78,(상계동)",
  "combination": "자동",
  "lat": 37.656223,
  "lng": 127.06374
 },
 {
  "name": "나눔로또수입과자",
  "address": "서울 성북구 삼선교로 87",
  "combination": "자동",
  "lat": 37.58996,
  "lng": 127.01501
 },
 {
  "name": "럭키",
  "address": "부산 북구 시랑로 138",
  "combination": "자동",
  "lat": 35.195084,
  "lng": 129.01054
 },
 {
  "name": "경동G-PLUS할인마트",
  "address": "부산 해운대구 세실로 30 경동G-PLUS아파트상가103",
  "combination": "자동",
  "lat": 35.168427,
  "lng": 129.17944
 },
 {
  "name": "세진전자통신",
  "address": "대구 서구 서대구로 156",
  "combination": "자동",
  "lat": 35.8719,
  "lng": 128.5552
 },
 {
  "name": "버블샵카페 고래의꿈",
  "address": "광주 광산구 목련로273번길 88 운남주공아파트 상가108호",
  "combination": "자동",
  "lat": 35.17795,
  "lng": 126.82506
 },
 {
  "name": "황금도끼복권방",
  "address": "경기 광주시 능평로 214",
  "combination": "자동",
  "lat": 37.34523,
  "lng": 127.17725
 },
 {
  "name": "혹시나도",
  "address": "충북 음성군 감곡면 왕장리 521-9번지 복권방",
  "combination": "수동",
  "lat": 37.119133,
  "lng": 127.63936
 }
]