[
 {
  "name": "GS25(양재삼익점)",
  "address": "서울 서초구 바우뫼로 184 향천빌딩 105호",
  "combination": "자동",
  "lat": 37.478596,
  "lng": 127.040306
 },
 {
  "name": "잠실매점",
  "address": "서울 송파구 올림픽로 269 잠실역 8번출구 앞 가판",
  "combination": "자동",
  "lat": 37.514446,
  "lng": 127.10071
 },
 {
  "name": "토큰판매복권담배",
  "address": "서울 송파구 가락동(가락2동) 164-20",
  "combination": "자동",
  "lat": 37.49635,
  "lng": 127.1312
 },
 {
  "name": "영화마을운남점",
  "address": "광주 광산구 하남대로 297-1 1층",
  "combination": "수동",
  "lat": 35.17923,
  "lng": 126.82627
 },
 {
  "name": "GS25(안산고잔점)",
  "address": "경기 안산시 단원구 고잔동 710-3번지 법조타운108호",
  "combination": "자동",
  "lat": 37.310196,
  "lng": 126.827385
 },
 {
  "name": "한아름매점",
  "address": "충남 홍성군 광천로 330",
  "combination": "수동",
  "lat": 36.503197,
  "lng": 126.62555
 },
 {
  "name": "진우복권명당",
  "address": "경북 경산시 경산로15길 1-11",
  "combination": "수동",
  "lat": 35.815308,
  "lng": 128.7312
 },
 {
  "name": "GS25(영천ic점)",
  "address": "경북 영천시 봉동 668-5번지",
  "combination": "수동",
  "lat": 35.93314,
  "lng": 128.94496
 },
 {
  "name": "반딧불로또",
  "address": "경남 거제시 아주동 1696-6 1층 cu편의점 내",
  "combination": "자동",
  "lat": 34.86537,
  "lng": 128.68983
 },
 {
  "name": "천하명당복권방",
  "address": "경남 거제시 옥포성안로 60",
  "combination": "자동",
  "lat": 34.891693,
  "lng": 128.69492
 },
 {
  "name": "제이엠정보통신",
  "address": "경남 함안군 함안대로 552 1층",
  "combination": "자동",
  "lat": 35.27584,
  "lng": 128.40576
 }
]