[
 {
  "name": "스파",
  "address": "서울 노원구 동일로 1493 상계주공아파트(10단지) 주공10단지종합상가111",
  "combination": "자동",
  "lat": 37.66166,
  "lng": 127.05787
 },
 {
  "name": "제이복권방",
  "address": "서울 종로구 종로 225-1 평창빌딩 1층 103호",
  "combination": "자동",
  "lat": 37.571293,
  "lng": 127.00283
 },
 {
  "name": "다연마트",
  "address": "서울 중랑구 겸재로 122",
  "combination": "자동",
  "lat": 37.58679,
  "lng": 127.08132
 },
 {
  "name": "돈벼락맞는곳",
  "address": "부산 사상구 낙동대로 910 마트월드 A-160호",
  "combination": "수동",
  "lat": 35.141865,
  "lng": 128.971
 },
 {
  "name": "위너로또",
  "address": "인천 남동구 구월남로 212  동원프라자 101호",
  "combination": "자동",
  "lat": 37.45245,
  "lng": 126.71311
 },
 {
  "name": "찬스복권방",
  "address": "인천 부평구 육동로 20-1 1층",
  "combination": "수동",
  "lat": 37.48712,
  "lng": 126.72512
 },
 {
  "name": "GS25(십정센터점)",
  "address": "인천 부평구 십정동 117번지 B동",
  "combination": "수동",
  "lat": 37.478703,
  "lng": 126.6906
 },
 {
  "name": "신흥엑스포쇼핑",
  "address": "인천 서구 가석로156번길 20",
  "combination": "수동",
  "lat": 37.49705,
  "lng": 126.67706
 },
 {
  "name": "행복로또",
  "address": "광주 동구 남문로 699 행복로또",
  "combination": "자동",
  "lat": 35.13296,
  "lng": 126.92802
 },
 {
  "name": "대박나라",
  "address": "대전 유성구 유성대로720번길 39",
  "combination": "수동",
  "lat": 36.35737,
  "lng": 127.33416
 },
 {
  "name": "역전광장상회",
  "address": "경기 파주시 금촌1동 329-19번지",
  "combination": "자동",
  "lat": 37.765278,
  "lng": 126.77464
 },
 {
  "name": "행운복권방",
  "address": "경기 평택시 서정남로 131",
  "combination": "자동",
  "lat": 37.060966,
  "lng": 127.05394
 },
 {
  "name": "대박찬스",
  "address": "전북 군산시 칠성로 164",
  "combination": "자동",
  "lat": 35.969368,
  "lng": 126.67934
 },
 {
  "name": "나이스로또복권",
  "address": "전남 여수시 이순신광장로 210",
  "combination": "자동",
  "lat": 34.73967,
  "lng": 127.745186
 },
 {
  "name": "행운복권방(감포)",
  "address": "경북 경주시 감포로 141",
  "combination": "자동",
  "lat": 35.80664,
  "lng": 129.50232
 }
]