[
 {
  "name": "시흥식품",
  "address": "서울 금천구 시흥대로63길 13 1층",
  "combination": "자동",
  "lat": 37.454872,
  "lng": 126.89883
 },
 {
  "name": "럭키복권방",
  "address": "서울 도봉구 노해로63길 79 우림빌딩106",
  "combination": "반자동",
  "lat": 37.653114,
  "lng": 127.04623
 },
 {
  "name": "갈렙분식한식",
  "address": "서울 중랑구 용마산로115길 92",
  "combination": "자동",
  "lat": 37.59823,
  "lng": 127.09528
 },
 {
  "name": "부일카서비스",
  "address": "부산 동구 자성로133번길 35",
  "combination": "자동",
  "lat": 35.140015,
  "lng": 129.06306
 },
 {
  "name": "복권명당",
  "address": "대전 서구 만년남로3번길 164,(만년동)",
  "combination": "자동",
  "lat": 36.366486,
  "lng": 127.37305
 },
 {
  "name": "백석고앞 정류장 로또판매점",
  "address": "경기 고양시 일산동구 일산로 196 대길프라자 1층 104호",
  "combination": "자동",
  "lat": 37.65395,
  "lng": 126.790726
 },
 {
  "name": "코아복권방",
  "address": "경기 오산시 궐동 631-1번지 GS25(궐동코아점)",
  "combination": "수동",
  "lat": 37.15934,
  "lng": 127.05934
 },
 {
  "name": "로또판매점",
  "address": "경기 포천시 호국로 1900",
  "combination": "자동",
  "lat": 37.92011,
  "lng": 127.221146
 },
 {
  "name": "팡팡복권방",
  "address": "충북 진천군 상산로 71",
  "combination": "수동",
  "lat": 36.854687,
  "lng": 127.44187
 },
 {
  "name": "복덩어리",
  "address": "충북 청주시 서원구 호국로25번길 1",
  "combination": "자동",
  "lat": 36.63041,
  "lng": 127.474365
 },
 {
  "name": "로또복권방",
  "address": "충북 청주시 청원구 내수로 725-1 디지털프라자 옆",
  "combination": "자동",
  "lat": 36.726448,
  "lng": 127.53578
 },
 {
  "name": "씨스페이스(삼계가야점)",
  "address": "경남 김해시 삼계동 1462-9번지 102호",
  "combination": "자동",
  "lat": 35.26322,
  "lng": 128.87074
 },
 {
  "name": "로또복권하대점",
  "address": "경남 진주시 도동로 188",
  "combination": "자동",
  "lat": 35.18703,
  "lng": 128.12248
 },
 {
  "name": "석촌로또",
  "address": "제주 제주시 조천읍 함덕리 1002-16 GS25",
  "combination": "수동",
  "lat": 33.54146,
  "lng": 126.66783
 }
]