[
 {
  "name": "교통카드판매대",
  "address": "서울 강동구 상일로15길 18 1층",
  "combination": "자동",
  "lat": 37.557686,
  "lng": 127.17006
 },
 {
  "name": "열린복권방",
  "address": "부산 사상구 괘법동 546-16번지 프라자슈퍼",
  "combination": "반자동",
  "lat": 35.162617,
  "lng": 128.98518
 },
 {
  "name": "로또나라",
  "address": "대구 남구 장전1길 30-21,(대명동)",
  "combination": "수동",
  "lat": 35.84196,
  "lng": 128.57289
 },
 {
  "name": "복권천국",
  "address": "인천 남동구 석산로 120",
  "combination": "자동",
  "lat": 37.460194,
  "lng": 126.70505
 },
 {
  "name": "천일복권방",
  "address": "울산 중구 반구정6길 60 1층건물내",
  "combination": "자동",
  "lat": 35.55865,
  "lng": 129.34554
 },
 {
  "name": "한꿈복권방",
  "address": "울산 중구 번영로 586",
  "combination": "자동",
  "lat": 35.568794,
  "lng": 129.34589
 },
 {
  "name": "대박찬스",
  "address": "경기 광주시 송정로 69 나산상가1층4호",
  "combination": "반자동",
  "lat": 37.41619,
  "lng": 127.25289
 },
 {
  "name": "팡팡마트",
  "address": "경기 남양주시 오남읍 오남리 493-1",
  "combination": "자동",
  "lat": 37.680286,
  "lng": 127.21047
 },
 {
  "name": "행복미니슈퍼",
  "address": "경기 부천시 부일로 409",
  "combination": "자동",
  "lat": 37.487118,
  "lng": 126.77558
 },
 {
  "name": "로또휴게실",
  "address": "경기 용인시 기흥구 용구대로 1885",
  "combination": "자동",
  "lat": 37.256386,
  "lng": 127.10432
 },
 {
  "name": "인제복권방",
  "address": "강원 인제군 비봉로 11-1",
  "combination": "수동",
  "lat": 38.068172,
  "lng": 128.17274
 },
 {
  "name": "로또복권초당판매점",
  "address": "전남 무안군 무안읍 성남리 88-1번지 CU편의점",
  "combination": "수동",
  "lat": 34.987846,
  "lng": 126.474236
 },
 {
  "name": "행운의집제1호점",
  "address": "경북 안동시 영가로 24",
  "combination": "수동",
  "lat": 36.56516,
  "lng": 128.7333
 }
]