[
 {
  "name": "대일슈퍼",
  "address": "대전 서구 월평중로24번길 48",
  "combination": "자동",
  "lat": 36.35651,
  "lng": 127.366516
 },
 {
  "name": "버스표판매소",
  "address": "경기 고양시 덕양구 화신로 76 샘터마을1단지아파트 971번지선",
  "combination": "자동",
  "lat": 37.619034,
  "lng": 126.840454
 },
 {
  "name": "나이키로또복권방",
  "address": "경기 광주시 경충대로 899 1층 111-1호(초월프라자)",
  "combination": "반자동",
  "lat": 37.362164,
  "lng": 127.3133
 },
 {
  "name": "CU(구리토평점)",
  "address": "경기 구리시 토평동 997번지",
  "combination": "자동",
  "lat": 37.593136,
  "lng": 127.150665
 },
 {
  "name": "나눔로또",
  "address": "경기 수원시 팔달구 정조로 791 병원 앞 가판점",
  "combination": "자동",
  "lat": 37.27876,
  "lng": 127.01627
 },
 {
  "name": "나도로또",
  "address": "경기 파주시 동패동 1759-6번지 씨티타워104호",
  "combination": "자동",
  "lat": 37.711067,
  "lng": 126.74581
 },
 {
  "name": "407억당첨가판점",
  "address": "강원 춘천시 중앙로 65 국민은행앞 가판",
  "combination": "자동",
  "lat": 37.87923,
  "lng": 127.726616
 },
 {
  "name": "학우사혜진로또판매점",
  "address": "경북 울진군 읍내2길 13-3 울진시장내",
  "combination": "자동",
  "lat": 36.99184,
  "lng": 129.40198
 },
 {
  "name": "해피복권",
  "address": "경남 창원시 마산합포구 가포로 98  1층 CU편의점 내",
  "combination": "수동",
  "lat": 35.175564,
  "lng": 128.5623
 },
 {
  "name": "GS25(진해제일점)",
  "address": "경남 창원시 진해구 화천동 19-2번지",
  "combination": "수동",
  "lat": 35.152073,
  "lng": 128.6598
 }
]