[
 {
  "name": "지원물산",
  "address": "서울 노원구 공릉로 108,(공릉동)",
  "combination": "자동",
  "lat": 37.61983,
  "lng": 127.078094
 },
 {
  "name": "우미6호가판점",
  "address": "서울 서대문구 충정로5길 2",
  "combination": "수동",
  "lat": 37.56276,
  "lng": 126.96408
 },
 {
  "name": "전원레코드",
  "address": "부산 북구 효열로 226",
  "combination": "자동",
  "lat": 35.263943,
  "lng": 129.01996
 },
 {
  "name": "천하명당복권",
  "address": "대구 북구 칠곡중앙대로 545,(읍내동)",
  "combination": "자동",
  "lat": 35.94432,
  "lng": 128.55064
 },
 {
  "name": "씨스페이스(범물청구점)",
  "address": "대구 수성구 범물동 1277-11번지",
  "combination": "수동",
  "lat": 35.82074,
  "lng": 128.6424
 },
 {
  "name": "충남상회",
  "address": "인천 미추홀구 석정로 78 10호",
  "combination": "자동",
  "lat": 37.466232,
  "lng": 126.64562
 },
 {
  "name": "로또",
  "address": "경기 구리시 갈매순환로 96 102호(갈매동,오대타워)",
  "combination": "수동",
  "lat": 37.62838,
  "lng": 127.1196
 },
 {
  "name": "북문복권방",
  "address": "경기 수원시 장안구 정조로 927-1",
  "combination": "자동",
  "lat": 37.29028,
  "lng": 127.01279
 },
 {
  "name": "25시슈퍼",
  "address": "경기 시흥시 함송로14번길 13-17 홍익프라자1층107호",
  "combination": "자동",
  "lat": 37.362453,
  "lng": 126.72994
 },
 {
  "name": "태양복권방",
  "address": "경기 파주시 문산읍 사임당로 138-1",
  "combination": "수동",
  "lat": 37.86615,
  "lng": 126.80652
 },
 {
  "name": "천하명당",
  "address": "강원 철원군 금학로 195-2",
  "combination": "수동",
  "lat": 38.206326,
  "lng": 127.21916
 },
 {
  "name": "로또복권방분평점",
  "address": "충북 청주시 서원구 월평로 78",
  "combination": "자동",
  "lat": 36.611122,
  "lng": 127.493454
 },
 {
  "name": "복권판매점",
  "address": "충남 서산시 고운로 164 미림화랑 옆 1층 상가",
  "combination": "수동",
  "lat": 36.783356,
  "lng": 126.45343
 },
 {
  "name": "활력",
  "address": "충남 서산시 고운로 202",
  "combination": "수동",
  "lat": 36.783394,
  "lng": 126.457756
 },
 {
  "name": "오름복권",
  "address": "경남 김해시 진례로 277 2호 복권판매점",
  "combination": "수동",
  "lat": 35.252476,
  "lng": 128.74738
 },
 {
  "name": "목화휴게소",
  "address": "경남 사천시 사천대로 912",
  "combination": "자동",
  "lat": 35.0018,
  "lng": 128.05415
 },
 {
  "name": "Goodday복권전문점",
  "address": "경남 창원시 성산구 반송로50번길 14",
  "combination": "자동",
  "lat": 35.239998,
  "lng": 128.66164
 }
]