[
 {
  "name": "서하네",
  "address": "서울 구로구 개봉로20길 66",
  "combination": "자동",
  "lat": 37.493343,
  "lng": 126.85801
 },
 {
  "name": "돈벼락맞는곳",
  "address": "부산 서구 구덕로 194",
  "combination": "자동",
  "lat": 35.10192,
  "lng": 129.02007
 },
 {
  "name": "대운",
  "address": "경기 김포시 대명항로 209",
  "combination": "자동",
  "lat": 37.653645,
  "lng": 126.595695
 },
 {
  "name": "터미널편의점1층",
  "address": "경기 수원시 권선구 권선동 1189 수원복합터미널1301호",
  "combination": "자동",
  "lat": 37.25043,
  "lng": 127.02087
 },
 {
  "name": "행운로또판매점",
  "address": "경기 시흥시 서울대학로278번길 19-14 배곧프라자 109호",
  "combination": "자동",
  "lat": 37.37014,
  "lng": 126.72863
 },
 {
  "name": "마이더스로또복권방",
  "address": "경기 안양시 동안구 안양판교로 12-2,(관양동)",
  "combination": "자동",
  "lat": 37.400826,
  "lng": 126.977646
 },
 {
  "name": "우두로또",
  "address": "강원 춘천시 영서로 2786 1층",
  "combination": "자동",
  "lat": 37.901936,
  "lng": 127.72848
 },
 {
  "name": "복권명당",
  "address": "경북 경산시 경안로 214",
  "combination": "자동",
  "lat": 35.82663,
  "lng": 128.73682
 },
 {
  "name": "세방매점",
  "address": "경북 경주시 산업로 4447 (용강동)",
  "combination": "자동",
  "lat": 35.877205,
  "lng": 129.22649
 },
 {
  "name": "죽림프라자",
  "address": "경남 통영시 신죽1길 90 죽림프라자 1층 105호 CU편의점",
  "combination": "자동",
  "lat": 34.87458,
  "lng": 128.41788
 }
]