[
 {
  "name": "미나식품(로또판매점)",
  "address": "서울 강서구 금낭화로 91-12",
  "combination": "자동",
  "lat": 37.5735,
  "lng": 126.81066
 },
 {
  "name": "CU마차길점복권방",
  "address": "서울 금천구 독산동(독산제1동) 330-1 CU(독산마차길점) 편의점내",
  "combination": "반자동",
  "lat": 37.470013,
  "lng": 126.89346
 },
 {
  "name": "천하명당복권방동소문점",
  "address": "서울 성북구 도봉로3길 9 1층",
  "combination": "자동",
  "lat": 37.59673,
  "lng": 127.014626
 },
 {
  "name": "잠실매점",
  "address": "서울 송파구 올림픽로 269 잠실역 8번출구 앞 가판",
  "combination": "자동",
  "lat": 37.514446,
  "lng": 127.10071
 },
 {
  "name": "신간판",
  "address": "서울 중구 무교로 24",
  "combination": "자동",
  "lat": 37.568092,
  "lng": 126.979454
 },
 {
  "name": "돈벼락맞는곳",
  "address": "부산 동구 조방로49번길 18-1",
  "combination": "자동",
  "lat": 35.139168,
  "lng": 129.05995
 },
 {
  "name": "코리아로또",
  "address": "부산 북구 구포동 587-5번지 누리마트내코너",
  "combination": "자동",
  "lat": 35.209274,
  "lng": 129.00291
 },
 {
  "name": "CU(알리앙스점)",
  "address": "대구 달서구 감삼동 146-31번지",
  "combination": "반자동",
  "lat": 35.850105,
  "lng": 128.538
 },
 {
  "name": "대박천하마트",
  "address": "인천 부평구 굴포로 48",
  "combination": "자동",
  "lat": 37.51157,
  "lng": 126.72634
 },
 {
  "name": "씨네월드매곡점",
  "address": "광주 북구 매곡동 214-56번지",
  "combination": "자동",
  "lat": 35.191303,
  "lng": 126.89327
 },
 {
  "name": "버스표판매소",
  "address": "경기 고양시 덕양구 화신로 76 샘터마을1단지아파트 971번지선",
  "combination": "수동",
  "lat": 37.619034,
  "lng": 126.840454
 },
 {
  "name": "한아름복권방(매탄점)",
  "address": "경기 수원시 영통구 권선로 808",
  "combination": "자동",
  "lat": 37.255295,
  "lng": 127.03862
 },
 {
  "name": "CU(여주ＩＣ점)",
  "address": "경기 여주시 점봉동(여흥동) 437-1",
  "combination": "수동",
  "lat": 37.263885,
  "lng": 127.63978
 },
 {
  "name": "유방매표소",
  "address": "경기 용인시 처인구 백옥대로 1388",
  "combination": "자동",
  "lat": 37.25881,
  "lng": 127.21292
 },
 {
  "name": "로또복권방",
  "address": "경기 의왕시 효행로 42",
  "combination": "자동",
  "lat": 37.351208,
  "lng": 126.97329
 },
 {
  "name": "노다지복권",
  "address": "강원 삼척시 중앙시장길 48-49",
  "combination": "수동",
  "lat": 37.4424,
  "lng": 129.1672
 },
 {
  "name": "월드마트",
  "address": "충북 청주시 흥덕구 장구봉로129번길 2",
  "combination": "자동",
  "lat": 36.62477,
  "lng": 127.44766
 },
 {
  "name": "천하제일복권명당연무점",
  "address": "충남 논산시 연무읍 안심리 1126-36번지",
  "combination": "자동",
  "lat": 36.13547,
  "lng": 127.10008
 }
]