[
 {
  "name": "영광정보통신",
  "address": "서울 성북구 화랑로 92 1층 우측1호",
  "combination": "자동",
  "lat": 37.602676,
  "lng": 127.0425
 },
 {
  "name": "복권방",
  "address": "부산 사하구 장림번영로 25",
  "combination": "자동",
  "lat": 35.081005,
  "lng": 128.96823
 },
 {
  "name": "로또복권",
  "address": "대구 북구 연암로22길 1 1층 복권판매점",
  "combination": "자동",
  "lat": 35.94375,
  "lng": 128.56425
 },
 {
  "name": "CU로또",
  "address": "인천 미추홀구 인주대로 128",
  "combination": "자동",
  "lat": 37.456226,
  "lng": 126.651215
 },
 {
  "name": "로또복권방",
  "address": "인천 연수구 독배로40번길 7 103호",
  "combination": "자동",
  "lat": 37.42442,
  "lng": 126.6453
 },
 {
  "name": "새상무복권",
  "address": "광주 서구 치평로 30 수암빌딩 1층 102호",
  "combination": "자동",
  "lat": 35.149944,
  "lng": 126.84769
 },
 {
  "name": "교통카드충전소",
  "address": "경기 고양시 덕양구 화정로 지하 60 화정역 2번출구",
  "combination": "수동",
  "lat": 37.634552,
  "lng": 126.83321
 },
 {
  "name": "로또복권슈퍼(국제꽃화원)",
  "address": "경기 의정부시 동일로 681,(금오동)",
  "combination": "자동",
  "lat": 37.748566,
  "lng": 127.05282
 },
 {
  "name": "복권나라",
  "address": "강원 삼척시 도계읍 도계리 393-1번지",
  "combination": "자동",
  "lat": 37.234924,
  "lng": 129.04465
 },
 {
  "name": "로또명당인주점",
  "address": "충남 아산시 서해로 519-2",
  "combination": "자동",
  "lat": 36.87784,
  "lng": 126.89828
 },
 {
  "name": "제일복권",
  "address": "경남 양산시 양산역2길 7 대상골드타워 103호 복권판매점",
  "combination": "수동",
  "lat": 35.335594,
  "lng": 129.02797
 }
]