[
 {
  "name": "가로가판대",
  "address": "서울 관악구 시흥대로 572",
  "combination": "수동",
  "lat": 37.48392,
  "lng": 126.90269
 },
 {
  "name": "가로가판대",
  "address": "서울 관악구 시흥대로 572",
  "combination": "수동",
  "lat": 37.48392,
  "lng": 126.90269
 },
 {
  "name": "가로가판대",
  "address": "서울 관악구 시흥대로 572",
  "combination": "수동",
  "lat": 37.48392,
  "lng": 126.90269
 },
 {
  "name": "베스토아(용전2호)",
  "address": "대전 동구 동서대로 1689 복합터미널서관1층59호",
  "combination": "자동",
  "lat": 36.35038,
  "lng": 127.43664
 },
 {
  "name": "세븐일레븐 로또판매점",
  "address": "경기 광주시 오포읍 신현리 399-3",
  "combination": "자동",
  "lat": 37.367283,
  "lng": 127.162155
 },
 {
  "name": "대박로또점",
  "address": "경기 구리시 갈매동 604-2 1층 세븐일레븐",
  "combination": "자동",
  "lat": 37.6323,
  "lng": 127.117386
 },
 {
  "name": "동탄 반송 복권방",
  "address": "경기 화성시 동탄반송3길 68 103호",
  "combination": "자동",
  "lat": 37.21055,
  "lng": 127.06815
 },
 {
  "name": "로또명당",
  "address": "충남 천안시 동남구 천안대로 103 5호",
  "combination": "수동",
  "lat": 36.759037,
  "lng": 127.171036
 },
 {
  "name": "드림로또",
  "address": "전북 전주시 덕진구 소리로 198",
  "combination": "자동",
  "lat": 35.85812,
  "lng": 127.15354
 },
 {
  "name": "훼미리마트 우아대로점",
  "address": "전북 전주시 덕진구 건산로 276,(우아동2가)",
  "combination": "자동",
  "lat": 35.835472,
  "lng": 127.16736
 },
 {
  "name": "제철로또대리점",
  "address": "전남 광양시 광장로 125 시티프라자A동116호",
  "combination": "자동",
  "lat": 34.935413,
  "lng": 127.693985
 },
 {
  "name": "해피데이24복권",
  "address": "경북 고령군 다산면 평리리 253-2번지",
  "combination": "반자동",
  "lat": 35.825546,
  "lng": 128.45348
 },
 {
  "name": "행운의집",
  "address": "경북 안동시 북문동 23-7번지",
  "combination": "자동",
  "lat": 36.566982,
  "lng": 128.7295
 }
]