[
 {
  "name": "운수대통가판점",
  "address": "서울 성동구 왕십리로 327",
  "combination": "자동",
  "lat": 37.562363,
  "lng": 127.03318
 },
 {
  "name": "GS25(서면제일점)",
  "address": "부산 부산진구 부전동 220-1",
  "combination": "자동",
  "lat": 35.1539,
  "lng": 129.06163
 },
 {
  "name": "남경슈퍼",
  "address": "부산 연제구 연수로 204-1,(연산동)",
  "combination": "자동",
  "lat": 35.173622,
  "lng": 129.09308
 },
 {
  "name": "포시즌신리점. 은비복권",
  "address": "부산 연제구 연수로 144 포시즌실리점 내",
  "combination": "자동",
  "lat": 35.2134,
  "lng": 129.02145
 },
 {
  "name": "로또구영편의점",
  "address": "울산 울주군 범서읍 구영로 100 구영프라자1층111호",
  "combination": "수동",
  "lat": 35.573647,
  "lng": 129.2414
 },
 {
  "name": "태양정보통신",
  "address": "경기 광주시 고불로 56 상가1층",
  "combination": "자동",
  "lat": 37.39323,
  "lng": 127.23178
 },
 {
  "name": "에이원",
  "address": "경기 안양시 동안구 관평로319번길 29",
  "combination": "자동",
  "lat": 37.40511,
  "lng": 126.95588
 },
 {
  "name": "나나 복권판매소",
  "address": "경남 양산시 상북중앙로 319 복권판매점",
  "combination": "자동",
  "lat": 35.4122,
  "lng": 129.05919
 }
]