[
 {
  "name": "가판점",
  "address": "서울 서초구 효령로 283 가판",
  "combination": "자동",
  "lat": 37.4851,
  "lng": 127.01497
 },
 {
  "name": "인터넷 복권판매사이트",
  "address": "동행복권(dhlottery.co.kr)",
  "combination": "수동",
  "lat": 37.482063,
  "lng": 127.015785
 },
 {
  "name": "버스매표소",
  "address": "인천 부평구 부평대로 3 가판",
  "combination": "자동",
  "lat": 37.49181,
  "lng": 126.722725
 },
 {
  "name": "하늘과바다",
  "address": "인천 부평구 부개동 67-9번지",
  "combination": "자동",
  "lat": 37.49801,
  "lng": 126.7352
 },
 {
  "name": "장터슈퍼",
  "address": "대전 동구 대전로 663-2",
  "combination": "수동",
  "lat": 36.319733,
  "lng": 127.43849
 },
 {
  "name": "대박로또방",
  "address": "경기 광명시 광명동 158-789번지 1층편의점",
  "combination": "자동",
  "lat": 37.479305,
  "lng": 126.85402
 },
 {
  "name": "GS25(상동서해점)",
  "address": "경기 부천시 원미구 상동 546-6번지 서해프라자1067호",
  "combination": "자동",
  "lat": 37.503944,
  "lng": 126.75057
 },
 {
  "name": "행운복권방",
  "address": "경기 수원시 권선구 구운로 46-1 103호",
  "combination": "수동",
  "lat": 37.27796,
  "lng": 126.97342
 },
 {
  "name": "로또복권판매점",
  "address": "경기 안산시 상록구 구룡로 14",
  "combination": "수동",
  "lat": 37.311577,
  "lng": 126.86743
 },
 {
  "name": "부발로또",
  "address": "경기 이천시 무촌로 95 1층",
  "combination": "수동",
  "lat": 37.28235,
  "lng": 127.48449
 },
 {
  "name": "꿈로또복권전문점",
  "address": "강원 강릉시 옥천로 47",
  "combination": "수동",
  "lat": 37.759296,
  "lng": 128.90057
 },
 {
  "name": "복권방",
  "address": "강원 원주시 관설동(반곡관설동) 1702-1 1층 (CU)",
  "combination": "자동",
  "lat": 37.318775,
  "lng": 127.965
 },
 {
  "name": "CU고창강호점",
  "address": "전북 고창군 중거리당산로 88 굿모닝빌 1층 103호 CU편의점 내",
  "combination": "수동",
  "lat": 35.427715,
  "lng": 126.69774
 },
 {
  "name": "로또편의점",
  "address": "전북 전주시 덕진구 아중로 173",
  "combination": "자동",
  "lat": 35.827095,
  "lng": 127.1683
 },
 {
  "name": "현아비디오로또",
  "address": "전남 순천시 풍덕주택길 90 현아복권방",
  "combination": "자동",
  "lat": 34.940002,
  "lng": 127.503815
 },
 {
  "name": "종합복권방",
  "address": "전남 해남군 해남로 34 종합복권방편의점",
  "combination": "자동",
  "lat": 34.570763,
  "lng": 126.61092
 },
 {
  "name": "범어로또판매점",
  "address": "경남 양산시 목화로 52 좌측 복권판매점",
  "combination": "자동",
  "lat": 35.331547,
  "lng": 129.0016
 }
]