[
 {
  "name": "미나식품(로또판매점)",
  "address": "서울 강서구 금낭화로 91-12",
  "combination": "자동",
  "lat": 37.5735,
  "lng": 126.81066
 },
 {
  "name": "세진전자통신",
  "address": "대구 서구 서대구로 156",
  "combination": "자동",
  "lat": 35.8719,
  "lng": 128.5552
 },
 {
  "name": "버스표판매소",
  "address": "경기 고양시 덕양구 중앙로557번길 7-23 비금빌딩앞",
  "combination": "자동",
  "lat": 37.62244,
  "lng": 126.836075
 },
 {
  "name": "마두5번출구가판로또",
  "address": "경기 고양시 일산동구 중앙로 1200",
  "combination": "자동",
  "lat": 37.65387,
  "lng": 126.77711
 },
 {
  "name": "포유25대호점",
  "address": "경기 오산시 대호로  104",
  "combination": "자동",
  "lat": 37.159443,
  "lng": 127.05442
 },
 {
  "name": "썬마트",
  "address": "충북 청주시 흥덕구 진재로23번길 25",
  "combination": "수동",
  "lat": 36.632607,
  "lng": 127.42811
 }
]