[
 {
  "name": "소문난복권명당",
  "address": "서울 성북구 돌곶이로 29",
  "combination": "자동",
  "lat": 37.60689,
  "lng": 127.06081
 },
 {
  "name": "한주복권방",
  "address": "인천 연수구 인권로 9  1층 CU",
  "combination": "수동",
  "lat": 37.41865,
  "lng": 126.6514
 },
 {
  "name": "안성맞춤",
  "address": "경기 안성시 안성맞춤대로 1099-1",
  "combination": "수동",
  "lat": 37.01107,
  "lng": 127.2699
 },
 {
  "name": "행운나라복권방",
  "address": "경기 안양시 만안구 충훈로 95",
  "combination": "자동",
  "lat": 37.40742,
  "lng": 126.89791
 },
 {
  "name": "황금복권",
  "address": "강원 원주시 단계동 808 삼익상가 105호",
  "combination": "자동",
  "lat": 37.351185,
  "lng": 127.9295
 },
 {
  "name": "편의점사랑(그린신화점)",
  "address": "충북 청주시 청원구 충청대로 53",
  "combination": "자동",
  "lat": 36.66188,
  "lng": 127.49122
 },
 {
  "name": "세븐일레븐광천중앙로또판매점",
  "address": "충남 홍성군 충절로 966 1층 이마트24 편의점내",
  "combination": "자동",
  "lat": 36.594994,
  "lng": 126.67432
 },
 {
  "name": "기찬복권방",
  "address": "전남 영암군 중앙로 79 1층",
  "combination": "자동",
  "lat": 34.803104,
  "lng": 126.69944
 }
]