[
 {
  "name": "오로라복권방",
  "address": "서울 광진구 뚝섬로 625 국민은행자양동지점 50m",
  "combination": "자동",
  "lat": 37.532303,
  "lng": 127.0791
 },
 {
  "name": "가판대",
  "address": "서울 도봉구 마들로 859-19 도봉산역 1번출구앞 가판대",
  "combination": "자동",
  "lat": 37.685726,
  "lng": 127.048035
 },
 {
  "name": "돈벼락맞는곳",
  "address": "부산 동구 조방로49번길 18-1",
  "combination": "자동",
  "lat": 35.139168,
  "lng": 129.05995
 },
 {
  "name": "복권전문점",
  "address": "인천 부평구 원적로 437",
  "combination": "자동",
  "lat": 37.50383,
  "lng": 126.7151
 },
 {
  "name": "일등로또",
  "address": "인천 서구 청라커낼로 252 청라 롯데캐슬 제비동 제1층 107호  CU청라캐슬점",
  "combination": "수동",
  "lat": 37.530746,
  "lng": 126.64502
 },
 {
  "name": "버스매표소 복권판매소",
  "address": "인천 중구 우현로 69 중앙로지하상가 163호",
  "combination": "자동",
  "lat": 37.47554,
  "lng": 126.631294
 },
 {
  "name": "대박마트",
  "address": "대전 중구 충무로 124,(대사동)",
  "combination": "자동",
  "lat": 36.318714,
  "lng": 127.43058
 },
 {
  "name": "천사마트",
  "address": "충남 천안시 서북구 두정로 117 상가1층6호",
  "combination": "자동",
  "lat": 36.834194,
  "lng": 127.12997
 },
 {
  "name": "알리바이(나주점)",
  "address": "전남 나주시 나주로 142 알리바이",
  "combination": "수동",
  "lat": 35.031338,
  "lng": 126.71719
 }
]