[
 {
  "name": "강일코사할인마트",
  "address": "서울 강동구 고덕로97길 29 강일리버파크9단지아파트 105호",
  "combination": "수동",
  "lat": 37.55984,
  "lng": 127.1788
 },
 {
  "name": "천일슈퍼",
  "address": "서울 구로구 구로3동 1124-72번지",
  "combination": "반자동",
  "lat": 37.483536,
  "lng": 126.89975
 },
 {
  "name": "꽃제비칼국수",
  "address": "서울 노원구 광운로12길 13",
  "combination": "자동",
  "lat": 37.621292,
  "lng": 127.05987
 },
 {
  "name": "한양슈퍼복권",
  "address": "서울 성북구 지봉로24길 65",
  "combination": "수동",
  "lat": 37.582336,
  "lng": 127.020454
 },
 {
  "name": "복권명당",
  "address": "서울 중랑구 면목로 362 1층",
  "combination": "자동",
  "lat": 37.58428,
  "lng": 127.088585
 },
 {
  "name": "형제상회",
  "address": "대전 서구 계룡로 664-1,(용문동)",
  "combination": "자동",
  "lat": 36.336784,
  "lng": 127.39472
 },
 {
  "name": "GS25(고양주교점)",
  "address": "경기 고양시 덕양구 주교동 568번지 1층3호",
  "combination": "수동",
  "lat": 37.6629,
  "lng": 126.83835
 },
 {
  "name": "GS25(고양주교점)",
  "address": "경기 고양시 덕양구 주교동 568번지 1층3호",
  "combination": "수동",
  "lat": 37.6629,
  "lng": 126.83835
 },
 {
  "name": "GS25(고양주교점)",
  "address": "경기 고양시 덕양구 주교동 568번지 1층3호",
  "combination": "수동",
  "lat": 37.6629,
  "lng": 126.83835
 },
 {
  "name": "드림복권전문점",
  "address": "경기 평택시 평남로 651",
  "combination": "수동",
  "lat": 36.991936,
  "lng": 127.10693
 },
 {
  "name": "천하명당복권방",
  "address": "경기 평택시 오성면 죽리 1-6 마키리오스빌딩1층107호",
  "combination": "자동",
  "lat": 37.007774,
  "lng": 126.97032
 },
 {
  "name": "홍익슈퍼",
  "address": "강원 강릉시 가작로 311 복권판매점",
  "combination": "자동",
  "lat": 37.771343,
  "lng": 128.90924
 },
 {
  "name": "행운로또",
  "address": "충북 진천군 덕금로 792 편의점 내",
  "combination": "수동",
  "lat": 36.854416,
  "lng": 127.44796
 },
 {
  "name": "CU(정읍인네점)",
  "address": "전북 정읍시 조곡천1길 60",
  "combination": "수동",
  "lat": 35.56709,
  "lng": 126.85108
 },
 {
  "name": "탑로또",
  "address": "경남 거제시 거제중앙로 1787 서원탑훼밀리마트 서원탑훼밀리마트고현점 내(계룡온천옆)",
  "combination": "자동",
  "lat": 34.878452,
  "lng": 128.62807
 }
]