[
 {
  "name": "복권나라",
  "address": "서울 관악구 남부순환로 1739-9",
  "combination": "자동",
  "lat": 37.482788,
  "lng": 126.943474
 },
 {
  "name": "대만상사",
  "address": "서울 성북구 보국문로11길 30",
  "combination": "자동",
  "lat": 37.608795,
  "lng": 127.008354
 },
 {
  "name": "종합가로판매점113호패션TV앞",
  "address": "서울 중구 을지로 264 롯데 FiTin",
  "combination": "자동",
  "lat": 37.56575,
  "lng": 127.006966
 },
 {
  "name": "행운을주는사람들",
  "address": "충북 충주시 연수상가길 42 1층 복권방",
  "combination": "자동",
  "lat": 36.987648,
  "lng": 127.93161
 },
 {
  "name": "행운을주는사람들",
  "address": "충북 충주시 연수상가길 42 1층 복권방",
  "combination": "자동",
  "lat": 36.987648,
  "lng": 127.93161
 },
 {
  "name": "이마트24보령골드점",
  "address": "충남 보령시 대천방조제로 20 주2동 1~2호",
  "combination": "수동",
  "lat": 36.34624,
  "lng": 126.58906
 },
 {
  "name": "역전복권방",
  "address": "충남 예산군 아리랑로 7",
  "combination": "자동",
  "lat": 36.68642,
  "lng": 126.83009
 },
 {
  "name": "또또복권방",
  "address": "전북 익산시 고봉로32길 3",
  "combination": "자동",
  "lat": 35.95982,
  "lng": 126.971695
 },
 {
  "name": "노다지복권방",
  "address": "전남 여수시 봉산1로 12",
  "combination": "자동",
  "lat": 34.732132,
  "lng": 127.7224
 }
]