[
 {
  "name": "가판 창동역점",
  "address": "서울 도봉구 마들로11길 73 창동역문화마당앞",
  "combination": "자동",
  "lat": 37.653225,
  "lng": 127.04908
 },
 {
  "name": "토큰판매소",
  "address": "서울 송파구 바람드리길 62",
  "combination": "반자동",
  "lat": 37.536663,
  "lng": 127.12238
 },
 {
  "name": "잠실매점",
  "address": "서울 송파구 올림픽로 269 잠실역 8번출구 앞 가판",
  "combination": "자동",
  "lat": 37.514446,
  "lng": 127.10071
 },
 {
  "name": "다인로또",
  "address": "부산 기장군 정관로 830",
  "combination": "수동",
  "lat": 35.32425,
  "lng": 129.20282
 },
 {
  "name": "슈퍼복권나라",
  "address": "부산 부산진구 범일로142번길 31 1층 복권방",
  "combination": "자동",
  "lat": 35.142838,
  "lng": 129.0611
 },
 {
  "name": "대원슈퍼마켓",
  "address": "부산 수영구 수영로 524",
  "combination": "자동",
  "lat": 35.152473,
  "lng": 129.112
 },
 {
  "name": "마두역상행선 가판대",
  "address": "경기 고양시 일산동구 중앙로 1181 교보생명 일산사옥 마두역상행선가판대",
  "combination": "자동",
  "lat": 37.65222,
  "lng": 126.77706
 },
 {
  "name": "차부상회",
  "address": "경기 김포시 통진읍 조강로 50",
  "combination": "자동",
  "lat": 37.690342,
  "lng": 126.60031
 },
 {
  "name": "대박천국",
  "address": "경기 부천시 수도로 194 중앙블리체 108호",
  "combination": "자동",
  "lat": 37.519245,
  "lng": 126.7866
 },
 {
  "name": "백석상회",
  "address": "경기 양주시 백석읍 양주산성로 550",
  "combination": "자동",
  "lat": 37.786922,
  "lng": 126.992905
 },
 {
  "name": "동명슈퍼",
  "address": "강원 속초시 중앙로 205 GS25동명점",
  "combination": "자동",
  "lat": 38.208916,
  "lng": 128.59273
 }
]