[
 {
  "name": "버스카드판매대",
  "address": "서울 관악구 신림로 145-2",
  "combination": "자동",
  "lat": 37.47187,
  "lng": 126.93328
 },
 {
  "name": "다모아복권",
  "address": "서울 구로구 경인로19길 4",
  "combination": "자동",
  "lat": 37.495926,
  "lng": 126.84278
 },
 {
  "name": "로또온천장점",
  "address": "부산 동래구 중앙대로 1520 북쪽출구 빵집",
  "combination": "반자동",
  "lat": 35.213894,
  "lng": 129.08134
 },
 {
  "name": "영재서적해강점",
  "address": "부산 해운대구 해운대로 428 올림픽타운상가101호",
  "combination": "자동",
  "lat": 35.166252,
  "lng": 129.13992
 },
 {
  "name": "로또명당",
  "address": "대구 북구 동천동 878-4번지",
  "combination": "수동",
  "lat": 35.93204,
  "lng": 128.55652
 },
 {
  "name": "GS로또(호계수성)",
  "address": "울산 북구 호계동(농소1동) 277-2 GS편의점",
  "combination": "자동",
  "lat": 35.62844,
  "lng": 129.35345
 },
 {
  "name": "한아름 복권판매점",
  "address": "경기 광주시 광동로 50",
  "combination": "자동",
  "lat": 37.470287,
  "lng": 127.308075
 },
 {
  "name": "복권닷컴",
  "address": "강원 양양군 양양로 62",
  "combination": "수동",
  "lat": 38.075512,
  "lng": 128.62233
 },
 {
  "name": "봉황로또",
  "address": "전북 임실군 운수로 6",
  "combination": "수동",
  "lat": 35.616184,
  "lng": 127.28901
 },
 {
  "name": "이마트24구미황상점",
  "address": "경북 구미시 수출대로 555",
  "combination": "자동",
  "lat": 36.110912,
  "lng": 128.42572
 }
]