[
 {
  "name": "애니콜플라자",
  "address": "서울 구로구 구로중앙로 31",
  "combination": "자동",
  "lat": 37.492527,
  "lng": 126.8906
 },
 {
  "name": "가판점",
  "address": "서울 중구 퇴계로 123",
  "combination": "자동",
  "lat": 37.561066,
  "lng": 126.98525
 },
 {
  "name": "남경슈퍼",
  "address": "부산 연제구 연수로 204-1,(연산동)",
  "combination": "자동",
  "lat": 35.173622,
  "lng": 129.09308
 },
 {
  "name": "만복래",
  "address": "인천 부평구 주부토로 20-2 1층",
  "combination": "자동",
  "lat": 37.496822,
  "lng": 126.72482
 },
 {
  "name": "해피+24시편의점",
  "address": "광주 북구 하서로 330",
  "combination": "자동",
  "lat": 35.2045,
  "lng": 126.8739
 },
 {
  "name": "ALWAYSMART",
  "address": "경기 고양시 일산동구 백마로 501-2",
  "combination": "자동",
  "lat": 37.663174,
  "lng": 126.803696
 },
 {
  "name": "복권백화점",
  "address": "경기 여주시 세종로 41 1층",
  "combination": "자동",
  "lat": 37.294037,
  "lng": 127.63629
 },
 {
  "name": "유명복권대박",
  "address": "강원 강릉시 율곡로 2793",
  "combination": "수동",
  "lat": 37.754337,
  "lng": 128.90088
 },
 {
  "name": "희망복권방",
  "address": "전남 나주시 풍물시장1길 3",
  "combination": "수동",
  "lat": 34.99262,
  "lng": 126.70952
 }
]