[
 {
  "name": "미나식품(로또판매점)",
  "address": "서울 강서구 금낭화로 91-12",
  "combination": "자동",
  "lat": 37.5735,
  "lng": 126.81066
 },
 {
  "name": "기장슈퍼",
  "address": "부산 기장군 차성동로 69",
  "combination": "반자동",
  "lat": 35.243927,
  "lng": 129.2165
 },
 {
  "name": "일등복권편의점",
  "address": "대구 달서구 대명천로 220 1층",
  "combination": "자동",
  "lat": 35.84214,
  "lng": 128.53621
 },
 {
  "name": "세진전자통신",
  "address": "대구 서구 서대구로 156",
  "combination": "자동",
  "lat": 35.8719,
  "lng": 128.5552
 },
 {
  "name": "라이프마트",
  "address": "인천 중구 연안부두로53번길 36 5호",
  "combination": "자동",
  "lat": 37.45236,
  "lng": 126.60402
 },
 {
  "name": "김포로또판매",
  "address": "경기 김포시 율생로 3",
  "combination": "자동",
  "lat": 37.652786,
  "lng": 126.59066
 },
 {
  "name": "진성식품",
  "address": "충북 제천시 의병대로 84 1층",
  "combination": "반자동",
  "lat": 37.136086,
  "lng": 128.20995
 },
 {
  "name": "복권나라",
  "address": "충남 계룡시 엄사면 엄사리 184-4",
  "combination": "자동",
  "lat": 36.28952,
  "lng": 127.24185
 },
 {
  "name": "제일복권방",
  "address": "전북 군산시 미원로 39",
  "combination": "수동",
  "lat": 35.976982,
  "lng": 126.709724
 },
 {
  "name": "나이스로또복권",
  "address": "전남 여수시 이순신광장로 210",
  "combination": "수동",
  "lat": 34.73967,
  "lng": 127.745186
 },
 {
  "name": "씨스페이스(석적 남율리점)",
  "address": "경북 칠곡군 남율로9길 24",
  "combination": "자동",
  "lat": 36.067467,
  "lng": 128.4018
 }
]