[
 {
  "name": "삼정그린환경",
  "address": "서울 강동구 양재대로 1355 오스카상가136호",
  "combination": "자동",
  "lat": 37.527393,
  "lng": 127.13561
 },
 {
  "name": "세븐일레븐강서화곡예스점",
  "address": "서울 강서구 화곡로42길 35",
  "combination": "자동",
  "lat": 37.54598,
  "lng": 126.84741
 },
 {
  "name": "복권마트",
  "address": "서울 서대문구 세검정로 31",
  "combination": "수동",
  "lat": 37.591908,
  "lng": 126.944885
 },
 {
  "name": "토큰박스7호광장점",
  "address": "대구 달서구 달구벌대로 1714,(두류동)",
  "combination": "자동",
  "lat": 35.85594,
  "lng": 128.55305
 },
 {
  "name": "백송마트",
  "address": "광주 광산구 월계로 110 104호",
  "combination": "수동",
  "lat": 35.21345,
  "lng": 126.83743
 },
 {
  "name": "백송마트",
  "address": "광주 광산구 월계로 110 104호",
  "combination": "수동",
  "lat": 35.21345,
  "lng": 126.83743
 },
 {
  "name": "인스토어편의점",
  "address": "경기 고양시 덕양구 화정로 53 새롬프라자1층 112호",
  "combination": "수동",
  "lat": 37.63517,
  "lng": 126.83188
 },
 {
  "name": "토큰박스",
  "address": "경기 남양주시 진건오남로 112-1 동양할인마트 앞 로또판매점",
  "combination": "자동",
  "lat": 37.660786,
  "lng": 127.179695
 },
 {
  "name": "행운나눔로또방",
  "address": "경기 화성시 향남읍 하길리 1459-5",
  "combination": "자동",
  "lat": 37.11778,
  "lng": 126.91532
 },
 {
  "name": "로뎀",
  "address": "경기 화성시 주석로 237",
  "combination": "수동",
  "lat": 37.21168,
  "lng": 126.8556
 },
 {
  "name": "CU(동해발한점)",
  "address": "강원 동해시 발한동 39-14번지",
  "combination": "수동",
  "lat": 37.54819,
  "lng": 129.10857
 },
 {
  "name": "6.2.3복권방",
  "address": "충남 아산시 순천향로 933",
  "combination": "수동",
  "lat": 36.76061,
  "lng": 127.02417
 },
 {
  "name": "금성복권방",
  "address": "전남 나주시 대호동(성북동) 236 GS편의점 내",
  "combination": "자동",
  "lat": 35.04872,
  "lng": 126.72078
 }
]