[
 {
  "name": "엘도라도복권점문점",
  "address": "서울 광진구 용마산로 47",
  "combination": "자동",
  "lat": 37.55781,
  "lng": 127.08759
 },
 {
  "name": "우리마트",
  "address": "인천 계양구 봉오대로743번길 25 한아름상가101 102호",
  "combination": "반자동",
  "lat": 37.5329,
  "lng": 126.73182
 },
 {
  "name": "로또복권판매소",
  "address": "인천 계양구 계양산로 186 102호",
  "combination": "자동",
  "lat": 37.54739,
  "lng": 126.73643
 },
 {
  "name": "금집복권",
  "address": "광주 북구 첨단연신로108번길 134",
  "combination": "자동",
  "lat": 35.2088,
  "lng": 126.86471
 },
 {
  "name": "잘찍어로또방",
  "address": "경기 평택시 안현로서5길 62",
  "combination": "수동",
  "lat": 36.988426,
  "lng": 126.92788
 },
 {
  "name": "복권가판",
  "address": "강원 춘천시 시청길 32 1층 이마트 24",
  "combination": "수동",
  "lat": 37.88103,
  "lng": 127.73115
 },
 {
  "name": "선경로또",
  "address": "충북 제천시 용두대로 59 1층",
  "combination": "수동",
  "lat": 37.13622,
  "lng": 128.19936
 },
 {
  "name": "복돼지복권방",
  "address": "경북 경산시 대학로 330",
  "combination": "반자동",
  "lat": 35.839024,
  "lng": 128.7573
 },
 {
  "name": "대박상사",
  "address": "경남 창원시 진해구 충장로  88 알통 닭강정",
  "combination": "자동",
  "lat": 35.15234,
  "lng": 128.66164
 }
]