[
 {
  "name": "노다지복권방",
  "address": "서울 양천구 월정로 137",
  "combination": "자동",
  "lat": 37.531162,
  "lng": 126.837425
 },
 {
  "name": "행운복권방",
  "address": "서울 은평구 응암로11길 3 1층 3호",
  "combination": "수동",
  "lat": 37.58823,
  "lng": 126.91619
 },
 {
  "name": "묵동식품",
  "address": "서울 중랑구 동일로 919",
  "combination": "수동",
  "lat": 37.612457,
  "lng": 127.07704
 },
 {
  "name": "라이프마트",
  "address": "인천 중구 연안부두로53번길 36 5호",
  "combination": "수동",
  "lat": 37.45236,
  "lng": 126.60402
 },
 {
  "name": "운수대통",
  "address": "경기 수원시 권선구 매실로 73",
  "combination": "자동",
  "lat": 37.269012,
  "lng": 126.95872
 },
 {
  "name": "동남슈퍼",
  "address": "전북 부안군 번영로 173",
  "combination": "자동",
  "lat": 35.727222,
  "lng": 126.73916
 }
]