[
 {
  "name": "종합가판점",
  "address": "서울 동대문구 왕산로40길 6 건물 앞쪽 가판점 청량리역 5번출구 앞쪽",
  "combination": "자동",
  "lat": 37.579697,
  "lng": 127.04497
 },
 {
  "name": "복권방",
  "address": "부산 부산진구 당감서로 84 202호",
  "combination": "수동",
  "lat": 35.167698,
  "lng": 129.03735
 },
 {
  "name": "알리바이",
  "address": "광주 광산구 수등로 253 1층 알리바이",
  "combination": "수동",
  "lat": 35.185387,
  "lng": 126.83668
 },
 {
  "name": "로또플러스24",
  "address": "광주 광산구 장신로 143 45타워 109호 로또플러스24",
  "combination": "자동",
  "lat": 35.191006,
  "lng": 126.825905
 },
 {
  "name": "힐링로또",
  "address": "대전 대덕구 송촌남로47번길 2",
  "combination": "자동",
  "lat": 36.355907,
  "lng": 127.44237
 },
 {
  "name": "왕대박",
  "address": "경기 평택시 안정로29번길 32 1층 우측",
  "combination": "수동",
  "lat": 36.96071,
  "lng": 127.0464
 },
 {
  "name": "로또명당해미점",
  "address": "충남 서산시 남문2로 108",
  "combination": "자동",
  "lat": 36.71344,
  "lng": 126.54419
 },
 {
  "name": "우리로또복권방",
  "address": "전남 여수시 무선중앙로 71",
  "combination": "자동",
  "lat": 34.7728,
  "lng": 127.65182
 },
 {
  "name": "로또야놀자",
  "address": "경북 경주시 양정로 211,(동천동)",
  "combination": "수동",
  "lat": 35.85151,
  "lng": 129.22398
 },
 {
  "name": "목화휴게소",
  "address": "경남 사천시 사천대로 912",
  "combination": "자동",
  "lat": 35.0018,
  "lng": 128.05415
 }
]