[
 {
  "name": "스타복권방(스타문구)",
  "address": "서울 서대문구 통일로 173-1",
  "combination": "자동",
  "lat": 37.56915,
  "lng": 126.9631
 },
 {
  "name": "인터넷 복권판매사이트",
  "address": "동행복권(dhlottery.co.kr)",
  "combination": "자동",
  "lat": 37.482063,
  "lng": 127.015785
 },
 {
  "name": "가판대20호",
  "address": "서울 송파구 송파대로 365 석촌농협앞가판대20호",
  "combination": "자동",
  "lat": 37.500404,
  "lng": 127.111046
 },
 {
  "name": "나미로또",
  "address": "인천 미추홀구 주안동(주안8동) 1518",
  "combination": "반자동",
  "lat": 37.450188,
  "lng": 126.6861
 },
 {
  "name": "대일슈퍼",
  "address": "대전 서구 월평중로24번길 48",
  "combination": "자동",
  "lat": 36.35651,
  "lng": 127.366516
 },
 {
  "name": "한일로또나라",
  "address": "경기 수원시 장안구 경수대로 930 삼성홈플러스 북수원홈플러스內",
  "combination": "자동",
  "lat": 37.302715,
  "lng": 127.00877
 },
 {
  "name": "다니엘사",
  "address": "경기 안산시 단원구 원선1로 38 두산위브아파트 101호",
  "combination": "수동",
  "lat": 37.326073,
  "lng": 126.80417
 },
 {
  "name": "GS25(안산경일점)",
  "address": "경기 안산시 상록구 성포동 591-4",
  "combination": "수동",
  "lat": 37.323517,
  "lng": 126.84679
 },
 {
  "name": "행운복권방",
  "address": "경기 안성시 서동대로 7184 1층 복권방",
  "combination": "자동",
  "lat": 37.084095,
  "lng": 127.449036
 },
 {
  "name": "진성복권방",
  "address": "경기 포천시 가산로 380",
  "combination": "수동",
  "lat": 37.847607,
  "lng": 127.19117
 },
 {
  "name": "세븐일레븐삼척삼원점",
  "address": "강원 삼척시 중앙로 185 용비타워 세븐일레븐삼척삼원점",
  "combination": "자동",
  "lat": 37.440216,
  "lng": 129.16751
 },
 {
  "name": "또또복권방",
  "address": "전북 익산시 고봉로32길 3",
  "combination": "자동",
  "lat": 35.95982,
  "lng": 126.971695
 },
 {
  "name": "복조리복권방",
  "address": "전북 장수군 장계면 장계천변길 55-4",
  "combination": "자동",
  "lat": 35.731014,
  "lng": 127.58352
 },
 {
  "name": "용미사진관(로또)",
  "address": "전남 순천시 팔마로 113-1 용미사진관",
  "combination": "자동",
  "lat": 34.94597,
  "lng": 127.50092
 },
 {
  "name": "여수동서상사",
  "address": "전남 여수시 신월로 709 대영마트내",
  "combination": "자동",
  "lat": 34.73417,
  "lng": 127.719246
 },
 {
  "name": "GS25거제중곡점(로또)",
  "address": "경남 거제시 고현동 1007-1 GS편의점 내",
  "combination": "수동",
  "lat": 34.893513,
  "lng": 128.62599
 }
]