[
 {
  "name": "복권방",
  "address": "서울 구로구 구로동 409-80번지 1층",
  "combination": "자동",
  "lat": 37.493923,
  "lng": 126.88259
 },
 {
  "name": "우리은행금호동지점앞가판",
  "address": "서울 성동구 장터길 46",
  "combination": "자동",
  "lat": 37.54814,
  "lng": 127.02097
 },
 {
  "name": "쎄븐타임",
  "address": "서울 용산구 백범로47길 6 1층 102호 (슈퍼마켓)",
  "combination": "자동",
  "lat": 37.54074,
  "lng": 126.95836
 },
 {
  "name": "CU 은평어드밴스힐점",
  "address": "서울 은평구 진관동 100-4 상가동1층 117118호 CU어드밴스힐점",
  "combination": "자동",
  "lat": 37.633564,
  "lng": 126.91864
 },
 {
  "name": "일등복권편의점",
  "address": "대구 달서구 대명천로 220 1층",
  "combination": "자동",
  "lat": 35.84214,
  "lng": 128.53621
 },
 {
  "name": "LA24시편의점",
  "address": "대구 달서구 달구벌대로 1005,(호산동)",
  "combination": "자동",
  "lat": 35.853176,
  "lng": 128.47704
 },
 {
  "name": "미니스톱인천효성점",
  "address": "인천 계양구 안남로 551",
  "combination": "자동",
  "lat": 37.532257,
  "lng": 126.71038
 },
 {
  "name": "초이스편의점",
  "address": "인천 남동구 하촌로 6",
  "combination": "자동",
  "lat": 37.449066,
  "lng": 126.73032
 },
 {
  "name": "제일슈퍼",
  "address": "인천 연수구 앵고개로 242 제일상가112호",
  "combination": "수동",
  "lat": 37.408646,
  "lng": 126.670815
 },
 {
  "name": "25편의점",
  "address": "경기 광주시 오포로 514 25편의점",
  "combination": "자동",
  "lat": 37.344296,
  "lng": 127.21286
 },
 {
  "name": "제이테크복권방",
  "address": "경기 군포시 금산로 14",
  "combination": "수동",
  "lat": 37.363926,
  "lng": 126.94101
 },
 {
  "name": "대박슈퍼",
  "address": "경기 부천시 원미로 103 유림연립 마동 1층 103호",
  "combination": "수동",
  "lat": 37.491756,
  "lng": 126.79044
 },
 {
  "name": "성진마트",
  "address": "경기 부천시 수도로 123,(내동)",
  "combination": "자동",
  "lat": 37.516987,
  "lng": 126.77924
 },
 {
  "name": "부자나라(CU성남중원구청점)",
  "address": "경기 성남시 중원구 성남동 3789번지 1층",
  "combination": "수동",
  "lat": 37.42997,
  "lng": 127.1367
 },
 {
  "name": "주택복권방",
  "address": "경기 안양시 동안구 흥안대로145번길 77 77",
  "combination": "수동",
  "lat": 37.374123,
  "lng": 126.95816
 },
 {
  "name": "만복편의점",
  "address": "충북 청주시 흥덕구 봉명동(봉명1동) 900",
  "combination": "수동",
  "lat": 36.64026,
  "lng": 127.46085
 },
 {
  "name": "38복권방",
  "address": "전북 전주시 완산구 용리로 118",
  "combination": "수동",
  "lat": 35.79816,
  "lng": 127.12262
 },
 {
  "name": "북마산복권전문점",
  "address": "경남 창원시 마산합포구 북성로 98",
  "combination": "수동",
  "lat": 35.215973,
  "lng": 128.5708
 }
]