[
 {
  "name": "영광정보통신",
  "address": "서울 성북구 화랑로 92 1층 우측1호",
  "combination": "자동",
  "lat": 37.602676,
  "lng": 127.0425
 },
 {
  "name": "가판점(신문)",
  "address": "서울 영등포구 양평로 48",
  "combination": "자동",
  "lat": 37.534508,
  "lng": 126.90126
 },
 {
  "name": "우정식품",
  "address": "부산 동래구 온천장로 39",
  "combination": "자동",
  "lat": 35.21585,
  "lng": 129.07948
 },
 {
  "name": "하단복권",
  "address": "부산 사하구 당리동 304-3번지",
  "combination": "자동",
  "lat": 35.105415,
  "lng": 128.96988
 },
 {
  "name": "복권로또판매점",
  "address": "대전 동구 동대전로 223-1",
  "combination": "자동",
  "lat": 36.34154,
  "lng": 127.44839
 },
 {
  "name": "복권명당",
  "address": "대전 서구 만년남로3번길 164,(만년동)",
  "combination": "자동",
  "lat": 36.366486,
  "lng": 127.37305
 },
 {
  "name": "행운마트",
  "address": "경기 고양시 일산서구 송산로 331 104호",
  "combination": "자동",
  "lat": 37.683872,
  "lng": 126.71574
 },
 {
  "name": "대박복권",
  "address": "경기 부천시 심곡본동 316-2 부천역사쇼핑몰 W6 7-2호",
  "combination": "자동",
  "lat": 37.484024,
  "lng": 126.78282
 },
 {
  "name": "선경로또",
  "address": "충북 제천시 용두대로 59 1층",
  "combination": "자동",
  "lat": 37.13622,
  "lng": 128.19936
 },
 {
  "name": "행운을주는사람들",
  "address": "충북 충주시 연수상가길 42 1층 복권방",
  "combination": "자동",
  "lat": 36.987648,
  "lng": 127.93161
 },
 {
  "name": "푸른로또",
  "address": "충남 당진시 무수동로 129 여울빌딩103호",
  "combination": "자동",
  "lat": 36.891132,
  "lng": 126.63681
 },
 {
  "name": "세븐일레븐광양시청점",
  "address": "전남 광양시 행정2길 2",
  "combination": "수동",
  "lat": 34.941307,
  "lng": 127.69642
 },
 {
  "name": "성심상회",
  "address": "경북 포항시 북구 불종로 78",
  "combination": "자동",
  "lat": 36.038174,
  "lng": 129.36801
 },
 {
  "name": "진교로또복권판매점",
  "address": "경남 하동군 민다리길 76",
  "combination": "자동",
  "lat": 35.02851,
  "lng": 127.903046
 }
]