[
 {
  "name": "동원마트",
  "address": "서울 강동구 풍성로 209",
  "combination": "반자동",
  "lat": 37.529346,
  "lng": 127.1351
 },
 {
  "name": "로또",
  "address": "서울 강서구 가양동 1480-8번지 102호",
  "combination": "수동",
  "lat": 37.563026,
  "lng": 126.85222
 },
 {
  "name": "복권방",
  "address": "서울 광진구 자양로18길 34",
  "combination": "자동",
  "lat": 37.537773,
  "lng": 127.08546
 },
 {
  "name": "스파",
  "address": "서울 노원구 동일로 1493 상계주공아파트(10단지) 주공10단지종합상가111",
  "combination": "자동",
  "lat": 37.66166,
  "lng": 127.05787
 },
 {
  "name": "경동G-PLUS할인마트",
  "address": "부산 해운대구 세실로 30 경동G-PLUS아파트상가103",
  "combination": "자동",
  "lat": 35.168427,
  "lng": 129.17944
 },
 {
  "name": "GS25(대구교대점)",
  "address": "대구 남구 대명동(대명2동) 2007-6 GS25 대구교대점",
  "combination": "자동",
  "lat": 35.852573,
  "lng": 128.5909
 },
 {
  "name": "라이프마트",
  "address": "인천 중구 연안부두로53번길 36 5호",
  "combination": "자동",
  "lat": 37.45236,
  "lng": 126.60402
 },
 {
  "name": "해피+24시편의점",
  "address": "광주 북구 하서로 330",
  "combination": "자동",
  "lat": 35.2045,
  "lng": 126.8739
 },
 {
  "name": "천하명당복권방역전점",
  "address": "대전 동구 대전로 815",
  "combination": "자동",
  "lat": 36.332386,
  "lng": 127.43188
 },
 {
  "name": "공원슈퍼",
  "address": "경기 수원시 장안구 팔달로 257-1 1층(영화동)",
  "combination": "자동",
  "lat": 37.288837,
  "lng": 127.01324
 },
 {
  "name": "사격장매표소",
  "address": "경기 시흥시 은행동 37-22",
  "combination": "자동",
  "lat": 37.43876,
  "lng": 126.797195
 },
 {
  "name": "역전광장상회",
  "address": "경기 파주시 금촌1동 329-19번지",
  "combination": "자동",
  "lat": 37.765278,
  "lng": 126.77464
 },
 {
  "name": "복돼지복권방",
  "address": "경기 화성시 3.1만세로 43",
  "combination": "자동",
  "lat": 37.08277,
  "lng": 126.81872
 },
 {
  "name": "복권나라",
  "address": "충북 증평군 중앙로 199-1",
  "combination": "수동",
  "lat": 36.783936,
  "lng": 127.58088
 },
 {
  "name": "대광복권방",
  "address": "전남 화순군 칠충로 55 대광로제비앙 대광그린상가동 1층109호",
  "combination": "자동",
  "lat": 35.05548,
  "lng": 126.97712
 },
 {
  "name": "로또복권델리25옥동점",
  "address": "경북 안동시 옥동 734번지 테마프라자A-161호",
  "combination": "수동",
  "lat": 36.56624,
  "lng": 128.69998
 },
 {
  "name": "CU로또(강구터미널점)",
  "address": "경북 영덕군 318만세길 182 오른쪽 상가",
  "combination": "수동",
  "lat": 36.542164,
  "lng": 129.40834
 },
 {
  "name": "CU로또(강구터미널점)",
  "address": "경북 영덕군 318만세길 182 오른쪽 상가",
  "combination": "수동",
  "lat": 36.542164,
  "lng": 129.40834
 },
 {
  "name": "탑로또",
  "address": "경남 거제시 거제중앙로 1787 서원탑훼밀리마트 서원탑훼밀리마트고현점 내(계룡온천옆)",
  "combination": "자동",
  "lat": 34.878452,
  "lng": 128.62807
 }
]