[
 {
  "name": "인터넷 복권판매사이트",
  "address": "동행복권(dhlottery.co.kr)",
  "combination": "수동",
  "lat": 37.482063,
  "lng": 127.015785
 },
 {
  "name": "화랑복권",
  "address": "부산 부산진구 당감동 282-7번지 오렌지데이점포 내",
  "combination": "자동",
  "lat": 35.165623,
  "lng": 129.03938
 },
 {
  "name": "일등복권편의점",
  "address": "대구 달서구 대명천로 220 1층",
  "combination": "자동",
  "lat": 35.84214,
  "lng": 128.53621
 },
 {
  "name": "흥부네박터졌네",
  "address": "인천 계양구 계산로111번길 8",
  "combination": "자동",
  "lat": 37.538,
  "lng": 126.72464
 },
 {
  "name": "오천억복권방",
  "address": "광주 서구 상무대로 1087",
  "combination": "자동",
  "lat": 35.15296,
  "lng": 126.880745
 },
 {
  "name": "태양마트",
  "address": "대전 유성구 노은로 157 골드프라자 106호",
  "combination": "자동",
  "lat": 36.373707,
  "lng": 127.317375
 },
 {
  "name": "웅진",
  "address": "경기 수원시 팔달구 효원로 257 홈플러스동수원점 4층(홈플러스 동수원점)",
  "combination": "자동",
  "lat": 37.262756,
  "lng": 127.03011
 },
 {
  "name": "드림메드",
  "address": "경기 안산시 상록구 월피로 56 101호",
  "combination": "자동",
  "lat": 37.3334,
  "lng": 126.85087
 },
 {
  "name": "천하명당복권방",
  "address": "경기 안성시 중앙로 424",
  "combination": "수동",
  "lat": 37.006596,
  "lng": 127.27369
 },
 {
  "name": "당첨희망복권점",
  "address": "경기 이천시 영창로 145 관고사거리",
  "combination": "자동",
  "lat": 37.282043,
  "lng": 127.43878
 },
 {
  "name": "복권마트",
  "address": "강원 홍천군 홍천로 409 1층",
  "combination": "수동",
  "lat": 37.690258,
  "lng": 127.88947
 },
 {
  "name": "MONEY(편의점)",
  "address": "경남 김해시 삼문로 25 110호 복권판매점",
  "combination": "수동",
  "lat": 35.192936,
  "lng": 128.80331
 }
]