[
 {
  "name": "보성정보통신",
  "address": "서울 동대문구 장한로2길 24",
  "combination": "수동",
  "lat": 37.56191,
  "lng": 127.06647
 },
 {
  "name": "킹부대찌개 테이크아웃 신설동점",
  "address": "서울 종로구 숭인동길 35",
  "combination": "자동",
  "lat": 37.576656,
  "lng": 127.0218
 },
 {
  "name": "세진전자통신",
  "address": "대구 서구 서대구로 156",
  "combination": "자동",
  "lat": 35.8719,
  "lng": 128.5552
 },
 {
  "name": "대박천하마트",
  "address": "인천 부평구 굴포로 48",
  "combination": "자동",
  "lat": 37.51157,
  "lng": 126.72634
 },
 {
  "name": "수암완구",
  "address": "울산 남구 수암로 118",
  "combination": "자동",
  "lat": 35.52809,
  "lng": 129.3202
 },
 {
  "name": "헬로 로또편의점",
  "address": "경기 남양주시 별내5로5번길 4-8 1층 102호",
  "combination": "수동",
  "lat": 37.65006,
  "lng": 127.11402
 },
 {
  "name": "수내행운복권방",
  "address": "경기 성남시 분당구 수내동 17-3번지 105호 알파문구내",
  "combination": "자동",
  "lat": 37.37756,
  "lng": 127.11351
 }
]