[
 {
  "name": "윈마트",
  "address": "서울 송파구 삼학사로16길 4 삼학사로 16길 우측 건물 1층",
  "combination": "자동",
  "lat": 37.503494,
  "lng": 127.09767
 },
 {
  "name": "염주현대토토",
  "address": "광주 서구 화정동 859-1번지 염주현대아파트상가 내",
  "combination": "자동",
  "lat": 35.13906,
  "lng": 126.87747
 },
 {
  "name": "참조은 복권",
  "address": "울산 중구 성안로 167 금관상가1층",
  "combination": "자동",
  "lat": 35.575462,
  "lng": 129.31622
 },
 {
  "name": "드림테크",
  "address": "경기 부천시 안곡로 11 기풍빌딩 107호",
  "combination": "자동",
  "lat": 37.479034,
  "lng": 126.80357
 },
 {
  "name": "복권세상",
  "address": "경기 여주시 우암로 21-1 1층",
  "combination": "자동",
  "lat": 37.29685,
  "lng": 127.633064
 },
 {
  "name": "복권세상",
  "address": "경기 의정부시 호원동 366-25",
  "combination": "자동",
  "lat": 37.728767,
  "lng": 127.03901
 },
 {
  "name": "동문그린복권방",
  "address": "경기 파주시 조리읍 대원리 221-8 동문상가 CU",
  "combination": "자동",
  "lat": 37.728317,
  "lng": 126.814865
 },
 {
  "name": "동명슈퍼",
  "address": "강원 속초시 중앙로 205 GS25동명점",
  "combination": "자동",
  "lat": 38.208916,
  "lng": 128.59273
 },
 {
  "name": "흥양마중물",
  "address": "강원 원주시 치악로 2335 1층",
  "combination": "수동",
  "lat": 37.38372,
  "lng": 127.97537
 },
 {
  "name": "퇴계로또",
  "address": "강원 춘천시 효자동(효자2동) 696 GS25 남춘로점",
  "combination": "자동",
  "lat": 37.86748,
  "lng": 127.728546
 },
 {
  "name": "은성로또",
  "address": "충북 음성군 감곡면 장감로 118 1층 낚시가게",
  "combination": "자동",
  "lat": 37.11832,
  "lng": 127.63549
 },
 {
  "name": "돼지복권방",
  "address": "충남 부여군 사비로 61",
  "combination": "자동",
  "lat": 36.277966,
  "lng": 126.91031
 },
 {
  "name": "GS25(천안성지점)",
  "address": "충남 천안시 동남구 일봉로 12-4",
  "combination": "자동",
  "lat": 36.79333,
  "lng": 127.12969
 },
 {
  "name": "Letsgo복권유통",
  "address": "전북 전주시 덕진구 무삼지로 29",
  "combination": "자동",
  "lat": 35.82817,
  "lng": 127.16468
 },
 {
  "name": "CU(거제해금강)",
  "address": "경남 거제시 고현동 997-5번지",
  "combination": "자동",
  "lat": 34.894135,
  "lng": 128.63022
 }
]