[
 {
  "name": "가판점",
  "address": "서울 서대문구 영천동 280번지",
  "combination": "자동",
  "lat": 37.57119,
  "lng": 126.960945
 },
 {
  "name": "GS25(사하중앙점)",
  "address": "부산 사하구 감천동(감천제1동) 648-6",
  "combination": "수동",
  "lat": 35.090534,
  "lng": 128.99878
 },
 {
  "name": "GS25(인천관교점)",
  "address": "인천 남구 관교동 492-5번지",
  "combination": "자동",
  "lat": 37.443047,
  "lng": 126.69412
 },
 {
  "name": "우미슈퍼",
  "address": "광주 서구 풍암순환로 183 우미아파트상가118동-101호",
  "combination": "자동",
  "lat": 35.12672,
  "lng": 126.88115
 },
 {
  "name": "복권전문점",
  "address": "대전 유성구 유성대로694번길 84",
  "combination": "자동",
  "lat": 36.35407,
  "lng": 127.33618
 },
 {
  "name": "황금대박방",
  "address": "경기 고양시 덕양구 삼송동 30-29번지",
  "combination": "자동",
  "lat": 37.653103,
  "lng": 126.89347
 },
 {
  "name": "삼천리자전거",
  "address": "경기 고양시 덕양구 은빛로77번길 73",
  "combination": "자동",
  "lat": 37.64001,
  "lng": 126.835556
 },
 {
  "name": "월드컵",
  "address": "경기 수원시 팔달구 월드컵로 299-1",
  "combination": "자동",
  "lat": 37.285313,
  "lng": 127.03505
 },
 {
  "name": "소망점",
  "address": "경기 용인시 처인구 양지로148번길 2-4 1층",
  "combination": "자동",
  "lat": 37.234165,
  "lng": 127.28433
 },
 {
  "name": "역전슈퍼",
  "address": "경기 의정부시 가능로 96,(의정부동)",
  "combination": "자동",
  "lat": 37.746723,
  "lng": 127.041626
 },
 {
  "name": "도깨비 복권 전문점",
  "address": "충북 증평군 광장로 119",
  "combination": "수동",
  "lat": 36.78428,
  "lng": 127.585045
 },
 {
  "name": "여기있었네복권방",
  "address": "전북 김제시 남북로 171",
  "combination": "자동",
  "lat": 35.79936,
  "lng": 126.88456
 },
 {
  "name": "알리바이(나주점)",
  "address": "전남 나주시 나주로 142 알리바이",
  "combination": "자동",
  "lat": 35.031338,
  "lng": 126.71719
 }
]