[
 {
  "name": "로또",
  "address": "서울 강서구 마곡동 784-13 CU마곡아르디에점",
  "combination": "자동",
  "lat": 37.563503,
  "lng": 126.83936
 },
 {
  "name": "가판100호",
  "address": "서울 중구 을지로 115-1",
  "combination": "수동",
  "lat": 37.56644,
  "lng": 126.990746
 },
 {
  "name": "신안할인마트",
  "address": "서울 중랑구 공릉로2나길 44 신안2차아파트상가101",
  "combination": "반자동",
  "lat": 37.6141,
  "lng": 127.08007
 },
 {
  "name": "주공24시편의방",
  "address": "대전 동구 옥천로180번길 19 판암주공아파트2차상가",
  "combination": "자동",
  "lat": 36.316658,
  "lng": 127.46117
 },
 {
  "name": "천하명당",
  "address": "경기 안양시 동안구 부림로 121 동아프라자아케이드 제125,제126",
  "combination": "자동",
  "lat": 37.39411,
  "lng": 126.96444
 },
 {
  "name": "왕대박로또",
  "address": "경기 이천시 덕평로 917 CU이천덕평",
  "combination": "수동",
  "lat": 37.2397,
  "lng": 127.362816
 },
 {
  "name": "해피드림조이",
  "address": "경남 창원시 의창구 천주로 24-1",
  "combination": "수동",
  "lat": 35.26424,
  "lng": 128.61836
 },
 {
  "name": "로또복권",
  "address": "경남 창원시 의창구 팔용동(팔룡동) 31-2 CU편의점 내",
  "combination": "자동",
  "lat": 35.26004,
  "lng": 128.63731
 }
]