[
 {
  "name": "다모아복권방",
  "address": "서울 구로구 서해안로30길 13-7 1층",
  "combination": "자동",
  "lat": 37.4933,
  "lng": 126.844315
 },
 {
  "name": "복권천국",
  "address": "부산 남구 못골로 48-2",
  "combination": "자동",
  "lat": 35.13574,
  "lng": 129.08777
 },
 {
  "name": "우정식품",
  "address": "부산 동래구 온천장로 39",
  "combination": "수동",
  "lat": 35.21585,
  "lng": 129.07948
 },
 {
  "name": "다복슈퍼",
  "address": "부산 수영구 수영동 451-13번지",
  "combination": "자동",
  "lat": 35.169216,
  "lng": 129.11288
 },
 {
  "name": "서재강변로또",
  "address": "대구 달성군 다사읍 서재로 172,(서재리)",
  "combination": "수동",
  "lat": 35.878708,
  "lng": 128.49748
 },
 {
  "name": "복권사랑",
  "address": "경기 가평군 청평중앙로 24 1층 CU청평중앙로점",
  "combination": "자동",
  "lat": 37.736507,
  "lng": 127.41756
 },
 {
  "name": "로또복권4공단점",
  "address": "경북 구미시 첨단기업1로 18",
  "combination": "자동",
  "lat": 36.140465,
  "lng": 128.43942
 },
 {
  "name": "제일복권",
  "address": "경남 양산시 양산역2길 7 대상골드타워 103호 복권판매점",
  "combination": "수동",
  "lat": 35.335594,
  "lng": 129.02797
 }
]