[
 {
  "name": "내복권방",
  "address": "서울 노원구 노원로1나길 5 1층",
  "combination": "수동",
  "lat": 37.62124,
  "lng": 127.082855
 },
 {
  "name": "금사랑",
  "address": "서울 양천구 월정로 38",
  "combination": "수동",
  "lat": 37.523212,
  "lng": 126.84258
 },
 {
  "name": "가로판매대제152호(신)",
  "address": "서울 중구 남대문로 114",
  "combination": "수동",
  "lat": 37.567276,
  "lng": 126.982994
 },
 {
  "name": "GS25(중촌현대점)",
  "address": "대전 중구 중촌동 17-2번지",
  "combination": "수동",
  "lat": 36.337418,
  "lng": 127.4125
 },
 {
  "name": "고양행복복권",
  "address": "경기 고양시 덕양구 삼송로 142",
  "combination": "자동",
  "lat": 37.652287,
  "lng": 126.8898
 },
 {
  "name": "가두판매점",
  "address": "경기 안양시 만안구 안양로 330-1",
  "combination": "자동",
  "lat": 37.401344,
  "lng": 126.91967
 },
 {
  "name": "황금복권방",
  "address": "경기 안양시 만안구 성결대학로 13-1",
  "combination": "자동",
  "lat": 37.383,
  "lng": 126.9325
 },
 {
  "name": "로또휴게실",
  "address": "경기 용인시 기흥구 용구대로 1885",
  "combination": "자동",
  "lat": 37.256386,
  "lng": 127.10432
 },
 {
  "name": "미니슈퍼",
  "address": "경기 의정부시 시민로 269 장령상가 1층",
  "combination": "수동",
  "lat": 37.735577,
  "lng": 127.06079
 },
 {
  "name": "문막로또명당",
  "address": "강원 원주시 원문로 1841 1층",
  "combination": "수동",
  "lat": 37.309364,
  "lng": 127.81838
 },
 {
  "name": "희망로또",
  "address": "강원 춘천시 운교동(조운동) 182-6 동부시장 농협은행앞 가판",
  "combination": "자동",
  "lat": 37.876713,
  "lng": 127.734535
 },
 {
  "name": "썬마트",
  "address": "충북 청주시 흥덕구 진재로23번길 25",
  "combination": "자동",
  "lat": 36.632607,
  "lng": 127.42811
 },
 {
  "name": "베스트올수성점",
  "address": "전북 정읍시 수성2로 28",
  "combination": "자동",
  "lat": 35.58169,
  "lng": 126.854416
 },
 {
  "name": "로또복권",
  "address": "경북 김천시 신음새동네길 13",
  "combination": "수동",
  "lat": 36.134804,
  "lng": 128.11852
 },
 {
  "name": "로또복권",
  "address": "경북 김천시 신음새동네길 13",
  "combination": "수동",
  "lat": 36.134804,
  "lng": 128.11852
 },
 {
  "name": "CU(통영북신에이스점)",
  "address": "경남 통영시 무전8길 14-12",
  "combination": "수동",
  "lat": 34.859547,
  "lng": 128.4269
 },
 {
  "name": "로또명당목련",
  "address": "제주 제주시 삼무로 77",
  "combination": "자동",
  "lat": 33.48999,
  "lng": 126.495056
 }
]