[
 {
  "name": "우성슈퍼",
  "address": "서울 강동구 구천면로 371",
  "combination": "수동",
  "lat": 37.550728,
  "lng": 127.13971
 },
 {
  "name": "오케이상사",
  "address": "서울 서초구 신반포로 176 센트럴시티내100호매점",
  "combination": "자동",
  "lat": 37.504353,
  "lng": 127.00359
 },
 {
  "name": "복권천국",
  "address": "서울 성동구 무학봉16길 22-2 1층",
  "combination": "자동",
  "lat": 37.559914,
  "lng": 127.032906
 },
 {
  "name": "로또온천장점",
  "address": "부산 동래구 중앙대로 1520 북쪽출구 빵집",
  "combination": "자동",
  "lat": 35.213894,
  "lng": 129.08134
 },
 {
  "name": "복권명당(서부점)",
  "address": "대구 달서구 월배로 452",
  "combination": "자동",
  "lat": 35.833633,
  "lng": 128.55486
 },
 {
  "name": "GS25(계산동경점)",
  "address": "인천 계양구 계산동 1076-7번지 도쿄프라자1층2호",
  "combination": "자동",
  "lat": 37.53578,
  "lng": 126.73629
 },
 {
  "name": "로또복권",
  "address": "경기 안산시 단원구 선부광장1로 121 중앙슈퍼 101호",
  "combination": "자동",
  "lat": 37.33222,
  "lng": 126.81208
 },
 {
  "name": "돈벼락복권",
  "address": "강원 태백시 번영로 356",
  "combination": "자동",
  "lat": 37.171455,
  "lng": 128.99202
 },
 {
  "name": "충청복권전문점",
  "address": "충남 천안시 서북구 성환2로 108",
  "combination": "자동",
  "lat": 36.91694,
  "lng": 127.132835
 }
]