[
 {
  "name": "일등복권방",
  "address": "서울 동대문구 사가정로 125,(전농동)",
  "combination": "자동",
  "lat": 37.577873,
  "lng": 127.058815
 },
 {
  "name": "복권명당",
  "address": "서울 동작구 국사봉길 26",
  "combination": "자동",
  "lat": 37.498108,
  "lng": 126.92918
 },
 {
  "name": "스포츠베팅샵",
  "address": "서울 서초구 동산로 48 서희빌딩 104호",
  "combination": "자동",
  "lat": 37.471325,
  "lng": 127.04434
 },
 {
  "name": "교통카드판매대",
  "address": "서울 영등포구 여의나루로 71 동화빌딩",
  "combination": "자동",
  "lat": 37.523926,
  "lng": 126.9267
 },
 {
  "name": "하영",
  "address": "인천 서구 청라에메랄드로 65 서해그랑블 아파트 상가 102호",
  "combination": "자동",
  "lat": 37.53106,
  "lng": 126.6557
 },
 {
  "name": "씨유송도프라자",
  "address": "인천 연수구 송도동 2-6번지 송도프라자108호",
  "combination": "자동",
  "lat": 37.395847,
  "lng": 126.65242
 },
 {
  "name": "대한복권",
  "address": "경기 부천시 부천로 52",
  "combination": "자동",
  "lat": 37.489605,
  "lng": 126.7842
 },
 {
  "name": "육사구(6/49)복권방",
  "address": "경기 용인시 처인구 한터로 132",
  "combination": "자동",
  "lat": 37.24952,
  "lng": 127.22552
 },
 {
  "name": "천하명당복권",
  "address": "제주 서귀포시 동문로 38",
  "combination": "자동",
  "lat": 33.250393,
  "lng": 126.5648
 }
]