[
 {
  "name": "노다지 노원역점 복권방",
  "address": "서울 노원구 상계로 78,(상계동)",
  "combination": "자동",
  "lat": 37.656223,
  "lng": 127.06374
 },
 {
  "name": "가로판매점",
  "address": "서울 서초구 동작대로 118",
  "combination": "수동",
  "lat": 37.487,
  "lng": 126.98254
 },
 {
  "name": "이마트24 광안리굿-7",
  "address": "부산 수영구 광안로 49",
  "combination": "자동",
  "lat": 35.1553,
  "lng": 129.1177
 },
 {
  "name": "자유마켓",
  "address": "광주 서구 화운로304번길 15 GS25편의점 내",
  "combination": "자동",
  "lat": 35.165966,
  "lng": 126.87894
 },
 {
  "name": "로또석모리",
  "address": "경기 김포시 석모로 42",
  "combination": "수동",
  "lat": 37.652554,
  "lng": 126.64563
 },
 {
  "name": "꿈과희망의복권방",
  "address": "경기 부천시 원미로 130,(원미동)",
  "combination": "자동",
  "lat": 37.494133,
  "lng": 126.79146
 },
 {
  "name": "마리오슈퍼",
  "address": "경기 부천시 송내대로265번길 85 뱅뱅프라자 1층 118호",
  "combination": "자동",
  "lat": 37.50734,
  "lng": 126.753876
 },
 {
  "name": "진평양행",
  "address": "강원 강릉시 임영로 107",
  "combination": "자동",
  "lat": 37.751263,
  "lng": 128.89407
 },
 {
  "name": "국가대표복권방",
  "address": "강원 영월군 영월읍 중앙로 68 1층",
  "combination": "자동",
  "lat": 37.183304,
  "lng": 128.47118
 },
 {
  "name": "로또복권",
  "address": "경북 군위군 군위읍 중앙길 32,(서부리)",
  "combination": "자동",
  "lat": 36.231487,
  "lng": 128.56749
 },
 {
  "name": "빙그레 돈벼락 맞는곳",
  "address": "경남 김해시 김해대로 910 좌측 복권판매점",
  "combination": "자동",
  "lat": 35.293262,
  "lng": 128.78296
 },
 {
  "name": "이마트24 홍문점",
  "address": "경남 창원시 마산합포구 문화남11길  12 이마트24 편의점내",
  "combination": "자동",
  "lat": 35.184055,
  "lng": 128.55925
 }
]