[
 {
  "name": "로또판매CU논현SK점",
  "address": "서울 강남구 언주로 510 효림빌딩 지하 1층",
  "combination": "수동",
  "lat": 37.51675,
  "lng": 127.040855
 },
 {
  "name": "가판점",
  "address": "서울 서초구 효령로 283 가판",
  "combination": "자동",
  "lat": 37.4851,
  "lng": 127.01497
 },
 {
  "name": "인터넷 복권판매사이트",
  "address": "동행복권(dhlottery.co.kr)",
  "combination": "수동",
  "lat": 37.482063,
  "lng": 127.015785
 },
 {
  "name": "잠실매점",
  "address": "서울 송파구 올림픽로 269 잠실역 8번출구 앞 가판",
  "combination": "수동",
  "lat": 37.514446,
  "lng": 127.10071
 },
 {
  "name": "더드림로또",
  "address": "인천 미추홀구 관교동 15 1층 상점2호",
  "combination": "자동",
  "lat": 37.441406,
  "lng": 126.70131
 },
 {
  "name": "1등 복권",
  "address": "인천 부평구 부평대로87번길 3 1층",
  "combination": "자동",
  "lat": 37.499165,
  "lng": 126.72182
 },
 {
  "name": "노다지복권방",
  "address": "경기 김포시 중봉1로 81 제1층",
  "combination": "자동",
  "lat": 37.6264,
  "lng": 126.70524
 },
 {
  "name": "㈜현대택배권선영업소",
  "address": "경기 수원시 권선구 곡반정로 95-1 104호",
  "combination": "자동",
  "lat": 37.23694,
  "lng": 127.03014
 },
 {
  "name": "이지복권",
  "address": "경기 안산시 단원구 동산로 63 이마트 107호",
  "combination": "수동",
  "lat": 37.31435,
  "lng": 126.79728
 },
 {
  "name": "복권전당",
  "address": "강원 속초시 동해대로 4007 1층",
  "combination": "수동",
  "lat": 38.189827,
  "lng": 128.59659
 },
 {
  "name": "장락복권판매점",
  "address": "충북 제천시 청전대로 213 1층",
  "combination": "수동",
  "lat": 37.152035,
  "lng": 128.22113
 },
 {
  "name": "행운복권방 보생당건강원",
  "address": "전북 익산시 무왕로 1268",
  "combination": "자동",
  "lat": 35.960304,
  "lng": 126.99727
 },
 {
  "name": "조천청룡",
  "address": "제주 제주시 신북로 255",
  "combination": "수동",
  "lat": 33.53805,
  "lng": 126.63927
 }
]