[
 {
  "name": "행운복권방",
  "address": "서울 도봉구 노해로63길 79 우림빌딩106",
  "combination": "자동",
  "lat": 37.653114,
  "lng": 127.04623
 },
 {
  "name": "로또복권판매소",
  "address": "서울 마포구 마포대로 44 진도빌딩앞",
  "combination": "자동",
  "lat": 37.539944,
  "lng": 126.94703
 },
 {
  "name": "종합가판제141호",
  "address": "서울 중구 퇴계로 447 황학 아크로타워",
  "combination": "자동",
  "lat": 37.566044,
  "lng": 127.02172
 },
 {
  "name": "한국인세계대박복권",
  "address": "인천 연수구 한나루로197번길 34",
  "combination": "자동",
  "lat": 37.42769,
  "lng": 126.65522
 },
 {
  "name": "남문시장",
  "address": "경기 수원시 팔달구 수원천로255번길 6 영동시장 영동시장 101호",
  "combination": "수동",
  "lat": 37.277145,
  "lng": 127.01858
 },
 {
  "name": "알리바이(나주점)",
  "address": "전남 나주시 나주로 142 알리바이",
  "combination": "자동",
  "lat": 35.031338,
  "lng": 126.71719
 }
]