[
 {
  "name": "GS25(삼성역점)",
  "address": "서울 강남구 삼성동 168번지",
  "combination": "자동",
  "lat": 37.510536,
  "lng": 127.06286
 },
 {
  "name": "새로나슈퍼",
  "address": "서울 강서구 강서로5나길 10",
  "combination": "반자동",
  "lat": 37.52875,
  "lng": 126.84772
 },
 {
  "name": "서울구가-17가판",
  "address": "서울 구로구 구로동로 130-2 구로4동우체국앞가판",
  "combination": "수동",
  "lat": 37.490326,
  "lng": 126.88439
 },
 {
  "name": "복권",
  "address": "서울 중랑구 망우로30길 8 105호",
  "combination": "반자동",
  "lat": 37.592857,
  "lng": 127.07427
 },
 {
  "name": "황금슈퍼",
  "address": "광주 북구 동문대로 102 장안빌딩",
  "combination": "반자동",
  "lat": 35.172222,
  "lng": 126.92482
 },
 {
  "name": "나눔로또한대점",
  "address": "경기 안산시 상록구 중보로 57 한양대프라자 한양대프라자106호",
  "combination": "자동",
  "lat": 37.30809,
  "lng": 126.852844
 },
 {
  "name": "용꿈돼지꿈복권전문점",
  "address": "강원 동해시 중앙로 234 이주민상가1층15호",
  "combination": "자동",
  "lat": 37.52171,
  "lng": 129.115
 },
 {
  "name": "황실복권방",
  "address": "충남 천안시 동남구 충절로 799",
  "combination": "반자동",
  "lat": 36.769257,
  "lng": 127.20064
 },
 {
  "name": "빛가람나눔슈퍼",
  "address": "전남 나주시 호수로 74 103호",
  "combination": "수동",
  "lat": 35.013306,
  "lng": 126.79055
 }
]