[
 {
  "name": "천하명당복권방",
  "address": "서울 광진구 능동로 413",
  "combination": "반자동",
  "lat": 37.565952,
  "lng": 127.08408
 },
 {
  "name": "가로판매점",
  "address": "서울 송파구 올림픽로 132 새마을시장신천역3번출구앞가판",
  "combination": "자동",
  "lat": 37.511227,
  "lng": 127.08534
 },
 {
  "name": "복권나라",
  "address": "서울 중랑구 봉화산로 30",
  "combination": "자동",
  "lat": 37.60141,
  "lng": 127.07752
 },
 {
  "name": "잉크와복권",
  "address": "경기 광명시 시청로 69,(철산동)",
  "combination": "자동",
  "lat": 37.48272,
  "lng": 126.865616
 },
 {
  "name": "픽미 픽미 아이스크림",
  "address": "경기 구리시 산마루로 19 진영트윈타워 A동104호",
  "combination": "자동",
  "lat": 37.63185,
  "lng": 127.116394
 },
 {
  "name": "플러스원",
  "address": "경기 수원시 장안구 만석로19번길 11-7 대일 108호",
  "combination": "자동",
  "lat": 37.295483,
  "lng": 126.98338
 },
 {
  "name": "인덕원복권방",
  "address": "경기 안양시 동안구 흥안대로 523",
  "combination": "자동",
  "lat": 37.400696,
  "lng": 126.97621
 },
 {
  "name": "대박마트",
  "address": "충북 청주시 상당구 원봉로 50 주공상가점포103",
  "combination": "수동",
  "lat": 36.614693,
  "lng": 127.50982
 },
 {
  "name": "대박마트",
  "address": "충북 청주시 상당구 원봉로 50 주공상가점포103",
  "combination": "수동",
  "lat": 36.614693,
  "lng": 127.50982
 },
 {
  "name": "천안역로또토토복권방",
  "address": "충남 천안시 동남구 대흥로 237 아시아마트내",
  "combination": "자동",
  "lat": 36.809166,
  "lng": 127.14774
 },
 {
  "name": "GS25(천안성지점)",
  "address": "충남 천안시 동남구 일봉로 12-4",
  "combination": "자동",
  "lat": 36.79333,
  "lng": 127.12969
 },
 {
  "name": "현대장미슈퍼",
  "address": "전북 익산시 동서로61길 41 현대아파트1층108호",
  "combination": "자동",
  "lat": 35.95509,
  "lng": 126.98032
 },
 {
  "name": "로또복권애니타임점",
  "address": "경북 구미시 인동중앙로11길 24 애니타임편의점 내",
  "combination": "자동",
  "lat": 36.10904,
  "lng": 128.42
 }
]