[
 {
  "name": "청솔서점",
  "address": "부산 사하구 하신번영로 195",
  "combination": "자동",
  "lat": 35.098824,
  "lng": 128.95897
 },
 {
  "name": "씨유태화루점(꿈샘)",
  "address": "울산 중구 태화로 297 씨유편의점내",
  "combination": "자동",
  "lat": 35.554195,
  "lng": 129.30728
 },
 {
  "name": "경인유통",
  "address": "경기 광명시 일직로 79 일직로 72, A동 116호(일직동, 광명국제무역센터)",
  "combination": "자동",
  "lat": 37.42069,
  "lng": 126.8901
 },
 {
  "name": "토큰박스",
  "address": "경기 남양주시 진건오남로 112-1 동양할인마트 앞 로또판매점",
  "combination": "자동",
  "lat": 37.660786,
  "lng": 127.179695
 },
 {
  "name": "또또복권방",
  "address": "전북 익산시 고봉로32길 3",
  "combination": "자동",
  "lat": 35.95982,
  "lng": 126.971695
 },
 {
  "name": "진도로또",
  "address": "전남 진도군 진도읍 동외리 1151-2 진도로또",
  "combination": "자동",
  "lat": 34.481274,
  "lng": 126.269325
 },
 {
  "name": "로또명당",
  "address": "경남 창원시 마산합포구 문화동13길 17,(창포동3가)",
  "combination": "자동",
  "lat": 35.181427,
  "lng": 128.55972
 },
 {
  "name": "경일통신",
  "address": "경남 창원시 마산회원구 북성로 340",
  "combination": "자동",
  "lat": 35.23382,
  "lng": 128.56064
 },
 {
  "name": "성자점빵",
  "address": "제주 제주시 남광로 5 1층",
  "combination": "자동",
  "lat": 33.49232,
  "lng": 126.5368
 }
]