[
 {
  "name": "GS25(건대제일점)",
  "address": "서울 광진구 화양동 49-1번지",
  "combination": "수동",
  "lat": 37.54183,
  "lng": 127.06653
 },
 {
  "name": "GS25(건대제일점)",
  "address": "서울 광진구 화양동 49-1번지",
  "combination": "수동",
  "lat": 37.54183,
  "lng": 127.06653
 },
 {
  "name": "유성복권",
  "address": "서울 송파구 가락동 18-15번지 1층",
  "combination": "수동",
  "lat": 37.501682,
  "lng": 127.12469
 },
 {
  "name": "복슈퍼",
  "address": "인천 계양구 계산로108번길 4,(계산동)",
  "combination": "수동",
  "lat": 37.537193,
  "lng": 126.72408
 },
 {
  "name": "바로코사",
  "address": "경기 안산시 상록구 네고지2길 30",
  "combination": "수동",
  "lat": 37.295517,
  "lng": 126.85124
 },
 {
  "name": "빵!터진!로또복권판매점",
  "address": "경기 안산시 상록구 본오로 133 우성아파트 상가동 우성아파트상가 114호",
  "combination": "수동",
  "lat": 37.2973,
  "lng": 126.86652
 },
 {
  "name": "샘내 편의점",
  "address": "경기 양주시 평화로 1279",
  "combination": "수동",
  "lat": 37.805496,
  "lng": 127.045364
 },
 {
  "name": "복권판매점",
  "address": "경기 파주시 운정1길 18",
  "combination": "자동",
  "lat": 37.72453,
  "lng": 126.76944
 },
 {
  "name": "제일복권",
  "address": "강원 춘천시 중앙로 45 스탠다드차타드은행앞 가판",
  "combination": "자동",
  "lat": 37.880833,
  "lng": 127.72832
 },
 {
  "name": "노다지복권방",
  "address": "충남 천안시 동남구 원성천1길 151 2호",
  "combination": "자동",
  "lat": 36.808594,
  "lng": 127.1619
 },
 {
  "name": "로또복권판매도통점",
  "address": "전북 남원시 용성로 232,(도통동)",
  "combination": "자동",
  "lat": 35.41778,
  "lng": 127.39722
 }
]