[
 {
  "name": "복권365",
  "address": "서울 광진구 뚝섬로23길 44",
  "combination": "수동",
  "lat": 37.537205,
  "lng": 127.06577
 },
 {
  "name": "가로판매점",
  "address": "서울 서대문구 신촌로 103,(창천동)",
  "combination": "자동",
  "lat": 37.55555,
  "lng": 126.93745
 },
 {
  "name": "행운복권방",
  "address": "부산 부산진구 동평로 115",
  "combination": "수동",
  "lat": 35.16629,
  "lng": 129.042
 },
 {
  "name": "좋은꿈",
  "address": "광주 북구 서암대로 32,(운암동)",
  "combination": "수동",
  "lat": 35.172512,
  "lng": 126.88834
 },
 {
  "name": "베스토아(용전2호)",
  "address": "대전 동구 동서대로 1689 복합터미널서관1층59호",
  "combination": "자동",
  "lat": 36.35038,
  "lng": 127.43664
 },
 {
  "name": "버스표판매소",
  "address": "경기 고양시 덕양구 화신로 76 샘터마을1단지아파트 971번지선",
  "combination": "자동",
  "lat": 37.619034,
  "lng": 126.840454
 },
 {
  "name": "웅진",
  "address": "경기 수원시 팔달구 효원로 257 홈플러스동수원점 4층(홈플러스 동수원점)",
  "combination": "수동",
  "lat": 37.262756,
  "lng": 127.03011
 },
 {
  "name": "대선세무경영사무소",
  "address": "경기 안산시 상록구 석호로 170 1층",
  "combination": "자동",
  "lat": 37.296867,
  "lng": 126.85053
 },
 {
  "name": "미양공단점",
  "address": "경기 안성시 안성맞춤대로 689 102호",
  "combination": "수동",
  "lat": 36.97759,
  "lng": 127.26127
 },
 {
  "name": "다터져복권방",
  "address": "경기 평택시 중앙2로 42",
  "combination": "수동",
  "lat": 36.991207,
  "lng": 127.09152
 },
 {
  "name": "다터져복권방",
  "address": "경기 평택시 중앙2로 42",
  "combination": "수동",
  "lat": 36.991207,
  "lng": 127.09152
 },
 {
  "name": "다터져복권방",
  "address": "경기 평택시 중앙2로 42",
  "combination": "수동",
  "lat": 36.991207,
  "lng": 127.09152
 },
 {
  "name": "다터져복권방",
  "address": "경기 평택시 중앙2로 42",
  "combination": "수동",
  "lat": 36.991207,
  "lng": 127.09152
 },
 {
  "name": "다터져복권방",
  "address": "경기 평택시 중앙2로 42",
  "combination": "수동",
  "lat": 36.991207,
  "lng": 127.09152
 },
 {
  "name": "로또복권",
  "address": "경기 화성시 사강로 172",
  "combination": "수동",
  "lat": 37.21268,
  "lng": 126.73488
 },
 {
  "name": "로또복권",
  "address": "경기 화성시 사강로 172",
  "combination": "수동",
  "lat": 37.21268,
  "lng": 126.73488
 },
 {
  "name": "혹시나도",
  "address": "충북 음성군 감곡면 왕장리 521-9번지 복권방",
  "combination": "자동",
  "lat": 37.119133,
  "lng": 127.63936
 },
 {
  "name": "필로또복권",
  "address": "충남 서산시 호수공원6로 64 1층",
  "combination": "자동",
  "lat": 36.77264,
  "lng": 126.45055
 },
 {
  "name": "로또기획",
  "address": "경북 안동시 경북대로 443",
  "combination": "자동",
  "lat": 36.568047,
  "lng": 128.69786
 },
 {
  "name": "로또복권",
  "address": "경북 포항시 남구 원동로 98 1층,좌측첫번째상가,GS25오천두배점",
  "combination": "자동",
  "lat": 35.971855,
  "lng": 129.4028
 },
 {
  "name": "로또복권방",
  "address": "경남 창원시 성산구 안민안길21번길 4 세평빌딩 세평빌딩102호",
  "combination": "자동",
  "lat": 35.186947,
  "lng": 128.69154
 }
]