[
 {
  "name": "가로판매소",
  "address": "서울 구로구 새말로 117-24 (신도림역2번출구)(구로동)",
  "combination": "수동",
  "lat": 37.50696,
  "lng": 126.8903
 },
 {
  "name": "씨스페이스(동작점)",
  "address": "서울 동작구 신대방동 690-20",
  "combination": "수동",
  "lat": 37.487347,
  "lng": 126.90954
 },
 {
  "name": "가로판매점",
  "address": "서울 용산구 원효로 166",
  "combination": "자동",
  "lat": 37.53501,
  "lng": 126.961555
 },
 {
  "name": "뉴빅마트",
  "address": "부산 기장군 정관중앙로 48 106호",
  "combination": "반자동",
  "lat": 35.321114,
  "lng": 129.17929
 },
 {
  "name": "토토복권",
  "address": "대구 서구 달서로12길 9",
  "combination": "반자동",
  "lat": 35.86758,
  "lng": 128.57208
 },
 {
  "name": "행복세상",
  "address": "대전 대덕구 중리로 52",
  "combination": "자동",
  "lat": 36.363663,
  "lng": 127.42535
 },
 {
  "name": "노다지복권방",
  "address": "경기 광명시 범안로 1043 (하안동, 원촌빌딩 1층)",
  "combination": "수동",
  "lat": 37.462326,
  "lng": 126.878654
 },
 {
  "name": "태양정보통신",
  "address": "경기 광주시 고불로 56 상가1층",
  "combination": "자동",
  "lat": 37.39323,
  "lng": 127.23178
 },
 {
  "name": "(I.A) 로또마트",
  "address": "경기 안산시 단원구 신길로 9-4",
  "combination": "자동",
  "lat": 37.33149,
  "lng": 126.78637
 },
 {
  "name": "복권가판",
  "address": "강원 춘천시 시청길 32 1층 이마트 24",
  "combination": "자동",
  "lat": 37.88103,
  "lng": 127.73115
 },
 {
  "name": "복권왕국",
  "address": "충북 제천시 풍양로 108 중앙시장상가 지하145",
  "combination": "자동",
  "lat": 37.136654,
  "lng": 128.2113
 },
 {
  "name": "대박마트복권방",
  "address": "충남 아산시 음봉로 844 행복한순복음교회 태화상가1층103호",
  "combination": "수동",
  "lat": 36.826508,
  "lng": 127.09927
 },
 {
  "name": "나눔로또 씨유거제사등대로점",
  "address": "경남 거제시 거제대로 5460 CU편의점",
  "combination": "자동",
  "lat": 34.90891,
  "lng": 128.54767
 },
 {
  "name": "영건",
  "address": "경남 양산시 새실로 159 나래메트로시티 A동113호 복권판매점",
  "combination": "수동",
  "lat": 35.3149,
  "lng": 129.00433
 }
]