[
 {
  "name": "버스토큰판매소",
  "address": "서울 구로구 시흥대로 583-1 꽃집 옆 가판대",
  "combination": "자동",
  "lat": 37.48411,
  "lng": 126.902695
 },
 {
  "name": "인터넷 복권판매사이트",
  "address": "동행복권(dhlottery.co.kr)",
  "combination": "수동",
  "lat": 37.482063,
  "lng": 127.015785
 },
 {
  "name": "노다지복권방",
  "address": "서울 중구 다산로44길 15",
  "combination": "수동",
  "lat": 37.565044,
  "lng": 127.01776
 },
 {
  "name": "GS25(남항점)",
  "address": "부산 영도구 남항동1가 63번지",
  "combination": "자동",
  "lat": 35.089817,
  "lng": 129.0382
 },
 {
  "name": "왕대박(복권방)",
  "address": "대구 북구 칠성남로 143 1층전체",
  "combination": "자동",
  "lat": 35.87749,
  "lng": 128.5965
 },
 {
  "name": "경기상회",
  "address": "인천 남동구 장승남로 42 은빛프라자 104호",
  "combination": "수동",
  "lat": 37.443142,
  "lng": 126.73679
 },
 {
  "name": "형제상회",
  "address": "대전 서구 계룡로 664-1,(용문동)",
  "combination": "수동",
  "lat": 36.336784,
  "lng": 127.39472
 },
 {
  "name": "설악복권방",
  "address": "경기 가평군 신천중앙로 80 성화알미늄 1층",
  "combination": "자동",
  "lat": 37.6759,
  "lng": 127.49399
 },
 {
  "name": "복권닷컴",
  "address": "경기 성남시 수정구 탄리로 79",
  "combination": "자동",
  "lat": 37.442997,
  "lng": 127.135574
 },
 {
  "name": "협신복권방",
  "address": "경기 여주시 도예로 28 CU편의점내",
  "combination": "자동",
  "lat": 37.306477,
  "lng": 127.640015
 },
 {
  "name": "복권판매점",
  "address": "충남 서산시 고운로 164 미림화랑 옆 1층 상가",
  "combination": "자동",
  "lat": 36.783356,
  "lng": 126.45343
 }
]