[
 {
  "name": "토큰박스",
  "address": "서울 동작구 흑석로 106-5 가판점",
  "combination": "반자동",
  "lat": 37.507877,
  "lng": 126.96144
 },
 {
  "name": "인터넷 복권판매사이트",
  "address": "동행복권(dhlottery.co.kr)",
  "combination": "자동",
  "lat": 37.482063,
  "lng": 127.015785
 },
 {
  "name": "로또복권판매장",
  "address": "서울 서초구 방배동 777-1",
  "combination": "자동",
  "lat": 37.493958,
  "lng": 126.98636
 },
 {
  "name": "GS25(하이비젼점)",
  "address": "인천 남동구 구월동 1141-7번지 하이비젼빌딩101호",
  "combination": "자동",
  "lat": 37.45207,
  "lng": 126.70678
 },
 {
  "name": "나눔로또",
  "address": "세종  장군면 도계리 154-1 CU편의점",
  "combination": "자동",
  "lat": 36.497536,
  "lng": 127.20573
 },
 {
  "name": "로또복권짱",
  "address": "경기 용인시 처인구 동부로 33,(마평동)",
  "combination": "수동",
  "lat": 37.230087,
  "lng": 127.214455
 },
 {
  "name": "장원급제로또복권방",
  "address": "경기 이천시 장감로 11",
  "combination": "수동",
  "lat": 37.12843,
  "lng": 127.6046
 },
 {
  "name": "명성복권방",
  "address": "경기 화성시 경기대로 1043",
  "combination": "수동",
  "lat": 37.208466,
  "lng": 127.0343
 },
 {
  "name": "대박의터",
  "address": "강원 춘천시 영서로 1786",
  "combination": "자동",
  "lat": 37.836243,
  "lng": 127.76008
 },
 {
  "name": "고속로또",
  "address": "전남 목포시 영산로 95-2 약국 내",
  "combination": "수동",
  "lat": 34.791157,
  "lng": 126.385666
 },
 {
  "name": "마산부림마트",
  "address": "경남 창원시 마산합포구 3·15대로 345 4필지",
  "combination": "수동",
  "lat": 35.205708,
  "lng": 128.57263
 }
]