[
 {
  "name": "강북구교통카드판매대",
  "address": "서울 강북구 솔샘로 260 가판",
  "combination": "자동",
  "lat": 37.61919,
  "lng": 127.0214
 },
 {
  "name": "씨스페이스(영도대평점)",
  "address": "부산 영도구 대교동1가 84-3 대교동 사거리",
  "combination": "자동",
  "lat": 35.092617,
  "lng": 129.03807
 },
 {
  "name": "오포우림로또",
  "address": "경기 광주시 오포로 899 1층 109호",
  "combination": "자동",
  "lat": 37.37044,
  "lng": 127.23228
 },
 {
  "name": "대박복권방",
  "address": "경기 양주시 가래비길 33",
  "combination": "자동",
  "lat": 37.82246,
  "lng": 126.986694
 },
 {
  "name": "주택복권방",
  "address": "강원 원주시 우산초교길 29 1층",
  "combination": "자동",
  "lat": 37.36735,
  "lng": 127.937904
 },
 {
  "name": "활력",
  "address": "충남 서산시 고운로 202",
  "combination": "수동",
  "lat": 36.783394,
  "lng": 126.457756
 },
 {
  "name": "행운마트",
  "address": "충남 아산시 서해로 654",
  "combination": "자동",
  "lat": 36.88196,
  "lng": 126.91078
 },
 {
  "name": "천하명당복권방",
  "address": "충남 홍성군 조양로 180",
  "combination": "수동",
  "lat": 36.60072,
  "lng": 126.66951
 },
 {
  "name": "드림로또",
  "address": "경남 양산시 삼일로 73 CU양산황제점 내",
  "combination": "자동",
  "lat": 35.343975,
  "lng": 129.03549
 },
 {
  "name": "삼삼마트",
  "address": "경남 진주시 진주대로 1165-1",
  "combination": "자동",
  "lat": 35.19521,
  "lng": 128.07565
 }
]