[
 {
  "name": "복권방",
  "address": "서울 구로구 구로동 409-80번지 1층",
  "combination": "수동",
  "lat": 37.493923,
  "lng": 126.88259
 },
 {
  "name": "인터넷 복권판매사이트",
  "address": "동행복권(dhlottery.co.kr)",
  "combination": "수동",
  "lat": 37.482063,
  "lng": 127.015785
 },
 {
  "name": "올림픽점",
  "address": "서울 송파구 충민로 66 가든파이브라이프 테크노관 10층 T-10011호",
  "combination": "자동",
  "lat": 37.47764,
  "lng": 127.12497
 },
 {
  "name": "나라시스컴",
  "address": "서울 영등포구 영등포동5가 18-58번지 영신상가1호",
  "combination": "자동",
  "lat": 37.519783,
  "lng": 126.9067
 },
 {
  "name": "배임",
  "address": "서울 용산구 보광로 19 1층",
  "combination": "자동",
  "lat": 37.526237,
  "lng": 127.000626
 },
 {
  "name": "뉴빅마트",
  "address": "부산 기장군 정관중앙로 48 106호",
  "combination": "자동",
  "lat": 35.321114,
  "lng": 129.17929
 },
 {
  "name": "스파편의점",
  "address": "부산 사상구 가야대로 288 창조상가106호",
  "combination": "수동",
  "lat": 35.15001,
  "lng": 129.00414
 },
 {
  "name": "롯데무역",
  "address": "부산 영도구 꿈나무길 197 1층 복권방",
  "combination": "수동",
  "lat": 35.087284,
  "lng": 129.04375
 },
 {
  "name": "GS25(대전둔산점)",
  "address": "대전 서구 탄방동 837",
  "combination": "수동",
  "lat": 36.34647,
  "lng": 127.39193
 },
 {
  "name": "복권명당",
  "address": "대전 중구 목중로 47",
  "combination": "자동",
  "lat": 36.33757,
  "lng": 127.40925
 },
 {
  "name": "천사로또방",
  "address": "경기 남양주시 사릉로34번길 24 1층 7호",
  "combination": "수동",
  "lat": 37.63618,
  "lng": 127.21105
 },
 {
  "name": "새로나마트",
  "address": "경기 부천시 심곡동 437-1 새로나마트",
  "combination": "자동",
  "lat": 37.492664,
  "lng": 126.78094
 },
 {
  "name": "이마트24사창대로점",
  "address": "충북 청주시 서원구 1순환로 635",
  "combination": "자동",
  "lat": 36.636944,
  "lng": 127.45981
 },
 {
  "name": "우리로또",
  "address": "충남 서산시 충의로 1231 화천슈퍼 이마트24편의점",
  "combination": "자동",
  "lat": 36.877323,
  "lng": 126.439514
 },
 {
  "name": "복권명당",
  "address": "충남 아산시 음봉로 582",
  "combination": "수동",
  "lat": 36.838066,
  "lng": 127.073845
 },
 {
  "name": "돈벼락맞은로또",
  "address": "충남 천안시 서북구 직산읍 모시리 237-11 4공단 미니스톱 내",
  "combination": "자동",
  "lat": 36.863388,
  "lng": 127.12449
 },
 {
  "name": "복권명당",
  "address": "경북 구미시 구미중앙로 72",
  "combination": "자동",
  "lat": 36.128925,
  "lng": 128.33043
 },
 {
  "name": "천하명당복권방",
  "address": "경남 진주시 진양호로 564",
  "combination": "수동",
  "lat": 35.193745,
  "lng": 128.087
 }
]