[
 {
  "name": "상호없음",
  "address": "서울 중구 세종대로 90-1 시청역 7번출구 한화생명 앞",
  "combination": "수동",
  "lat": 37.56424,
  "lng": 126.9776
 },
 {
  "name": "훼미리팔공지묘점내로또복권판매점",
  "address": "대구 동구 지묘동 818-1번지",
  "combination": "자동",
  "lat": 35.941303,
  "lng": 128.63727
 },
 {
  "name": "LOTTO가맹점",
  "address": "인천 연수구 선학로 101",
  "combination": "반자동",
  "lat": 37.425007,
  "lng": 126.700066
 },
 {
  "name": "드림월드",
  "address": "경기 성남시 수정구 수정로 346 백강빌딩",
  "combination": "자동",
  "lat": 37.454433,
  "lng": 127.15
 },
 {
  "name": "대일사",
  "address": "경북 영천시 동부로 31-6,(야사동)",
  "combination": "자동",
  "lat": 35.973186,
  "lng": 128.9484
 }
]