[
 {
  "name": "대박찬스",
  "address": "서울 강북구 솔매로 105-1,(미아동)",
  "combination": "자동",
  "lat": 37.6258,
  "lng": 127.023994
 },
 {
  "name": "버스판매소",
  "address": "서울 영등포구 영중로 2 1층(영등포동3가)",
  "combination": "자동",
  "lat": 37.516743,
  "lng": 126.906746
 },
 {
  "name": "돈벼락복권방",
  "address": "대구 북구 동변로 82-1 1층",
  "combination": "자동",
  "lat": 35.920517,
  "lng": 128.60385
 },
 {
  "name": "제일슈퍼",
  "address": "인천 연수구 앵고개로 242 제일상가112호",
  "combination": "자동",
  "lat": 37.408646,
  "lng": 126.670815
 },
 {
  "name": "그린편의점",
  "address": "광주 서구 매월2로 53 광주산업용재유통센터 23동 103호",
  "combination": "자동",
  "lat": 35.115864,
  "lng": 126.86289
 },
 {
  "name": "GS25(대전월평점)",
  "address": "대전 서구 월평3동 312-1번지 진달래아파트상가",
  "combination": "자동",
  "lat": 36.359016,
  "lng": 127.366875
 },
 {
  "name": "대림통상",
  "address": "울산 중구 신기14길 1 일신아파트 일신아파트상가102호",
  "combination": "자동",
  "lat": 35.55233,
  "lng": 129.29778
 },
 {
  "name": "버스표판매소",
  "address": "경기 고양시 덕양구 화신로 76 샘터마을1단지아파트 971번지선",
  "combination": "자동",
  "lat": 37.619034,
  "lng": 126.840454
 },
 {
  "name": "금강복권",
  "address": "경기 김포시 율생로 3",
  "combination": "자동",
  "lat": 37.652786,
  "lng": 126.59066
 },
 {
  "name": "금도끼복권방",
  "address": "경기 양평군 용문로 812 1층",
  "combination": "자동",
  "lat": 37.50729,
  "lng": 127.63166
 },
 {
  "name": "SK행운편의점",
  "address": "경기 오산시 내삼미로79번길 12 베네치아B동 103호",
  "combination": "자동",
  "lat": 37.169476,
  "lng": 127.064926
 },
 {
  "name": "행복드림",
  "address": "경기 화성시 메타폴리스로 42 디앤씨빌딩 104호",
  "combination": "자동",
  "lat": 37.2017,
  "lng": 127.07179
 },
 {
  "name": "운수대통복권방",
  "address": "충남 천안시 동남구 대흥로 122 중앙시장 입구",
  "combination": "자동",
  "lat": 36.80049,
  "lng": 127.14926
 },
 {
  "name": "복권나라",
  "address": "전남 목포시 당가두로14번길 47-1 103호 복권나라",
  "combination": "자동",
  "lat": 34.807583,
  "lng": 126.43719
 },
 {
  "name": "세방매점",
  "address": "경북 경주시 산업로 4447 (용강동)",
  "combination": "자동",
  "lat": 35.877205,
  "lng": 129.22649
 },
 {
  "name": "굿럭스토어",
  "address": "경북 경주시 첨성로81번길 17 GS25경주황남점",
  "combination": "수동",
  "lat": 35.834705,
  "lng": 129.21098
 },
 {
  "name": "꿈의가게",
  "address": "경남 김해시 계동로 220 102호 복권판매점",
  "combination": "자동",
  "lat": 35.190304,
  "lng": 128.8022
 }
]