[
 {
  "name": "프로또마트",
  "address": "서울 구로구 고척로 156 1층4호",
  "combination": "수동",
  "lat": 37.503185,
  "lng": 126.85119
 },
 {
  "name": "다모아",
  "address": "서울 구로구 공원로6나길 39-1",
  "combination": "자동",
  "lat": 37.50447,
  "lng": 126.891785
 },
 {
  "name": "몽곡사",
  "address": "서울 영등포구 버드나루로 51 조광빌딩105호",
  "combination": "자동",
  "lat": 37.523067,
  "lng": 126.910576
 },
 {
  "name": "왕대박",
  "address": "부산 동래구 여고로113번길 59-4",
  "combination": "자동",
  "lat": 35.201073,
  "lng": 129.0741
 },
 {
  "name": "명당골복권방",
  "address": "경기 수원시 권선구 동수원로242번길 15 104호",
  "combination": "자동",
  "lat": 37.251095,
  "lng": 127.03546
 },
 {
  "name": "로또복권4공단점",
  "address": "경북 구미시 첨단기업1로 18",
  "combination": "수동",
  "lat": 36.140465,
  "lng": 128.43942
 },
 {
  "name": "CU(삼천포점)",
  "address": "경남 사천시 벌리동 258-4번지",
  "combination": "자동",
  "lat": 34.940247,
  "lng": 128.08678
 },
 {
  "name": "창원병원앞매표소",
  "address": "경남 창원시 성산구 중앙동 104-1번지 가판",
  "combination": "자동",
  "lat": 35.2185,
  "lng": 128.67143
 }
]