[
 {
  "name": "복권백화점",
  "address": "서울 마포구 월드컵로 157",
  "combination": "자동",
  "lat": 37.56157,
  "lng": 126.9047
 },
 {
  "name": "CU(초읍대공원점)",
  "address": "부산 부산진구 초읍동 171-2 목화빌딩",
  "combination": "자동",
  "lat": 35.18239,
  "lng": 129.0474
 },
 {
  "name": "이마트24 광안리굿-7",
  "address": "부산 수영구 광안로 49",
  "combination": "수동",
  "lat": 35.1553,
  "lng": 129.1177
 },
 {
  "name": "우리들공업탑점",
  "address": "울산 남구 수암로 21",
  "combination": "자동",
  "lat": 35.532272,
  "lng": 129.3106
 },
 {
  "name": "지화자",
  "address": "경기 성남시 수정구 위례광장로 328 1층 116호(창곡동, 우성위례타워)",
  "combination": "자동",
  "lat": 37.47129,
  "lng": 127.14304
 },
 {
  "name": "복권백화점",
  "address": "경기 파주시 평화로 70",
  "combination": "자동",
  "lat": 37.763588,
  "lng": 126.76989
 },
 {
  "name": "행운복권방",
  "address": "경기 포천시 솔모루로 86-1",
  "combination": "자동",
  "lat": 37.8288,
  "lng": 127.14748
 },
 {
  "name": "로또복권방",
  "address": "충남 당진시 반촌로 199",
  "combination": "자동",
  "lat": 36.90107,
  "lng": 126.702934
 },
 {
  "name": "로또명당인주점",
  "address": "충남 아산시 서해로 519-2",
  "combination": "자동",
  "lat": 36.87784,
  "lng": 126.89828
 }
]