[
 {
  "name": "GS25(청담중앙점)",
  "address": "서울 강남구 청담동 21-9",
  "combination": "수동",
  "lat": 37.522636,
  "lng": 127.04216
 },
 {
  "name": "가로판매점",
  "address": "서울 서대문구 신촌로 5 창천동, 동교동로터리",
  "combination": "수동",
  "lat": 37.55867,
  "lng": 126.92767
 },
 {
  "name": "행운복권방",
  "address": "부산 중구 구덕로 47",
  "combination": "자동",
  "lat": 35.09806,
  "lng": 129.03053
 },
 {
  "name": "GS25(계산동경점)",
  "address": "인천 계양구 계산동 1076-7번지 도쿄프라자1층2호",
  "combination": "수동",
  "lat": 37.53578,
  "lng": 126.73629
 },
 {
  "name": "한국종합빌딩(복권)",
  "address": "인천 남동구 경인로 530 1층",
  "combination": "자동",
  "lat": 37.461216,
  "lng": 126.6982
 },
 {
  "name": "한솔복권\u0026마트",
  "address": "인천 미추홀구 경인로 384 1층 1호",
  "combination": "자동",
  "lat": 37.45807,
  "lng": 126.68257
 },
 {
  "name": "3정승로또복권방",
  "address": "광주 북구 삼정로 10 두암주공4단지아파트 주공4단지 1층 우리마트",
  "combination": "자동",
  "lat": 35.162807,
  "lng": 126.937965
 },
 {
  "name": "우리들(북구청점)",
  "address": "울산 북구 무룡로  29 1층 우리들편의점 내",
  "combination": "자동",
  "lat": 35.58109,
  "lng": 129.36357
 },
 {
  "name": "25시슈퍼",
  "address": "경기 시흥시 함송로14번길 13-17 홍익프라자1층107호",
  "combination": "자동",
  "lat": 37.362453,
  "lng": 126.72994
 },
 {
  "name": "백석상회",
  "address": "경기 양주시 백석읍 양주산성로 550",
  "combination": "반자동",
  "lat": 37.786922,
  "lng": 126.992905
 },
 {
  "name": "평택21세기편의점",
  "address": "경기 평택시 중앙로 284 1층 21세기편의점",
  "combination": "자동",
  "lat": 36.990208,
  "lng": 127.11413
 },
 {
  "name": "터미널분식",
  "address": "충남 부여군 부장대로 65",
  "combination": "자동",
  "lat": 36.280716,
  "lng": 126.90962
 }
]