[
 {
  "name": "헬로마트",
  "address": "서울 도봉구 도봉로170길 8,(도봉동)",
  "combination": "자동",
  "lat": 37.680374,
  "lng": 127.04596
 },
 {
  "name": "행운복권마트",
  "address": "서울 종로구 지봉로 58",
  "combination": "수동",
  "lat": 37.575314,
  "lng": 127.015854
 },
 {
  "name": "뉴빅마트",
  "address": "부산 기장군 정관중앙로 48 106호",
  "combination": "자동",
  "lat": 35.321114,
  "lng": 129.17929
 },
 {
  "name": "명당일세",
  "address": "경기 평택시 평택로 80",
  "combination": "자동",
  "lat": 36.994064,
  "lng": 127.08486
 },
 {
  "name": "대박복권",
  "address": "충남 홍성군 충서로 2423 세븐일레븐",
  "combination": "자동",
  "lat": 36.63776,
  "lng": 126.74336
 },
 {
  "name": "로또복권 황성점",
  "address": "경북 경주시 황성로27번길 2 4호",
  "combination": "수동",
  "lat": 35.86579,
  "lng": 129.21443
 },
 {
  "name": "로또방양덕점",
  "address": "경북 포항시 북구 양덕로50번길 14 이마트24포항양덕점",
  "combination": "수동",
  "lat": 36.08293,
  "lng": 129.4035
 },
 {
  "name": "씨유(거창대동점)",
  "address": "경남 거창군 거창대로 93",
  "combination": "자동",
  "lat": 35.689865,
  "lng": 127.91475
 },
 {
  "name": "나눔로또",
  "address": "경남 함안군 용산1길 33 1층",
  "combination": "자동",
  "lat": 35.30895,
  "lng": 128.51694
 },
 {
  "name": "성자점빵",
  "address": "제주 제주시 남광로 5 1층",
  "combination": "자동",
  "lat": 33.49232,
  "lng": 126.5368
 }
]