[
 {
  "name": "CU(용두으뜸점)",
  "address": "서울 동대문구 안암로 52",
  "combination": "자동",
  "lat": 37.58123,
  "lng": 127.02779
 },
 {
  "name": "신나라",
  "address": "서울 영등포구 선유로 58",
  "combination": "자동",
  "lat": 37.51907,
  "lng": 126.889435
 },
 {
  "name": "로또복권판매점",
  "address": "부산 사하구 괴정로57번길 54",
  "combination": "자동",
  "lat": 35.102894,
  "lng": 128.97325
 },
 {
  "name": "복권판매점",
  "address": "인천 남동구 복개동로 80 101호",
  "combination": "반자동",
  "lat": 37.45455,
  "lng": 126.72434
 },
 {
  "name": "행운 마트",
  "address": "인천 남동구 만수로 65",
  "combination": "수동",
  "lat": 37.461594,
  "lng": 126.73509
 },
 {
  "name": "동성슈퍼",
  "address": "울산 울주군 북문1길 7 101호",
  "combination": "자동",
  "lat": 35.570965,
  "lng": 129.12039
 },
 {
  "name": "나눔이매로또",
  "address": "경기 성남시 분당구 양현로94번길 21 구두28호점",
  "combination": "수동",
  "lat": 37.390984,
  "lng": 127.12636
 },
 {
  "name": "나눔이매로또",
  "address": "경기 성남시 분당구 양현로94번길 21 구두28호점",
  "combination": "수동",
  "lat": 37.390984,
  "lng": 127.12636
 },
 {
  "name": "나눔이매로또",
  "address": "경기 성남시 분당구 양현로94번길 21 구두28호점",
  "combination": "수동",
  "lat": 37.390984,
  "lng": 127.12636
 },
 {
  "name": "나눔이매로또",
  "address": "경기 성남시 분당구 양현로94번길 21 구두28호점",
  "combination": "수동",
  "lat": 37.390984,
  "lng": 127.12636
 },
 {
  "name": "오거리복권방",
  "address": "경기 수원시 권선구 구운로85번길 6 1층(구운동) 주차장 안쪽",
  "combination": "자동",
  "lat": 37.281574,
  "lng": 126.97287
 },
 {
  "name": "마이더스로또복권방",
  "address": "경기 안양시 동안구 안양판교로 12-2,(관양동)",
  "combination": "자동",
  "lat": 37.400826,
  "lng": 126.977646
 },
 {
  "name": "로또판매점",
  "address": "경기 포천시 호국로 1900",
  "combination": "자동",
  "lat": 37.92011,
  "lng": 127.221146
 },
 {
  "name": "도깨비방망이",
  "address": "전남 완도군 완도읍 장보고대로 220 도깨비방망이",
  "combination": "자동",
  "lat": 34.31606,
  "lng": 126.7492
 },
 {
  "name": "대동복권방",
  "address": "경남 김해시 월산로 112-57 월산마을5단지두산위브아파트상가 이마트편의점 좌측 복권판매점",
  "combination": "자동",
  "lat": 35.206844,
  "lng": 128.80473
 },
 {
  "name": "Goodday복권전문점",
  "address": "경남 창원시 성산구 반송로50번길 14",
  "combination": "수동",
  "lat": 35.239998,
  "lng": 128.66164
 }
]