[
 {
  "name": "민준복권",
  "address": "경기 군포시 삼성로 5 해피시티 104호(부곡동 해피시티)",
  "combination": "자동",
  "lat": 37.336166,
  "lng": 126.93435
 },
 {
  "name": "패밀리복권방",
  "address": "경기 남양주시 늘을2로 20 CH리베로원 103호",
  "combination": "자동",
  "lat": 37.654453,
  "lng": 127.24409
 },
 {
  "name": "하나로슈퍼복권방",
  "address": "경기 성남시 분당구 정자로 78 104호 (정자동, 영동프라자)",
  "combination": "자동",
  "lat": 37.36312,
  "lng": 127.11351
 },
 {
  "name": "영화모음",
  "address": "경기 수원시 장안구 금당로39번길 6 뉴타운프라자A-107",
  "combination": "자동",
  "lat": 37.30316,
  "lng": 127.0161
 },
 {
  "name": "그랜드로또",
  "address": "경북 구미시  비산로5길 23",
  "combination": "자동",
  "lat": 36.121513,
  "lng": 128.37978
 },
 {
  "name": "복권명당",
  "address": "경북 구미시 구미중앙로 72",
  "combination": "자동",
  "lat": 36.128925,
  "lng": 128.33043
 },
 {
  "name": "완월로또",
  "address": "경남 창원시 마산합포구 고운로 175 한미초록빌라 세븐일레븐 내",
  "combination": "자동",
  "lat": 35.197372,
  "lng": 128.56186
 },
 {
  "name": "함안 복권방",
  "address": "경남 함안군 함안대로 552 1층",
  "combination": "자동",
  "lat": 35.27584,
  "lng": 128.40576
 }
]