[
 {
  "name": "행운복권",
  "address": "서울 노원구 동일로 992 1층",
  "combination": "자동",
  "lat": 37.61881,
  "lng": 127.07561
 },
 {
  "name": "나라시스컴",
  "address": "서울 영등포구  영등포로 225 영신상가1호",
  "combination": "자동",
  "lat": 37.519783,
  "lng": 126.9067
 },
 {
  "name": "복권방",
  "address": "부산 사하구 장림번영로 25",
  "combination": "자동",
  "lat": 35.081005,
  "lng": 128.96823
 },
 {
  "name": "로또복권",
  "address": "인천 서구 염곡로 343-4",
  "combination": "자동",
  "lat": 37.515396,
  "lng": 126.66847
 },
 {
  "name": "가두판매점",
  "address": "경기 안양시 만안구 안양로 265 우리은행 안양중앙지점 우리은행앞도로",
  "combination": "자동",
  "lat": 37.396156,
  "lng": 126.92316
 },
 {
  "name": "창미슈퍼",
  "address": "경기 화성시 남양성지로 155",
  "combination": "자동",
  "lat": 37.21022,
  "lng": 126.81979
 },
 {
  "name": "이마트24 순천산단점",
  "address": "전남 순천시 산단1길 6 중앙정밀기계,마트",
  "combination": "자동",
  "lat": 34.987934,
  "lng": 127.50839
 },
 {
  "name": "365팡팡복권",
  "address": "경남 김해시 진영읍 장등로 53 상가136동108호",
  "combination": "자동",
  "lat": 35.3121,
  "lng": 128.7335
 }
]