[
 {
  "name": "인터넷 복권판매사이트",
  "address": "동행복권(dhlottery.co.kr)",
  "combination": "수동",
  "lat": 37.482063,
  "lng": 127.015785
 },
 {
  "name": "버스판매소",
  "address": "서울 영등포구 영중로 2 1층(영등포동3가)",
  "combination": "자동",
  "lat": 37.516743,
  "lng": 126.906746
 },
 {
  "name": "부일카서비스",
  "address": "부산 동구 자성로133번길 35",
  "combination": "자동",
  "lat": 35.140015,
  "lng": 129.06306
 },
 {
  "name": "천운 복권방",
  "address": "인천 미추홀구 매소홀로 468",
  "combination": "자동",
  "lat": 37.439312,
  "lng": 126.673904
 },
 {
  "name": "365대박찬스",
  "address": "경기 양주시 고읍남로 6-14 광사동, 제이프라자",
  "combination": "자동",
  "lat": 37.795395,
  "lng": 127.08138
 },
 {
  "name": "정우",
  "address": "경기 용인시 처인구 백옥대로 574 C동상가",
  "combination": "수동",
  "lat": 37.18781,
  "lng": 127.20619
 },
 {
  "name": "혹시나도",
  "address": "충북 음성군  감곡면 장감로149번길 4-4 복권방",
  "combination": "자동",
  "lat": 37.119133,
  "lng": 127.63936
 }
]