[
 {
  "name": "로또카페",
  "address": "서울 강서구 강서로74길 3 1층 6호",
  "combination": "자동",
  "lat": 37.567844,
  "lng": 126.8415
 },
 {
  "name": "대화식품",
  "address": "서울 금천구 가산로 53 3호",
  "combination": "자동",
  "lat": 37.471157,
  "lng": 126.896904
 },
 {
  "name": "명신사",
  "address": "서울 마포구 월드컵로 97",
  "combination": "자동",
  "lat": 37.55725,
  "lng": 126.90864
 },
 {
  "name": "복권천국(성서점)",
  "address": "대구 달서구 성서로 377",
  "combination": "자동",
  "lat": 35.851086,
  "lng": 128.50685
 },
 {
  "name": "버스매표소 복권판매소",
  "address": "인천 중구 우현로 69 중앙로지하상가 163호",
  "combination": "자동",
  "lat": 37.47554,
  "lng": 126.631294
 },
 {
  "name": "또또와복권방",
  "address": "세종 나성북로 30 퍼스트원 어반아트리움 189호",
  "combination": "자동",
  "lat": 36.489307,
  "lng": 127.26067
 },
 {
  "name": "현리행운복권방",
  "address": "경기 가평군 조종희망로 14 1층",
  "combination": "자동",
  "lat": 37.818184,
  "lng": 127.35024
 },
 {
  "name": "충청복권전문점",
  "address": "충남 천안시 서북구 성환2로 108",
  "combination": "자동",
  "lat": 36.91694,
  "lng": 127.132835
 }
]