[
 {
  "name": "교통카드충전소",
  "address": "서울 강남구 선릉로 309",
  "combination": "자동",
  "lat": 37.49705,
  "lng": 127.05222
 },
 {
  "name": "행운마트",
  "address": "서울 노원구 중계로 96",
  "combination": "수동",
  "lat": 37.64442,
  "lng": 127.083305
 },
 {
  "name": "대박로또",
  "address": "서울 송파구 마천로57길 5 마천빌딩",
  "combination": "수동",
  "lat": 37.4945,
  "lng": 127.15189
 },
 {
  "name": "통일마트",
  "address": "서울 종로구 종로 19 르메이에르종로타운 110-1호",
  "combination": "수동",
  "lat": 37.57045,
  "lng": 126.97983
 },
 {
  "name": "중구-가로가판대-37",
  "address": "서울 중구 남대문로 20-2,(남대문로3가)",
  "combination": "자동",
  "lat": 37.56083,
  "lng": 126.97805
 },
 {
  "name": "CU(망우점)",
  "address": "서울 중랑구  망우로 410",
  "combination": "수동",
  "lat": 37.598965,
  "lng": 127.0976
 },
 {
  "name": "정다운복권 조이마트",
  "address": "인천 부평구 충선로 171 1층",
  "combination": "자동",
  "lat": 37.504536,
  "lng": 126.736275
 },
 {
  "name": "장군슈퍼",
  "address": "인천 연수구 청량로 104",
  "combination": "수동",
  "lat": 37.41734,
  "lng": 126.65594
 },
 {
  "name": "오천억복권방",
  "address": "광주 서구 상무대로 1087",
  "combination": "수동",
  "lat": 35.15296,
  "lng": 126.880745
 },
 {
  "name": "행운복권",
  "address": "경기 성남시 중원구 시민로 121 (성남동)",
  "combination": "자동",
  "lat": 37.43903,
  "lng": 127.14478
 },
 {
  "name": "스마일로또복권",
  "address": "경기 평택시 탄현1로 104 104호",
  "combination": "수동",
  "lat": 37.069073,
  "lng": 127.053825
 },
 {
  "name": "율암25시편의점",
  "address": "경기 화성시 시청로 822-10",
  "combination": "수동",
  "lat": 37.166355,
  "lng": 126.88175
 },
 {
  "name": "복드림로또판매점",
  "address": "충북 충주시 첨단산업9로 13 1충",
  "combination": "자동",
  "lat": 36.9995,
  "lng": 127.83492
 }
]