[
 {
  "name": "잠실매점",
  "address": "서울 송파구 올림픽로 269 잠실역 8번출구 앞 가판",
  "combination": "자동",
  "lat": 37.514446,
  "lng": 127.10071
 },
 {
  "name": "대박복권방",
  "address": "서울 양천구 오목로 233 1층1호",
  "combination": "자동",
  "lat": 37.52613,
  "lng": 126.863304
 },
 {
  "name": "영일식품",
  "address": "서울 영등포구 당산로32길 10",
  "combination": "수동",
  "lat": 37.526226,
  "lng": 126.8978
 },
 {
  "name": "우정식품",
  "address": "부산 동래구 온천장로 39",
  "combination": "자동",
  "lat": 35.21585,
  "lng": 129.07948
 },
 {
  "name": "황금돼지로또",
  "address": "부산 수영구 광남로48번길 12 남천동",
  "combination": "자동",
  "lat": 35.146393,
  "lng": 129.11247
 },
 {
  "name": "버스매표소",
  "address": "인천 부평구 부평대로 3 가판",
  "combination": "수동",
  "lat": 37.49181,
  "lng": 126.722725
 },
 {
  "name": "원흥로또 앤 픽미아이스",
  "address": "경기 고양시 덕양구 삼송로 12 102호",
  "combination": "자동",
  "lat": 37.64967,
  "lng": 126.875336
 },
 {
  "name": "로또복권방",
  "address": "경기 군포시 산본로323번길 16-6 신명타워 신명빌딩1층1005호",
  "combination": "자동",
  "lat": 37.359245,
  "lng": 126.93236
 },
 {
  "name": "GS25(수원매탄점)",
  "address": "경기 수원시 영통구  인계로 239 성일프라자117호",
  "combination": "자동",
  "lat": 37.26531,
  "lng": 127.044044
 },
 {
  "name": "777천하명당",
  "address": "충남 서천군 충절로 54",
  "combination": "자동",
  "lat": 36.074856,
  "lng": 126.68902
 },
 {
  "name": "대산슈퍼",
  "address": "충남 천안시 동남구 복구정3길 1",
  "combination": "자동",
  "lat": 36.76989,
  "lng": 127.250206
 }
]