[
 {
  "name": "복권나라",
  "address": "서울 관악구 남부순환로 1739-9",
  "combination": "자동",
  "lat": 37.482788,
  "lng": 126.943474
 },
 {
  "name": "보성정보통신",
  "address": "서울 동대문구 장한로2길 24",
  "combination": "수동",
  "lat": 37.56191,
  "lng": 127.06647
 },
 {
  "name": "로또지물포",
  "address": "서울 마포구 방울내로 78",
  "combination": "자동",
  "lat": 37.560432,
  "lng": 126.90408
 },
 {
  "name": "패밀리마트전포점",
  "address": "부산 부산진구  당감로 27-1 1층",
  "combination": "수동",
  "lat": 35.164185,
  "lng": 129.03937
 },
 {
  "name": "로또명당",
  "address": "대구 달서구 월성로 20 건도파라다이스 105-1호,건도파라다이스",
  "combination": "수동",
  "lat": 35.83155,
  "lng": 128.53336
 },
 {
  "name": "성명당",
  "address": "인천 미추홀구 한나루로 598-4",
  "combination": "수동",
  "lat": 37.459457,
  "lng": 126.67263
 },
 {
  "name": "명품로또",
  "address": "세종 새롬중앙1로 13 새뜸마을6단지 114호",
  "combination": "자동",
  "lat": 36.485146,
  "lng": 127.25204
 },
 {
  "name": "로또판매점",
  "address": "경기 시흥시 금오로 503",
  "combination": "수동",
  "lat": 37.446888,
  "lng": 126.83197
 },
 {
  "name": "축복큰대운집",
  "address": "경기 파주시 중앙로 324 1층",
  "combination": "자동",
  "lat": 37.76446,
  "lng": 126.77457
 },
 {
  "name": "금강안경원",
  "address": "전북 군산시 중앙로 186 1001안경콘텍트",
  "combination": "수동",
  "lat": 35.987785,
  "lng": 126.71064
 },
 {
  "name": "행운하우스",
  "address": "전북 전주시 덕진구 송천4길 56-3",
  "combination": "수동",
  "lat": 35.862343,
  "lng": 127.11512
 },
 {
  "name": "이마트24 순천산단점",
  "address": "전남 순천시 산단1길 6 중앙정밀기계,마트",
  "combination": "자동",
  "lat": 34.987934,
  "lng": 127.50839
 },
 {
  "name": "로터리편의마트",
  "address": "경북 포항시 북구 서동로 85 육거리",
  "combination": "자동",
  "lat": 36.040768,
  "lng": 129.36725
 }
]