[
 {
  "name": "천하명당관악점",
  "address": "서울 관악구 보라매로2길 11",
  "combination": "수동",
  "lat": 37.49009,
  "lng": 126.92868
 },
 {
  "name": "뮤직마트",
  "address": "서울 서초구 강남대로 212",
  "combination": "자동",
  "lat": 37.48313,
  "lng": 127.036026
 },
 {
  "name": "럭키",
  "address": "부산 북구 시랑로 138",
  "combination": "수동",
  "lat": 35.195084,
  "lng": 129.01054
 },
 {
  "name": "CU(좌동중앙점)",
  "address": "부산 해운대구  양운로 98 대하프라자1층 CU좌동중앙점",
  "combination": "자동",
  "lat": 35.171658,
  "lng": 129.17484
 },
 {
  "name": "복권명당(서부점)",
  "address": "대구 달서구 월배로 452",
  "combination": "수동",
  "lat": 35.833633,
  "lng": 128.55486
 },
 {
  "name": "빛고을로또",
  "address": "광주 광산구 소촌로 147 세븐일레븐",
  "combination": "자동",
  "lat": 35.15734,
  "lng": 126.79186
 },
 {
  "name": "GS25(대전도룡점)",
  "address": "대전 유성구  대덕대로 594 타워코리아나주상복",
  "combination": "반자동",
  "lat": 36.385914,
  "lng": 127.37902
 },
 {
  "name": "천마산 쉼터 복권명당",
  "address": "경기 남양주시 묵현로 11-3 1층 7호",
  "combination": "수동",
  "lat": 37.65706,
  "lng": 127.28974
 },
 {
  "name": "가판점",
  "address": "경기 부천시 자유로 33 이마트앞 지하도입구",
  "combination": "자동",
  "lat": 37.483967,
  "lng": 126.77988
 },
 {
  "name": "대박복권방",
  "address": "경기 안산시 단원구 신길중앙로1길 40 101호",
  "combination": "자동",
  "lat": 37.336105,
  "lng": 126.76227
 },
 {
  "name": "로또휴게실",
  "address": "경기 용인시 기흥구 용구대로 1885",
  "combination": "수동",
  "lat": 37.256386,
  "lng": 127.10432
 },
 {
  "name": "씨유 용인포곡둔전점",
  "address": "경기 용인시 처인구 포곡로118번길 26-1 유성시티빌 103호",
  "combination": "수동",
  "lat": 37.268517,
  "lng": 127.22076
 },
 {
  "name": "일등드림복권방",
  "address": "경기 화성시 경기동로 476",
  "combination": "자동",
  "lat": 37.152332,
  "lng": 127.12275
 },
 {
  "name": "로또천국",
  "address": "충북 충주시 금봉1길  48 1층",
  "combination": "수동",
  "lat": 36.981762,
  "lng": 127.91459
 },
 {
  "name": "수복권방",
  "address": "충남 천안시 서북구 한들1로 88 천안백석LH천년나무1단지아파트 상가동 103호",
  "combination": "수동",
  "lat": 36.83042,
  "lng": 127.11779
 },
 {
  "name": "GS25(천안장미점)",
  "address": "충남 천안시 서북구  미라2길 22-4",
  "combination": "자동",
  "lat": 36.80115,
  "lng": 127.1296
 }
]