[
 {
  "name": "스파",
  "address": "서울 노원구 동일로 1493 상계주공아파트(10단지) 주공10단지종합상가111",
  "combination": "자동",
  "lat": 37.66166,
  "lng": 127.05787
 },
 {
  "name": "로또수락산점",
  "address": "서울 노원구 동일로 1689 대덕하이베라스101호",
  "combination": "수동",
  "lat": 37.67911,
  "lng": 127.054855
 },
 {
  "name": "천하명당복권방",
  "address": "인천 계양구 안남로 466 1층",
  "combination": "자동",
  "lat": 37.5245,
  "lng": 126.71087
 },
 {
  "name": "관촌방",
  "address": "경기 이천시 경충대로 2241 1층 상가",
  "combination": "수동",
  "lat": 37.29453,
  "lng": 127.418495
 },
 {
  "name": "동행행운lotto방",
  "address": "경기 화성시  한절이1길 6-13",
  "combination": "자동",
  "lat": 37.11778,
  "lng": 126.91532
 },
 {
  "name": "GMART",
  "address": "경북 구미시 구미중앙로 57-3",
  "combination": "자동",
  "lat": 36.130028,
  "lng": 128.32906
 },
 {
  "name": "GS25(양산신평점)",
  "address": "경남 양산시  신평중앙길 1 GS25",
  "combination": "수동",
  "lat": 35.491062,
  "lng": 129.08658
 }
]