[
 {
  "name": "서교동가판점",
  "address": "서울 마포구 양화로 115",
  "combination": "자동",
  "lat": 37.554047,
  "lng": 126.91951
 },
 {
  "name": "용꿈돼지꿈",
  "address": "서울 마포구 마포대로 112-5",
  "combination": "수동",
  "lat": 37.544727,
  "lng": 126.95221
 },
 {
  "name": "어머화장품",
  "address": "서울 송파구 가락로11길 19",
  "combination": "자동",
  "lat": 37.502045,
  "lng": 127.10405
 },
 {
  "name": "로또복권방",
  "address": "부산 해운대구 재반로 249",
  "combination": "수동",
  "lat": 35.199535,
  "lng": 129.13121
 },
 {
  "name": "노다지로또",
  "address": "인천 서구 완정로  179 검단제이원빌딩 108호",
  "combination": "자동",
  "lat": 37.602306,
  "lng": 126.65639
 },
 {
  "name": "오포우림로또",
  "address": "경기 광주시 오포로 899 1층 109호",
  "combination": "수동",
  "lat": 37.37044,
  "lng": 127.23228
 },
 {
  "name": "오이도직판장마트",
  "address": "경기 시흥시 오이도로 167 오이도이주단지B",
  "combination": "수동",
  "lat": 37.345856,
  "lng": 126.68821
 },
 {
  "name": "더드림",
  "address": "경기 안산시 상록구 예술대학로 226 상가2호",
  "combination": "자동",
  "lat": 37.336037,
  "lng": 126.84303
 },
 {
  "name": "행운복권방",
  "address": "경기 안성시 서동대로 7184 1층 복권방",
  "combination": "자동",
  "lat": 37.084095,
  "lng": 127.449036
 },
 {
  "name": "대성기획",
  "address": "경기 용인시 기흥구 구성로 75-1",
  "combination": "자동",
  "lat": 37.29493,
  "lng": 127.1179
 },
 {
  "name": "로또마트",
  "address": "경기 평택시 고덕여염10길 86 104호",
  "combination": "수동",
  "lat": 37.12448,
  "lng": 127.072136
 },
 {
  "name": "서정천하명당",
  "address": "경기 평택시 송탄로 160",
  "combination": "자동",
  "lat": 37.058094,
  "lng": 127.05932
 },
 {
  "name": "달성로또복권판매소",
  "address": "충남 아산시 온천대로 1531",
  "combination": "수동",
  "lat": 36.780804,
  "lng": 127.0079
 }
]