[
 {
  "name": "동원마트",
  "address": "서울 강동구 풍성로 209",
  "combination": "자동",
  "lat": 37.529346,
  "lng": 127.1351
 },
 {
  "name": "토큰박스(하나백화점앞)",
  "address": "대구 북구 팔달로 177",
  "combination": "수동",
  "lat": 35.888466,
  "lng": 128.56982
 },
 {
  "name": "노다지복권방",
  "address": "인천 미추홀구 한나루로 400 학익시장 외7필지125호",
  "combination": "수동",
  "lat": 37.443375,
  "lng": 126.66496
 },
 {
  "name": "노다지복권방",
  "address": "인천 미추홀구 한나루로 400 학익시장 외7필지125호",
  "combination": "수동",
  "lat": 37.443375,
  "lng": 126.66496
 },
 {
  "name": "중흥마트",
  "address": "광주 북구 문산로 30 중흥2차 아파트상가 1층",
  "combination": "자동",
  "lat": 35.18389,
  "lng": 126.92322
 },
 {
  "name": "이마트24 일산덕이점",
  "address": "경기 고양시 일산서구 미래로 164",
  "combination": "자동",
  "lat": 37.69311,
  "lng": 126.74687
 },
 {
  "name": "대광슈퍼",
  "address": "경기 군포시 고산로 679 미성프라자106호",
  "combination": "자동",
  "lat": 37.371067,
  "lng": 126.93395
 },
 {
  "name": "대운",
  "address": "경기 김포시 대명항로 209",
  "combination": "자동",
  "lat": 37.653645,
  "lng": 126.595695
 },
 {
  "name": "오남 로또택배",
  "address": "경기 남양주시 진건오남로 814 B동 1층 5호",
  "combination": "자동",
  "lat": 37.69933,
  "lng": 127.20243
 },
 {
  "name": "별내로또(픽미픽미아이스삼육대점)",
  "address": "경기 남양주시 순화궁로 272 115호",
  "combination": "자동",
  "lat": 37.651592,
  "lng": 127.12942
 },
 {
  "name": "왕대박복권전문점",
  "address": "강원 동해시 중앙로 234 이주민상가1층18호",
  "combination": "자동",
  "lat": 37.52171,
  "lng": 129.115
 },
 {
  "name": "나래복권",
  "address": "충북 충주시 충원대로 952 1층",
  "combination": "자동",
  "lat": 37.0107,
  "lng": 127.91579
 },
 {
  "name": "운수대통복권샵",
  "address": "전북 전주시 완산구 중화산로 101",
  "combination": "자동",
  "lat": 35.819527,
  "lng": 127.11793
 }
]