[
 {
  "name": "내복권방",
  "address": "서울 노원구 노원로1나길 5 1층",
  "combination": "자동",
  "lat": 37.62124,
  "lng": 127.082855
 },
 {
  "name": "GS25(반포중앙점)",
  "address": "서울 서초구  사평대로55길 37 1층",
  "combination": "수동",
  "lat": 37.505672,
  "lng": 127.02201
 },
 {
  "name": "홈플러스앞가로판매점",
  "address": "서울 양천구 등촌로 172",
  "combination": "자동",
  "lat": 37.54501,
  "lng": 126.86259
 },
 {
  "name": "문구뱅크",
  "address": "서울 은평구 서오릉로 71 영화마스타골프랜드 문구뱅크",
  "combination": "자동",
  "lat": 37.606796,
  "lng": 126.92209
 },
 {
  "name": "묵동식품",
  "address": "서울 중랑구 동일로 919",
  "combination": "수동",
  "lat": 37.612457,
  "lng": 127.07704
 },
 {
  "name": "복터졌네 대박로또",
  "address": "부산 사상구 광장로21번길 46",
  "combination": "수동",
  "lat": 35.1653,
  "lng": 128.97977
 },
 {
  "name": "태수상사",
  "address": "대구 달서구 월배로39길 30 이마트24달서월배로점",
  "combination": "자동",
  "lat": 35.820366,
  "lng": 128.5325
 },
 {
  "name": "용두천하",
  "address": "광주 북구 하서로 373",
  "combination": "자동",
  "lat": 35.20835,
  "lng": 126.87351
 },
 {
  "name": "파크애비뉴",
  "address": "경기 화성시 화성로 1215 가동 1호",
  "combination": "자동",
  "lat": 37.21417,
  "lng": 126.81631
 },
 {
  "name": "Letsgo복권방",
  "address": "전북 전주시 완산구 평화로 190",
  "combination": "수동",
  "lat": 35.793427,
  "lng": 127.13674
 },
 {
  "name": "스마일복권방",
  "address": "경북 김천시 영남대로 2087 101호",
  "combination": "수동",
  "lat": 36.11514,
  "lng": 128.15657
 }
]