[
 {
  "name": "다담",
  "address": "서울 동대문구 장한로18길 50",
  "combination": "자동",
  "lat": 37.567554,
  "lng": 127.07169
 },
 {
  "name": "버스판매소",
  "address": "서울 영등포구 영중로 2 1층(영등포동3가)",
  "combination": "자동",
  "lat": 37.516743,
  "lng": 126.906746
 },
 {
  "name": "양광마트",
  "address": "서울 은평구 응암로 173-1",
  "combination": "반자동",
  "lat": 37.587593,
  "lng": 126.91639
 },
 {
  "name": "복권명당",
  "address": "대구 수성구 들안로 243",
  "combination": "수동",
  "lat": 35.851864,
  "lng": 128.6167
 },
 {
  "name": "운수대통",
  "address": "광주 광산구 어등대로 581-1 1층 운수대통",
  "combination": "자동",
  "lat": 35.15126,
  "lng": 126.786285
 },
 {
  "name": "복권마트",
  "address": "광주 북구 북문대로 89 벽산메가시티상가 101동 116호",
  "combination": "자동",
  "lat": 35.176758,
  "lng": 126.87724
 },
 {
  "name": "복권나라",
  "address": "대전 대덕구 신탄진동로 1",
  "combination": "자동",
  "lat": 36.447586,
  "lng": 127.4299
 },
 {
  "name": "버스표판매소",
  "address": "경기 고양시 덕양구 화신로 76 샘터마을1단지아파트 971번지선",
  "combination": "자동",
  "lat": 37.619034,
  "lng": 126.840454
 },
 {
  "name": "일산복권",
  "address": "경기 고양시 일산동구 무궁화로 31-16 남정시티프라자8차 103호",
  "combination": "자동",
  "lat": 37.66349,
  "lng": 126.76746
 },
 {
  "name": "로또또",
  "address": "경기 김포시 봉수대로 1704 102호",
  "combination": "자동",
  "lat": 37.62097,
  "lng": 126.63304
 },
 {
  "name": "1등복권방",
  "address": "경기 오산시 수청로 201",
  "combination": "자동",
  "lat": 37.17634,
  "lng": 127.04483
 },
 {
  "name": "로또휴게실",
  "address": "경기 용인시 기흥구 용구대로 1885",
  "combination": "수동",
  "lat": 37.256386,
  "lng": 127.10432
 },
 {
  "name": "대성기획",
  "address": "경기 용인시 기흥구 구성로 75-1",
  "combination": "자동",
  "lat": 37.29493,
  "lng": 127.1179
 },
 {
  "name": "행운복권",
  "address": "충북 제천시 명륜로 67 1층",
  "combination": "자동",
  "lat": 37.142334,
  "lng": 128.20863
 },
 {
  "name": "위드미청주예체로점",
  "address": "충북 청주시 서원구 예체로19번길 3",
  "combination": "자동",
  "lat": 36.62776,
  "lng": 127.46859
 },
 {
  "name": "썬마트",
  "address": "충북 청주시 흥덕구 진재로23번길 25",
  "combination": "자동",
  "lat": 36.632607,
  "lng": 127.42811
 },
 {
  "name": "나눔로또",
  "address": "충남 논산시 중앙로 201",
  "combination": "자동",
  "lat": 36.18615,
  "lng": 127.1027
 },
 {
  "name": "안계 나눔로또",
  "address": "경북 의성군 안계시장길 43",
  "combination": "반자동",
  "lat": 36.38517,
  "lng": 128.4369
 }
]