[
 {
  "name": "하이로또",
  "address": "서울 금천구 금하로 686",
  "combination": "자동",
  "lat": 37.451874,
  "lng": 126.906334
 },
 {
  "name": "팬시겔러리",
  "address": "서울 서대문구 통일로 153-1",
  "combination": "수동",
  "lat": 37.567715,
  "lng": 126.96443
 },
 {
  "name": "행운의사랑방",
  "address": "서울 영등포구 도림로 465",
  "combination": "수동",
  "lat": 37.51568,
  "lng": 126.891594
 },
 {
  "name": "평안당",
  "address": "서울 종로구 종로 219",
  "combination": "자동",
  "lat": 37.57123,
  "lng": 127.00219
 },
 {
  "name": "노다지복권",
  "address": "인천 계양구 장제로 916 계양병원 1층, 일부호",
  "combination": "반자동",
  "lat": 37.548107,
  "lng": 126.74157
 },
 {
  "name": "가온복권",
  "address": "인천 서구 서로3로 50 상가2동B215호(당하동, 검단신도시 모아미래도 엘리트파크)",
  "combination": "자동",
  "lat": 37.583225,
  "lng": 126.70628
 },
 {
  "name": "1등복권방",
  "address": "인천 연수구 해돋이로 168 혜인프라자 104호",
  "combination": "수동",
  "lat": 37.395416,
  "lng": 126.64522
 },
 {
  "name": "현암꽃플라워",
  "address": "대전 동구 태전로 167",
  "combination": "수동",
  "lat": 36.342148,
  "lng": 127.419106
 },
 {
  "name": "대광복권방",
  "address": "전남 화순군 칠충로 55 대광로제비앙 대광그린상가동 1층109호",
  "combination": "수동",
  "lat": 35.05548,
  "lng": 126.97712
 },
 {
  "name": "성심상회",
  "address": "경북 포항시 북구 불종로 78",
  "combination": "수동",
  "lat": 36.038174,
  "lng": 129.36801
 },
 {
  "name": "합천우리복권방",
  "address": "경남 합천군 핫들2로 8 1층",
  "combination": "수동",
  "lat": 35.56843,
  "lng": 128.16539
 }
]