[
 {
  "name": "농가마트",
  "address": "서울 양천구 중앙로 264 1층",
  "combination": "자동",
  "lat": 37.519985,
  "lng": 126.853294
 },
 {
  "name": "복권명당",
  "address": "대구 수성구 천을로 180 동서1차아파트상가108-112호",
  "combination": "수동",
  "lat": 35.842495,
  "lng": 128.71007
 },
 {
  "name": "왕대박로또",
  "address": "경기 이천시 덕평로 917 CU이천덕평",
  "combination": "자동",
  "lat": 37.2397,
  "lng": 127.362816
 },
 {
  "name": "로또명당금왕점",
  "address": "충북 음성군 금왕읍 탑골길 55 세븐일레븐 금왕점",
  "combination": "수동",
  "lat": 36.990955,
  "lng": 127.58632
 },
 {
  "name": "팡팡복권방",
  "address": "충북 진천군 장기길 102",
  "combination": "자동",
  "lat": 36.990017,
  "lng": 127.445274
 },
 {
  "name": "알리바이(나주점)",
  "address": "전남 나주시 나주로 142 알리바이",
  "combination": "반자동",
  "lat": 35.031338,
  "lng": 126.71719
 },
 {
  "name": "도깨비방망이",
  "address": "전남 완도군 완도읍 장보고대로 220 도깨비방망이",
  "combination": "자동",
  "lat": 34.31606,
  "lng": 126.7492
 },
 {
  "name": "주택복권2호점",
  "address": "경북 구미시 금오시장로 13 114호",
  "combination": "수동",
  "lat": 36.126236,
  "lng": 128.3407
 }
]