[
 {
  "name": "인터넷 복권판매사이트",
  "address": "동행복권(dhlottery.co.kr)",
  "combination": "자동",
  "lat": 37.482063,
  "lng": 127.015785
 },
 {
  "name": "진우복권",
  "address": "부산 연제구 월드컵대로 119 204호(연산동)",
  "combination": "자동",
  "lat": 35.184826,
  "lng": 129.08208
 },
 {
  "name": "희망복권방",
  "address": "인천 계양구 효서로 293",
  "combination": "자동",
  "lat": 37.52812,
  "lng": 126.728676
 },
 {
  "name": "GS25(야탑프리아점)",
  "address": "경기 성남시 분당구  야탑로 106 프리아오프스텔101호",
  "combination": "자동",
  "lat": 37.40956,
  "lng": 127.13057
 },
 {
  "name": "로또복권",
  "address": "경기 안산시 단원구 선부광장1로 121 중앙슈퍼 101호",
  "combination": "자동",
  "lat": 37.33222,
  "lng": 126.81208
 },
 {
  "name": "복권명당",
  "address": "경기 안성시 승두길 62",
  "combination": "자동",
  "lat": 37.000015,
  "lng": 127.17315
 },
 {
  "name": "행운복권편의점",
  "address": "경기 파주시 문향로 106",
  "combination": "수동",
  "lat": 37.860626,
  "lng": 126.787766
 },
 {
  "name": "금능마트",
  "address": "충북 충주시 후곡길 19 금능마트",
  "combination": "자동",
  "lat": 36.99255,
  "lng": 127.93122
 },
 {
  "name": "현대장미슈퍼",
  "address": "전북 익산시 동서로61길 41 현대아파트1층108호",
  "combination": "반자동",
  "lat": 35.95509,
  "lng": 126.98032
 },
 {
  "name": "행운복권방 보생당건강원",
  "address": "전북 익산시 무왕로 1268",
  "combination": "자동",
  "lat": 35.960304,
  "lng": 126.99727
 },
 {
  "name": "부자복권방",
  "address": "전북 전주시 완산구 서곡4길 45-4",
  "combination": "수동",
  "lat": 35.832405,
  "lng": 127.10309
 },
 {
  "name": "신신마트편의점",
  "address": "전남 목포시 철로마을길 36 신신마트",
  "combination": "수동",
  "lat": 34.804592,
  "lng": 126.38498
 },
 {
  "name": "신신마트편의점",
  "address": "전남 목포시 철로마을길 36 신신마트",
  "combination": "수동",
  "lat": 34.804592,
  "lng": 126.38498
 },
 {
  "name": "양산노다지복권방",
  "address": "경남 양산시 북안남2길 52 복권판매점",
  "combination": "수동",
  "lat": 35.348255,
  "lng": 129.03783
 }
]