[
 {
  "name": "대박로또",
  "address": "서울 성동구 용답19길 11",
  "combination": "자동",
  "lat": 37.56328,
  "lng": 127.052055
 },
 {
  "name": "하나열쇠",
  "address": "부산 남구 용호로 179",
  "combination": "수동",
  "lat": 35.116257,
  "lng": 129.11122
 },
 {
  "name": "삼성포토랜드",
  "address": "인천 강화군 강화읍 북문길 6",
  "combination": "자동",
  "lat": 37.74834,
  "lng": 126.48402
 },
 {
  "name": "대박마트",
  "address": "인천 남동구 호구포로 219 세중프라자1층101-2호",
  "combination": "자동",
  "lat": 37.40259,
  "lng": 126.70955
 },
 {
  "name": "세러데이 845",
  "address": "광주 광산구 첨단중앙로182번길 90 상가동 1층 129호(첨단대라수어썸시티)",
  "combination": "수동",
  "lat": 35.221333,
  "lng": 126.85135
 },
 {
  "name": "서종복권판매점",
  "address": "경기 고양시 덕양구 고양대로1315번길 5 1층",
  "combination": "자동",
  "lat": 37.656586,
  "lng": 126.83042
 },
 {
  "name": "동행로또복권방",
  "address": "경기 광명시 시청로 142-1 101호(철산동)",
  "combination": "자동",
  "lat": 37.487732,
  "lng": 126.868866
 },
 {
  "name": "훼밀리슈퍼",
  "address": "경기 구리시 건원대로34번길 19 세신훼밀리타운102",
  "combination": "자동",
  "lat": 37.604492,
  "lng": 127.14132
 },
 {
  "name": "해든복권나라",
  "address": "경기 부천시 소향로 239 대야하이빌투 106호",
  "combination": "수동",
  "lat": 37.50082,
  "lng": 126.77432
 },
 {
  "name": "행운복권",
  "address": "경기 의정부시 평화로 359 회룡한주아파트 상가동 110호",
  "combination": "자동",
  "lat": 37.723663,
  "lng": 127.04769
 },
 {
  "name": "교하로또판매점",
  "address": "경기 파주시 파주로 266 아이비타워108호",
  "combination": "자동",
  "lat": 37.7261,
  "lng": 126.71821
 },
 {
  "name": "좋은날 복권방",
  "address": "전북 남원시 의총로 78 메이커스쿨,용남건재,용남삼베,대동지업사",
  "combination": "수동",
  "lat": 35.407715,
  "lng": 127.37666
 },
 {
  "name": "조례로또복권방",
  "address": "전남 순천시 봉화2길 58 조례로또복권방",
  "combination": "자동",
  "lat": 34.95842,
  "lng": 127.51815
 },
 {
  "name": "대박찬스",
  "address": "전남 여수시 문수로 159-1",
  "combination": "수동",
  "lat": 34.758263,
  "lng": 127.71026
 }
]