[
 {
  "name": "행운복권방",
  "address": "서울 서대문구 북아현로 34-3",
  "combination": "수동",
  "lat": 37.560616,
  "lng": 126.95637
 },
 {
  "name": "버스판매소",
  "address": "서울 영등포구 영중로 2 1층(영등포동3가)",
  "combination": "자동",
  "lat": 37.516743,
  "lng": 126.906746
 },
 {
  "name": "가자세계주류(종로점)",
  "address": "서울 종로구 수표로 112-1",
  "combination": "자동",
  "lat": 37.571312,
  "lng": 126.98937
 },
 {
  "name": "신호 로또판매점",
  "address": "부산 강서구 신호산단2로  53-1 1층 103호",
  "combination": "자동",
  "lat": 35.084236,
  "lng": 128.8777
 },
 {
  "name": "팬레코드",
  "address": "부산 남구 수영로 253",
  "combination": "자동",
  "lat": 35.135506,
  "lng": 129.09416
 },
 {
  "name": "럭키복권",
  "address": "경기 김포시 김포대로 2231 1층 2호",
  "combination": "자동",
  "lat": 37.71163,
  "lng": 126.59931
 },
 {
  "name": "쿠아안경원",
  "address": "경기 안산시 단원구 신각길 44 휴먼빌2차아파트상가102호",
  "combination": "자동",
  "lat": 37.337414,
  "lng": 126.77469
 },
 {
  "name": "로또복권방",
  "address": "경기 의정부시 평화로 223,(호원동)",
  "combination": "자동",
  "lat": 37.711746,
  "lng": 127.04727
 },
 {
  "name": "지에스(GS)25 진동에이스점",
  "address": "경남 창원시 마산합포구 신서촌1길 49 1층 GS편의점내",
  "combination": "수동",
  "lat": 35.115906,
  "lng": 128.48639
 },
 {
  "name": "영화복권",
  "address": "경남 창원시 진해구 안청남로 14",
  "combination": "자동",
  "lat": 35.10107,
  "lng": 128.8045
 }
]