[
 {
  "name": "로또카페",
  "address": "서울 강서구 강서로74길 3 1층 6호",
  "combination": "수동",
  "lat": 37.567844,
  "lng": 126.8415
 },
 {
  "name": "부자랑",
  "address": "서울 성동구 둘레15길 23",
  "combination": "자동",
  "lat": 37.53688,
  "lng": 127.05523
 },
 {
  "name": "잠실나루역2번출구",
  "address": "서울 송파구 올림픽로37길 109 잠실나루역 2번출구",
  "combination": "자동",
  "lat": 37.522404,
  "lng": 127.104744
 },
 {
  "name": "셀프카메라",
  "address": "부산 부산진구 가야대로443번길 30",
  "combination": "자동",
  "lat": 35.154446,
  "lng": 129.02167
 },
 {
  "name": "무지개상점",
  "address": "부산 해운대구 좌동로91번길 45",
  "combination": "자동",
  "lat": 35.17413,
  "lng": 129.1736
 },
 {
  "name": "동수슈퍼문구복권",
  "address": "인천 부평구 동수로 101",
  "combination": "자동",
  "lat": 37.485455,
  "lng": 126.72979
 },
 {
  "name": "로또기업",
  "address": "대전 동구 동서대로 1684 복합터미널 건너편",
  "combination": "반자동",
  "lat": 36.348797,
  "lng": 127.43712
 },
 {
  "name": "풍전슈퍼",
  "address": "경기 부천시 조마루로 428,(원미동)",
  "combination": "자동",
  "lat": 37.49708,
  "lng": 126.79113
 },
 {
  "name": "안성휴게소 복권판매점(부산방향)",
  "address": "경기 안성시 경부고속도로 365 안성휴게소 하행선 내",
  "combination": "자동",
  "lat": 37.013092,
  "lng": 127.145065
 },
 {
  "name": "로또.토토.블루베리",
  "address": "경기 평택시 안현로서6길 7 대건빌딩 105호",
  "combination": "수동",
  "lat": 36.98331,
  "lng": 126.928055
 },
 {
  "name": "이마트24 마산만복점",
  "address": "경남 창원시 마산회원구 합성옛길 152",
  "combination": "자동",
  "lat": 35.238274,
  "lng": 128.5839
 },
 {
  "name": "죽림프라자",
  "address": "경남 통영시 신죽1길 90 죽림프라자 1층 105호 CU편의점",
  "combination": "자동",
  "lat": 34.87458,
  "lng": 128.41788
 }
]