[
 {
  "name": "신명",
  "address": "서울 강서구 방화동로3길 1",
  "combination": "수동",
  "lat": 37.562435,
  "lng": 126.80841
 },
 {
  "name": "축복마트",
  "address": "서울 중랑구 동일로 616",
  "combination": "수동",
  "lat": 37.58539,
  "lng": 127.08006
 },
 {
  "name": "G마트",
  "address": "부산 북구 백양대로 1024",
  "combination": "수동",
  "lat": 35.19702,
  "lng": 128.99542
 },
 {
  "name": "훼미리로또",
  "address": "광주 남구 봉선로 164 삼환빌딩 CU봉선쌍용점 내",
  "combination": "수동",
  "lat": 35.122723,
  "lng": 126.91318
 },
 {
  "name": "MY레몬",
  "address": "경기 광명시 금하로 533 1층일부(소하동)",
  "combination": "자동",
  "lat": 37.451748,
  "lng": 126.89129
 },
 {
  "name": "좋은날",
  "address": "경기 부천시 역곡로490번길 27 101호",
  "combination": "자동",
  "lat": 37.52829,
  "lng": 126.81764
 },
 {
  "name": "싼타슈퍼",
  "address": "경기 시흥시 군서마을로 42",
  "combination": "자동",
  "lat": 37.345547,
  "lng": 126.747375
 },
 {
  "name": "주택복권방",
  "address": "경기 안양시 만안구 장내로 102-1",
  "combination": "수동",
  "lat": 37.395725,
  "lng": 126.91963
 },
 {
  "name": "또또복권방",
  "address": "전북 익산시 고봉로32길 3",
  "combination": "반자동",
  "lat": 35.95982,
  "lng": 126.971695
 },
 {
  "name": "역전로또",
  "address": "경북 경주시 원화로 260 1층 짐케어내",
  "combination": "자동",
  "lat": 35.843643,
  "lng": 129.21754
 },
 {
  "name": "대박찬스로또복권방",
  "address": "경북 의성군 문소3길 95-1",
  "combination": "수동",
  "lat": 36.354443,
  "lng": 128.69412
 }
]