[
 {
  "name": "노다지복권방",
  "address": "부산 수영구  연수로 257-2",
  "combination": "자동",
  "lat": 35.173306,
  "lng": 129.09906
 },
 {
  "name": "오렌지데이연산점",
  "address": "부산 연제구 거제천로 174",
  "combination": "자동",
  "lat": 35.18836,
  "lng": 129.07808
 },
 {
  "name": "세진전자통신",
  "address": "대구 서구 서대구로 156",
  "combination": "자동",
  "lat": 35.8719,
  "lng": 128.5552
 },
 {
  "name": "승차권판매소(북비산점)",
  "address": "대구 서구 달서로 201",
  "combination": "수동",
  "lat": 35.880478,
  "lng": 128.57124
 },
 {
  "name": "GS25(만평점)",
  "address": "대구 서구  팔달로 142 GS25만평점",
  "combination": "자동",
  "lat": 35.888996,
  "lng": 128.56564
 },
 {
  "name": "드림메드",
  "address": "경기 안산시 상록구 월피로 56 101호",
  "combination": "자동",
  "lat": 37.3334,
  "lng": 126.85087
 },
 {
  "name": "로또휴게실",
  "address": "경기 용인시 기흥구 용구대로 1885",
  "combination": "자동",
  "lat": 37.256386,
  "lng": 127.10432
 },
 {
  "name": "용인로또복권방",
  "address": "경기 용인시 처인구 백옥대로 2076-1",
  "combination": "자동",
  "lat": 37.31023,
  "lng": 127.24057
 },
 {
  "name": "노다지복권",
  "address": "강원 횡성군 문정로 52",
  "combination": "수동",
  "lat": 37.488537,
  "lng": 127.98868
 },
 {
  "name": "신신마트편의점",
  "address": "전남 목포시 철로마을길 36 신신마트",
  "combination": "수동",
  "lat": 34.804592,
  "lng": 126.38498
 },
 {
  "name": "소요(용담점)",
  "address": "제주 제주시 서문로 18-1",
  "combination": "수동",
  "lat": 33.50968,
  "lng": 126.51351
 }
]