[
 {
  "name": "인터넷 복권판매사이트",
  "address": "동행복권(dhlottery.co.kr)",
  "combination": "자동",
  "lat": 37.482063,
  "lng": 127.015785
 },
 {
  "name": "행운대박복권",
  "address": "서울 영등포구 영신로19길 8-1",
  "combination": "자동",
  "lat": 37.514385,
  "lng": 126.90675
 },
 {
  "name": "양광마트",
  "address": "서울 은평구 응암로 173-1",
  "combination": "자동",
  "lat": 37.587593,
  "lng": 126.91639
 },
 {
  "name": "하임마트",
  "address": "서울 중구 퇴계로 439-4 1층",
  "combination": "자동",
  "lat": 37.5659,
  "lng": 127.02076
 },
 {
  "name": "복권천국",
  "address": "부산 서구 구덕로 207-1",
  "combination": "수동",
  "lat": 35.10316,
  "lng": 129.01976
 },
 {
  "name": "씨스페이스(개나리점)",
  "address": "인천 남동구  인주대로 660 개나리빌딩 101호",
  "combination": "자동",
  "lat": 37.449345,
  "lng": 126.71038
 },
 {
  "name": "SK 복권방",
  "address": "인천 미추홀구 용정공원로 33 인천SKSkyVIEW 상가 A-2동 1층 104호",
  "combination": "수동",
  "lat": 37.44953,
  "lng": 126.645454
 },
 {
  "name": "원제슈퍼마켓",
  "address": "인천 부평구 마장로 458-1 1층",
  "combination": "자동",
  "lat": 37.519077,
  "lng": 126.70473
 },
 {
  "name": "대박천하마트",
  "address": "인천 부평구 굴포로 48",
  "combination": "자동",
  "lat": 37.51157,
  "lng": 126.72634
 },
 {
  "name": "알리바이로또하남3지구점",
  "address": "광주 광산구 하남대로 95 알리바이하남3지구점",
  "combination": "수동",
  "lat": 35.18028,
  "lng": 126.80372
 },
 {
  "name": "나라복권",
  "address": "울산 북구 명촌17길 23 울산명촌효성해링턴플레이스 8102동115호",
  "combination": "자동",
  "lat": 35.558796,
  "lng": 129.35432
 },
 {
  "name": "로또휴게실",
  "address": "경기 용인시 기흥구 용구대로 1885",
  "combination": "자동",
  "lat": 37.256386,
  "lng": 127.10432
 },
 {
  "name": "본 로또복권방",
  "address": "경기 포천시 장암1길 35",
  "combination": "수동",
  "lat": 38.03742,
  "lng": 127.36727
 },
 {
  "name": "터미널분식",
  "address": "충남 부여군 부장대로 65",
  "combination": "자동",
  "lat": 36.280716,
  "lng": 126.90962
 },
 {
  "name": "로또판매점",
  "address": "경북 예천군  예천읍 효자로 82",
  "combination": "자동",
  "lat": 36.656345,
  "lng": 128.45284
 }
]