[
 {
  "name": "교통카드판매대",
  "address": "서울 강동구 상일로15길 18 1층",
  "combination": "자동",
  "lat": 37.557686,
  "lng": 127.17006
 },
 {
  "name": "캐논종합",
  "address": "서울 용산구 청파로 101 나진10동가125호",
  "combination": "자동",
  "lat": 37.533337,
  "lng": 126.962296
 },
 {
  "name": "중구-가로가판대-37",
  "address": "서울 중구 남대문로 20-2,(남대문로3가)",
  "combination": "자동",
  "lat": 37.56083,
  "lng": 126.97805
 },
 {
  "name": "수천하명당",
  "address": "부산 부산진구 대학로 20-1 1층 복권방",
  "combination": "자동",
  "lat": 35.153778,
  "lng": 129.03671
 },
 {
  "name": "복권나라",
  "address": "대전 대덕구 신탄진동로 1",
  "combination": "수동",
  "lat": 36.447586,
  "lng": 127.4299
 },
 {
  "name": "골든박스",
  "address": "경기 광명시 하안로288번길 19 103호(하안동, 부림코아)",
  "combination": "자동",
  "lat": 37.472168,
  "lng": 126.8512
 },
 {
  "name": "복권명당",
  "address": "경북 경산시 경안로 214",
  "combination": "자동",
  "lat": 35.82663,
  "lng": 128.73682
 },
 {
  "name": "나우리고현점",
  "address": "경남 거제시 거제중앙로 1904",
  "combination": "자동",
  "lat": 34.88801,
  "lng": 128.62357
 }
]