[
 {
  "name": "행운의집",
  "address": "서울 광진구 능동로19길 7",
  "combination": "자동",
  "lat": 37.54692,
  "lng": 127.07332
 },
 {
  "name": "인터넷 복권판매사이트",
  "address": "동행복권(dhlottery.co.kr)",
  "combination": "자동",
  "lat": 37.482063,
  "lng": 127.015785
 },
 {
  "name": "홈돌이로또복권",
  "address": "경기 김포시 중봉로 14 삼성홈플러스2층",
  "combination": "자동",
  "lat": 37.623863,
  "lng": 126.69863
 },
 {
  "name": "금곡로",
  "address": "경기 수원시 권선구 금곡로197번길 18-23 해피라움블루 105호(금곡동, 해피라움블루)",
  "combination": "자동",
  "lat": 37.27511,
  "lng": 126.95279
 },
 {
  "name": "드림통신(구)굿타임24아산석정점",
  "address": "충남 아산시 충무로 230",
  "combination": "자동",
  "lat": 36.8013,
  "lng": 127.00762
 },
 {
  "name": "굿모닝",
  "address": "전남 순천시 중앙로 220 굿모닝",
  "combination": "자동",
  "lat": 34.965294,
  "lng": 127.484985
 },
 {
  "name": "월야하나로복권",
  "address": "전남 함평군 밀재로 1512 1층",
  "combination": "자동",
  "lat": 35.17929,
  "lng": 126.62806
 },
 {
  "name": "안계 나눔로또",
  "address": "경북 의성군 안계시장길 43",
  "combination": "자동",
  "lat": 36.38517,
  "lng": 128.4369
 },
 {
  "name": "블루진 로또점",
  "address": "경남 거제시 거제중앙로19길 8 102호",
  "combination": "자동",
  "lat": 34.885803,
  "lng": 128.62367
 },
 {
  "name": "빙고복권방  잉크충전방",
  "address": "제주 제주시 남녕로 36 영진그린빌라 영진그린빌라102호",
  "combination": "반자동",
  "lat": 33.490906,
  "lng": 126.48094
 }
]