[
 {
  "name": "신영슈퍼",
  "address": "서울 강남구 광평로51길 27 삼익아파트상가101호",
  "combination": "수동",
  "lat": 37.48915,
  "lng": 127.10092
 },
 {
  "name": "노다지복권방",
  "address": "인천 미추홀구 한나루로 400 학익시장 외7필지125호",
  "combination": "자동",
  "lat": 37.443375,
  "lng": 126.66496
 },
 {
  "name": "타운복권방",
  "address": "광주 북구 밤실로 184-1",
  "combination": "수동",
  "lat": 35.16375,
  "lng": 126.93414
 },
 {
  "name": "로또복권벽산블루밍",
  "address": "대전 서구 갈마로 262",
  "combination": "자동",
  "lat": 36.33321,
  "lng": 127.38101
 },
 {
  "name": "이마트24울산삼산본동점",
  "address": "울산 남구 돋질로 445",
  "combination": "자동",
  "lat": 35.54275,
  "lng": 129.35355
 },
 {
  "name": "근처로또",
  "address": "경기 수원시 팔달구 효원로 187 1층 102호(인계동)",
  "combination": "수동",
  "lat": 37.264214,
  "lng": 127.02254
 },
 {
  "name": "천하명당",
  "address": "경기 시흥시 신천3길 26-1 1층1호",
  "combination": "자동",
  "lat": 37.438892,
  "lng": 126.783295
 },
 {
  "name": "로또명당",
  "address": "경기 시흥시 신현로 21-1 101호",
  "combination": "수동",
  "lat": 37.40707,
  "lng": 126.78708
 },
 {
  "name": "행운팡팡 복권방",
  "address": "경기 안양시 동안구 경수대로 980 안양임곡휴먼시아나상가동 101호(비산동,임곡휴먼시아 나상가동)",
  "combination": "자동",
  "lat": 37.401207,
  "lng": 126.92935
 },
 {
  "name": "금성24시편의점",
  "address": "경기 양주시 화합로 1355",
  "combination": "수동",
  "lat": 37.843998,
  "lng": 127.06234
 },
 {
  "name": "형창",
  "address": "경기 파주시 검바위길 144-12",
  "combination": "수동",
  "lat": 37.787582,
  "lng": 126.77003
 },
 {
  "name": "신나는복권방",
  "address": "경기 파주시 문향로 51-1",
  "combination": "수동",
  "lat": 37.856716,
  "lng": 126.78506
 },
 {
  "name": "부자되세요복권방",
  "address": "경기 평택시 진위서로 3",
  "combination": "자동",
  "lat": 37.109608,
  "lng": 127.06377
 },
 {
  "name": "대박복권방",
  "address": "경북 의성군 중앙길 52",
  "combination": "자동",
  "lat": 36.349,
  "lng": 128.69728
 },
 {
  "name": "본스튜디오",
  "address": "제주 제주시 하귀로 111",
  "combination": "자동",
  "lat": 33.48359,
  "lng": 126.407875
 }
]