[
 {
  "name": "대박종합복권가로판매점",
  "address": "서울 서대문구 신촌로 75,(창천동)",
  "combination": "자동",
  "lat": 37.55614,
  "lng": 126.934845
 },
 {
  "name": "왕자사진관",
  "address": "서울 중랑구 양원역로 2 일흥빌딩1층1,2호",
  "combination": "수동",
  "lat": 37.600822,
  "lng": 127.10859
 },
 {
  "name": "GS25 뉴강서역점",
  "address": "부산 강서구 대저로 275 1층",
  "combination": "자동",
  "lat": 35.212795,
  "lng": 128.98227
 },
 {
  "name": "세븐일레븐 현풍대로점",
  "address": "대구 달성군 비슬로 581 세븐일레븐현풍대로점",
  "combination": "자동",
  "lat": 35.690544,
  "lng": 128.44447
 },
 {
  "name": "하늘바다 편의점 복권방",
  "address": "인천 부평구 부흥로 389 백산빌딩 1층 102호",
  "combination": "자동",
  "lat": 37.498116,
  "lng": 126.7353
 },
 {
  "name": "대박복권방",
  "address": "인천 서구 대평로 3",
  "combination": "자동",
  "lat": 37.547123,
  "lng": 126.67662
 },
 {
  "name": "성명전력",
  "address": "경기 동두천시 큰시장로 43",
  "combination": "수동",
  "lat": 37.90014,
  "lng": 127.05292
 },
 {
  "name": "용꿈돼지꿈복권방",
  "address": "경기 시흥시 하중로 235 법조타운103호",
  "combination": "자동",
  "lat": 37.390877,
  "lng": 126.806526
 },
 {
  "name": "대박로또방",
  "address": "경남 양산시 삼호로 71 1층 2호",
  "combination": "자동",
  "lat": 35.40772,
  "lng": 129.17218
 },
 {
  "name": "태금편의점",
  "address": "경남 창원시 마산회원구 옥정3길 25 신축건물1층",
  "combination": "자동",
  "lat": 35.25252,
  "lng": 128.51942
 }
]