[
 {
  "name": "다모아복권",
  "address": "서울 구로구 경인로19길 4",
  "combination": "자동",
  "lat": 37.495926,
  "lng": 126.84278
 },
 {
  "name": "인터넷 복권판매사이트",
  "address": "동행복권(dhlottery.co.kr)",
  "combination": "수동",
  "lat": 37.482063,
  "lng": 127.015785
 },
 {
  "name": "터서점",
  "address": "부산 동래구 아시아드대로 227",
  "combination": "자동",
  "lat": 35.204365,
  "lng": 129.06686
 },
 {
  "name": "GS25(서면일번가점)",
  "address": "부산 부산진구  신천대로62번길 34 동흥빌딩",
  "combination": "자동",
  "lat": 35.15229,
  "lng": 129.05861
 },
 {
  "name": "호선상회",
  "address": "부산 사하구 동매로 167",
  "combination": "자동",
  "lat": 35.101536,
  "lng": 128.9764
 },
 {
  "name": "짱25시",
  "address": "대구 수성구 달구벌대로 2610,(만촌동)",
  "combination": "자동",
  "lat": 35.858044,
  "lng": 128.64769
 },
 {
  "name": "명동슈퍼",
  "address": "경기 광명시 디지털로 17 1동 107호(철산동, (주)티오티비 오렌지타운)",
  "combination": "자동",
  "lat": 37.474014,
  "lng": 126.86936
 },
 {
  "name": "나눔로또 판교역점",
  "address": "경기 성남시 분당구 대왕판교로606번길 39 107호",
  "combination": "자동",
  "lat": 37.396473,
  "lng": 127.11148
 },
 {
  "name": "대박로또판매점",
  "address": "경기 수원시 장안구 서부로 2129-1 태양공예가구",
  "combination": "자동",
  "lat": 37.298717,
  "lng": 126.97125
 },
 {
  "name": "왕대박찬스",
  "address": "제주 서귀포시 중앙로 64 랑경플라워",
  "combination": "자동",
  "lat": 33.250248,
  "lng": 126.56171
 }
]