[
 {
  "name": "복권나라",
  "address": "서울 관악구 은천로 40-1",
  "combination": "수동",
  "lat": 37.48599,
  "lng": 126.93982
 },
 {
  "name": "팬시겔러리",
  "address": "서울 서대문구 통일로 153-1",
  "combination": "자동",
  "lat": 37.567715,
  "lng": 126.96443
 },
 {
  "name": "희망복권방",
  "address": "부산 동래구 명장로20번길 26,(명장동)",
  "combination": "자동",
  "lat": 35.204823,
  "lng": 129.10197
 },
 {
  "name": "덩굴유통",
  "address": "부산 서구 까치고개로 202-2",
  "combination": "자동",
  "lat": 35.09974,
  "lng": 129.018
 },
 {
  "name": "이마트24대구안심점",
  "address": "대구 동구 안심로 448 이마트24",
  "combination": "자동",
  "lat": 35.87093,
  "lng": 128.73286
 },
 {
  "name": "온천로또방",
  "address": "대전 유성구 계룡로 92 유성CJ나인파크 1층 101-3호",
  "combination": "수동",
  "lat": 36.353638,
  "lng": 127.34119
 },
 {
  "name": "로또삼성복권방",
  "address": "경기 수원시 영통구 매영로 141 원천훼밀리타운 원천훼미리타운105호",
  "combination": "자동",
  "lat": 37.26672,
  "lng": 127.05813
 },
 {
  "name": "행운복권",
  "address": "경기 시흥시 오이도로157번길 24 1층 상가",
  "combination": "수동",
  "lat": 37.346252,
  "lng": 126.69073
 },
 {
  "name": "돼지복권슈퍼",
  "address": "경기 안산시 상록구 부곡로 116 102호",
  "combination": "수동",
  "lat": 37.33222,
  "lng": 126.863205
 },
 {
  "name": "일등복권",
  "address": "경기 양주시 송랑로 223",
  "combination": "자동",
  "lat": 37.804436,
  "lng": 127.08527
 },
 {
  "name": "리치조이",
  "address": "경기 용인시 수지구 죽전로168번길  17 GS25단국대앞",
  "combination": "자동",
  "lat": 37.324577,
  "lng": 127.12517
 },
 {
  "name": "G(금정)마트휴게실",
  "address": "전북 군산시 조촌로 66",
  "combination": "반자동",
  "lat": 35.969856,
  "lng": 126.73807
 },
 {
  "name": "스타마트",
  "address": "경북 구미시 임은길 15",
  "combination": "자동",
  "lat": 36.087524,
  "lng": 128.36456
 }
]