[
 {
  "name": "주택복권사랑방",
  "address": "서울 관악구 난곡로 363-1",
  "combination": "자동",
  "lat": 37.486427,
  "lng": 126.91341
 },
 {
  "name": "GS25(트윈테크점)",
  "address": "서울 금천구  가산디지털1로 119 SK트윈테크타워 SK트윈테크타워A동-103호",
  "combination": "자동",
  "lat": 37.476254,
  "lng": 126.883194
 },
 {
  "name": "인터넷 복권판매사이트",
  "address": "동행복권(dhlottery.co.kr)",
  "combination": "수동",
  "lat": 37.482063,
  "lng": 127.015785
 },
 {
  "name": "인터넷 복권판매사이트",
  "address": "동행복권(dhlottery.co.kr)",
  "combination": "수동",
  "lat": 37.482063,
  "lng": 127.015785
 },
 {
  "name": "뮤직마트",
  "address": "서울 서초구 강남대로 212",
  "combination": "자동",
  "lat": 37.48313,
  "lng": 127.036026
 },
 {
  "name": "인터넷 복권판매사이트",
  "address": "동행복권(dhlottery.co.kr)",
  "combination": "자동",
  "lat": 37.482063,
  "lng": 127.015785
 },
 {
  "name": "인터넷 복권판매사이트",
  "address": "동행복권(dhlottery.co.kr)",
  "combination": "수동",
  "lat": 37.482063,
  "lng": 127.015785
 },
 {
  "name": "인터넷 복권판매사이트",
  "address": "동행복권(dhlottery.co.kr)",
  "combination": "수동",
  "lat": 37.482063,
  "lng": 127.015785
 },
 {
  "name": "인터넷 복권판매사이트",
  "address": "동행복권(dhlottery.co.kr)",
  "combination": "수동",
  "lat": 37.482063,
  "lng": 127.015785
 },
 {
  "name": "돼지복권명당",
  "address": "부산 기장군 해맞이로 365-1",
  "combination": "자동",
  "lat": 35.32655,
  "lng": 129.27667
 },
 {
  "name": "대원슈퍼마켓",
  "address": "부산 수영구 수영로 524",
  "combination": "자동",
  "lat": 35.152473,
  "lng": 129.112
 },
 {
  "name": "수 종합인테리어",
  "address": "인천 서구 서곶로 788",
  "combination": "자동",
  "lat": 37.587936,
  "lng": 126.67538
 },
 {
  "name": "CU(군포덕산점)",
  "address": "경기 군포시  고산로250번길 32 덕산아파트 덕산아파트상가 1층",
  "combination": "자동",
  "lat": 37.348972,
  "lng": 126.94522
 },
 {
  "name": "복권나라",
  "address": "경기 남양주시 도농로 13",
  "combination": "수동",
  "lat": 37.607224,
  "lng": 127.15675
 },
 {
  "name": "역곡역전로또",
  "address": "경기 부천시 경인로 506 가판대",
  "combination": "자동",
  "lat": 37.4839,
  "lng": 126.811646
 },
 {
  "name": "CU(의정부시청점)",
  "address": "경기 의정부시  의정로22번길 38",
  "combination": "반자동",
  "lat": 37.7347,
  "lng": 127.0374
 },
 {
  "name": "복돼지복권방",
  "address": "전북 익산시 선화로1길 4 배산시티프라자 배산시티프라자 1층 107호",
  "combination": "자동",
  "lat": 35.950245,
  "lng": 126.93804
 },
 {
  "name": "터미널복권방",
  "address": "전북 정읍시 연지8길 6",
  "combination": "자동",
  "lat": 35.57231,
  "lng": 126.84499
 },
 {
  "name": "희망복권방",
  "address": "전남 나주시 풍물시장1길 3",
  "combination": "자동",
  "lat": 34.99262,
  "lng": 126.70952
 },
 {
  "name": "로또판매점",
  "address": "경남 고성군 고성읍 중앙로 20",
  "combination": "자동",
  "lat": 34.974285,
  "lng": 128.32237
 }
]