[
 {
  "name": "행운열차복권방",
  "address": "부산 사하구 옥천로 15-1",
  "combination": "수동",
  "lat": 35.089,
  "lng": 129.00534
 },
 {
  "name": "복권천국",
  "address": "인천 남동구 석산로 120",
  "combination": "자동",
  "lat": 37.460194,
  "lng": 126.70505
 },
 {
  "name": "로또슈퍼",
  "address": "광주 서구 상일로 37 모아제일아파트상가1층102호",
  "combination": "자동",
  "lat": 35.15875,
  "lng": 126.8621
 },
 {
  "name": "성호복권방",
  "address": "대전 대덕구 신일동로 1",
  "combination": "수동",
  "lat": 36.444744,
  "lng": 127.40511
 },
 {
  "name": "행운로또",
  "address": "경기 김포시 약암로 911",
  "combination": "자동",
  "lat": 37.635002,
  "lng": 126.55378
 },
 {
  "name": "금곡로",
  "address": "경기 수원시 권선구 금곡로197번길 18-23 해피라움블루 105호(금곡동, 해피라움블루)",
  "combination": "수동",
  "lat": 37.27511,
  "lng": 126.95279
 },
 {
  "name": "천하명당",
  "address": "경기 시흥시 신천3길 26-1 1층1호",
  "combination": "자동",
  "lat": 37.438892,
  "lng": 126.783295
 },
 {
  "name": "산타복권방",
  "address": "경기 안성시 아양1로 77-10 해천프라자 제1동 104호",
  "combination": "수동",
  "lat": 37.008053,
  "lng": 127.25844
 },
 {
  "name": "로또나라",
  "address": "경기 파주시 자유로 2212",
  "combination": "자동",
  "lat": 37.700043,
  "lng": 126.68377
 },
 {
  "name": "서해로또방",
  "address": "경기 화성시 화성로 1471",
  "combination": "반자동",
  "lat": 37.223217,
  "lng": 126.84257
 },
 {
  "name": "전천후로또",
  "address": "강원 춘천시 후석로 456 1층",
  "combination": "반자동",
  "lat": 37.88991,
  "lng": 127.74183
 },
 {
  "name": "로또복권방",
  "address": "충남 당진시 당진중앙1로 21",
  "combination": "자동",
  "lat": 36.892937,
  "lng": 126.62633
 },
 {
  "name": "행운복권방 보생당건강원",
  "address": "전북 익산시 무왕로 1268",
  "combination": "자동",
  "lat": 35.960304,
  "lng": 126.99727
 },
 {
  "name": "행복충전소",
  "address": "경북 예천군 행복로 229 상가 102호",
  "combination": "수동",
  "lat": 36.577965,
  "lng": 128.48993
 }
]