[
 {
  "name": "바이복",
  "address": "서울 강남구 일원로5길 19",
  "combination": "자동",
  "lat": 37.491383,
  "lng": 127.082275
 },
 {
  "name": "잠실매점",
  "address": "서울 송파구 올림픽로 269 잠실역 8번출구 앞 가판",
  "combination": "자동",
  "lat": 37.514446,
  "lng": 127.10071
 },
 {
  "name": "희망복권판매점",
  "address": "인천 서구 보듬5로 5 오덕프라자 104호일부",
  "combination": "수동",
  "lat": 37.594208,
  "lng": 126.61228
 },
 {
  "name": "베스토아(용전2호)",
  "address": "대전 동구 동서대로 1689 복합터미널서관1층59호",
  "combination": "자동",
  "lat": 36.35038,
  "lng": 127.43664
 },
 {
  "name": "석교복권천국",
  "address": "대전 중구 대종로 212-1,(석교동)",
  "combination": "자동",
  "lat": 36.309,
  "lng": 127.443855
 },
 {
  "name": "CU(군포덕산점)",
  "address": "경기 군포시  고산로250번길 32 덕산아파트 덕산아파트상가 1층",
  "combination": "자동",
  "lat": 37.348972,
  "lng": 126.94522
 },
 {
  "name": "대박로또판매점",
  "address": "경기 수원시 장안구 서부로 2129-1 태양공예가구",
  "combination": "자동",
  "lat": 37.298717,
  "lng": 126.97125
 },
 {
  "name": "금도끼복권방",
  "address": "경기 양평군 용문로 812 1층",
  "combination": "수동",
  "lat": 37.50729,
  "lng": 127.63166
 },
 {
  "name": "노다지복권방",
  "address": "경기 용인시 처인구 금령로 130",
  "combination": "자동",
  "lat": 37.23509,
  "lng": 127.2105
 },
 {
  "name": "우리로또",
  "address": "충남 서산시 충의로 1231 화천슈퍼 이마트24편의점",
  "combination": "자동",
  "lat": 36.877323,
  "lng": 126.439514
 },
 {
  "name": "153로또판매점",
  "address": "충남 아산시 배방로 57-23",
  "combination": "수동",
  "lat": 36.772297,
  "lng": 127.05734
 },
 {
  "name": "드림로또",
  "address": "전북 전주시 덕진구 소리로 198",
  "combination": "자동",
  "lat": 35.85812,
  "lng": 127.15354
 },
 {
  "name": "미래유통",
  "address": "전남 목포시 영산로 623",
  "combination": "자동",
  "lat": 34.82103,
  "lng": 126.42085
 },
 {
  "name": "금당복권방",
  "address": "전남 순천시 조례못등길 97",
  "combination": "자동",
  "lat": 34.9494,
  "lng": 127.5287
 },
 {
  "name": "GMART",
  "address": "경북 구미시 구미중앙로 57-3",
  "combination": "자동",
  "lat": 36.130028,
  "lng": 128.32906
 },
 {
  "name": "행복복권판매점",
  "address": "경남 사천시 조동길 49-15 101,102호",
  "combination": "자동",
  "lat": 35.060253,
  "lng": 128.06752
 },
 {
  "name": "동원복권",
  "address": "경남 양산시 북정중앙로 30",
  "combination": "자동",
  "lat": 35.36137,
  "lng": 129.04784
 },
 {
  "name": "로또판매업",
  "address": "경남 양산시 북정로 31 CU편의점 내",
  "combination": "자동",
  "lat": 35.35902,
  "lng": 129.04372
 },
 {
  "name": "세븐일레븐창원사림중앙점",
  "address": "경남 창원시 의창구 창이대로413번길 32 세븐일레븐",
  "combination": "자동",
  "lat": 35.244663,
  "lng": 128.68405
 },
 {
  "name": "GS25(노형이화점)",
  "address": "제주 제주시  원노형로 3",
  "combination": "수동",
  "lat": 33.4881,
  "lng": 126.48404
 }
]