[
 {
  "name": "GS25(봉천메트로점)",
  "address": "서울 관악구  남부순환로 1811 신원메트로빌오피스텔101호",
  "combination": "자동",
  "lat": 37.481613,
  "lng": 126.95172
 },
 {
  "name": "부자랑",
  "address": "서울 성동구 둘레15길 23",
  "combination": "수동",
  "lat": 37.53688,
  "lng": 127.05523
 },
 {
  "name": "원스탑",
  "address": "서울 송파구 백제고분로7길 39",
  "combination": "자동",
  "lat": 37.510902,
  "lng": 127.08321
 },
 {
  "name": "행운의사랑방",
  "address": "서울 영등포구 도림로 465",
  "combination": "자동",
  "lat": 37.51568,
  "lng": 126.891594
 },
 {
  "name": "평화슈퍼",
  "address": "서울 은평구 연서로 198-1,(대조동)",
  "combination": "수동",
  "lat": 37.61628,
  "lng": 126.919014
 },
 {
  "name": "GS25(칠곡미래점)",
  "address": "대구 북구  동암로 181",
  "combination": "반자동",
  "lat": 35.943455,
  "lng": 128.57077
 },
 {
  "name": "서구제일로또",
  "address": "인천 서구 봉수대로 1589 금곡종합상가 B동 5호",
  "combination": "수동",
  "lat": 37.61379,
  "lng": 126.6414
 },
 {
  "name": "용두천하",
  "address": "광주 북구 하서로 373",
  "combination": "수동",
  "lat": 35.20835,
  "lng": 126.87351
 },
 {
  "name": "대박 오렌지24시 편의점",
  "address": "경기 고양시 덕양구 고양대로1369번길 7 1층",
  "combination": "자동",
  "lat": 37.65515,
  "lng": 126.83632
 },
 {
  "name": "GS25(고양주교점)",
  "address": "경기 고양시 덕양구  마상로113번길 68 1층 3호",
  "combination": "자동",
  "lat": 37.6629,
  "lng": 126.83835
 },
 {
  "name": "이마트24 일산덕이점",
  "address": "경기 고양시 일산서구 미래로 164",
  "combination": "자동",
  "lat": 37.69311,
  "lng": 126.74687
 },
 {
  "name": "로또25시",
  "address": "경기 수원시 권선구 금곡로102번길 15 비즈웍스 비즈웍스 111호",
  "combination": "자동",
  "lat": 37.27328,
  "lng": 126.94183
 },
 {
  "name": "버스표가판점",
  "address": "경기 안양시 동안구 동안로 125-2 범계역4-1출구앞 버스표가판점",
  "combination": "자동",
  "lat": 37.389736,
  "lng": 126.95106
 },
 {
  "name": "나도일등광혜원",
  "address": "충북 진천군 화랑5길 24-7",
  "combination": "자동",
  "lat": 36.99291,
  "lng": 127.439285
 },
 {
  "name": "대박복권방",
  "address": "충남 당진시 서해안고속도로 275 행담도휴게소 내",
  "combination": "자동",
  "lat": 36.891174,
  "lng": 126.625305
 },
 {
  "name": "콘테인복권판매점",
  "address": "충남 천안시 동남구 청수11로 13-11 건물 뒤편 콘테인커피숍 내",
  "combination": "수동",
  "lat": 36.783344,
  "lng": 127.15366
 },
 {
  "name": "목화휴게소",
  "address": "경남 사천시 사천대로 912",
  "combination": "자동",
  "lat": 35.0018,
  "lng": 128.05415
 }
]