[
 {
  "name": "로또구포점",
  "address": "부산 북구 덕천2길 23-3 1층",
  "combination": "자동",
  "lat": 35.209282,
  "lng": 129.00656
 },
 {
  "name": "노다지복권방",
  "address": "대전 서구 조달청길 62",
  "combination": "자동",
  "lat": 36.31912,
  "lng": 127.3753
 },
 {
  "name": "금강복권",
  "address": "경기 김포시 율생로 3",
  "combination": "자동",
  "lat": 37.652786,
  "lng": 126.59066
 },
 {
  "name": "행운복권",
  "address": "경기 수원시 권선구 권선로 774-1",
  "combination": "자동",
  "lat": 37.256557,
  "lng": 127.03559
 },
 {
  "name": "오복 복권",
  "address": "강원 강릉시 율곡로 2807",
  "combination": "자동",
  "lat": 37.755302,
  "lng": 128.89975
 },
 {
  "name": "춘향로또",
  "address": "전북 남원시 동림로 102-1",
  "combination": "자동",
  "lat": 35.41707,
  "lng": 127.384926
 },
 {
  "name": "로또행운마트",
  "address": "경남 김해시 능동로 177 복권판매점",
  "combination": "수동",
  "lat": 35.203793,
  "lng": 128.81001
 },
 {
  "name": "황금돼지 마트(복권방)",
  "address": "경남 김해시 금관대로599번길 29 부영9단지상가 108호",
  "combination": "수동",
  "lat": 35.204685,
  "lng": 128.81357
 },
 {
  "name": "본스튜디오",
  "address": "제주 제주시 하귀로 111",
  "combination": "자동",
  "lat": 33.48359,
  "lng": 126.407875
 }
]