[
 {
  "name": "천하명당복권방독산점",
  "address": "서울 금천구 독산로85길 16",
  "combination": "자동",
  "lat": 37.472534,
  "lng": 126.90221
 },
 {
  "name": "서원탑훼미리",
  "address": "부산 동구 수정공원로 55 4동 1층 101호",
  "combination": "수동",
  "lat": 35.131424,
  "lng": 129.03888
 },
 {
  "name": "행운복권방",
  "address": "부산 부산진구 동평로 115",
  "combination": "수동",
  "lat": 35.16629,
  "lng": 129.042
 },
 {
  "name": "동명로또",
  "address": "부산 사상구 사상로 90",
  "combination": "수동",
  "lat": 35.155285,
  "lng": 128.99196
 },
 {
  "name": "일등복권편의점",
  "address": "대구 달서구 대명천로 220 1층",
  "combination": "자동",
  "lat": 35.84214,
  "lng": 128.53621
 },
 {
  "name": "경준유통",
  "address": "인천 중구 화랑목로100번길 65 104호",
  "combination": "자동",
  "lat": 37.494152,
  "lng": 126.499054
 },
 {
  "name": "행운드림복권",
  "address": "경기 김포시 초당로16번길 77 1층 106호",
  "combination": "수동",
  "lat": 37.641212,
  "lng": 126.675835
 },
 {
  "name": "행운드림복권",
  "address": "경기 김포시 초당로16번길 77 1층 106호",
  "combination": "수동",
  "lat": 37.641212,
  "lng": 126.675835
 },
 {
  "name": "홈플러스선부점로또판매",
  "address": "경기 안산시 단원구 삼일로 316 홈플러스",
  "combination": "수동",
  "lat": 37.33378,
  "lng": 126.81258
 },
 {
  "name": "붐",
  "address": "경기 파주시 동패로63번길 48-15 101호",
  "combination": "자동",
  "lat": 37.710728,
  "lng": 126.738
 },
 {
  "name": "동명로또",
  "address": "경기 화성시 동탄기흥로257번나길 8-1 103호",
  "combination": "자동",
  "lat": 37.182602,
  "lng": 127.089645
 },
 {
  "name": "영신슈퍼",
  "address": "충북 청주시 서원구 청남로 2119-1",
  "combination": "자동",
  "lat": 36.621258,
  "lng": 127.48743
 },
 {
  "name": "성정로또판매점",
  "address": "충남 천안시 서북구 동서대로 138 한미타올 페인트가게 옆 점포",
  "combination": "자동",
  "lat": 36.8255,
  "lng": 127.13837
 },
 {
  "name": "세븐일레븐영주가흥로또점",
  "address": "경북 영주시 대학로 144",
  "combination": "자동",
  "lat": 36.809658,
  "lng": 128.60965
 }
]