[
 {
  "name": "현대마트",
  "address": "서울 강남구 일원로 45 대훈빌딩 101호",
  "combination": "자동",
  "lat": 37.489906,
  "lng": 127.08152
 },
 {
  "name": "용꿈돼지꿈",
  "address": "인천 부평구 동암남로 11",
  "combination": "자동",
  "lat": 37.470974,
  "lng": 126.70482
 },
 {
  "name": "GS25(시화세종점)",
  "address": "경기 시흥시  정왕대로 56 세종월드빌딩114 115",
  "combination": "수동",
  "lat": 37.3545,
  "lng": 126.72299
 },
 {
  "name": "GS25(시화세종점)",
  "address": "경기 시흥시  정왕대로 56 세종월드빌딩114 115",
  "combination": "수동",
  "lat": 37.3545,
  "lng": 126.72299
 },
 {
  "name": "메가마트",
  "address": "경기 시흥시 정왕대로 64 메가쇼핑몰1층123호",
  "combination": "수동",
  "lat": 37.354103,
  "lng": 126.72363
 },
 {
  "name": "황금알로또",
  "address": "경기 안성시 미양로 653 1층 1호 미니스톱편의점",
  "combination": "수동",
  "lat": 36.990776,
  "lng": 127.23802
 },
 {
  "name": "늘~행복나눔(터)",
  "address": "경기 이천시 중부대로 139  1층",
  "combination": "수동",
  "lat": 37.255905,
  "lng": 127.35176
 },
 {
  "name": "로또명당인주점",
  "address": "충남 아산시 서해로 519-2",
  "combination": "자동",
  "lat": 36.87784,
  "lng": 126.89828
 },
 {
  "name": "지에스(GS)25 진동에이스점",
  "address": "경남 창원시 마산합포구 신서촌1길 49 1층 GS편의점내",
  "combination": "자동",
  "lat": 35.115906,
  "lng": 128.48639
 },
 {
  "name": "동홍코사마트",
  "address": "제주 서귀포시 동홍북로 10 동홍코사마트 동홍코사마트내",
  "combination": "자동",
  "lat": 33.259064,
  "lng": 126.569405
 }
]