[
 {
  "name": "스파",
  "address": "서울 노원구 동일로 1493 상계주공아파트(10단지) 주공10단지종합상가111",
  "combination": "자동",
  "lat": 37.66166,
  "lng": 127.05787
 },
 {
  "name": "스파",
  "address": "서울 노원구 동일로 1493 상계주공아파트(10단지) 주공10단지종합상가111",
  "combination": "자동",
  "lat": 37.66166,
  "lng": 127.05787
 },
 {
  "name": "씨스페이스(구서제일점)",
  "address": "부산 금정구  수림로66번길 100",
  "combination": "자동",
  "lat": 35.243927,
  "lng": 129.08707
 },
 {
  "name": "복권천국",
  "address": "부산 남구 못골로 48-2",
  "combination": "자동",
  "lat": 35.13574,
  "lng": 129.08777
 },
 {
  "name": "대박유통",
  "address": "부산 중구 구덕로 80 1층",
  "combination": "반자동",
  "lat": 35.097702,
  "lng": 129.02716
 },
 {
  "name": "연경복권",
  "address": "대구 북구 동화천로 190 상가113호(상가301동)",
  "combination": "자동",
  "lat": 35.93986,
  "lng": 128.61217
 },
 {
  "name": "GS25(십정센터점)",
  "address": "인천 부평구  열우물로 161 B동",
  "combination": "자동",
  "lat": 37.478703,
  "lng": 126.6906
 },
 {
  "name": "새상무복권",
  "address": "광주 서구 치평로 30 수암빌딩 1층 102호",
  "combination": "자동",
  "lat": 35.149944,
  "lng": 126.84769
 },
 {
  "name": "행운로또복권방 봉명점",
  "address": "대전 유성구 계룡로74번길 20 리베라 아이누리",
  "combination": "수동",
  "lat": 36.353756,
  "lng": 127.33836
 },
 {
  "name": "24시슈퍼",
  "address": "경기 군포시 번영로 497 금화프라자 금화프라자102호",
  "combination": "수동",
  "lat": 37.358295,
  "lng": 126.93227
 },
 {
  "name": "화수분 복권판매점",
  "address": "경기 동두천시 행선로  101 생연동",
  "combination": "수동",
  "lat": 37.897213,
  "lng": 127.06238
 },
 {
  "name": "둘리복권방",
  "address": "경기 시흥시 중심상가2길 12-6 한강프라자제1층101호",
  "combination": "수동",
  "lat": 37.345314,
  "lng": 126.73626
 },
 {
  "name": "보은로또판매점",
  "address": "충북 보은군 보청대로 1892 식자재마트 앞 가판",
  "combination": "자동",
  "lat": 36.489136,
  "lng": 127.71749
 },
 {
  "name": "21세기로또",
  "address": "충북 제천시 의림대로 234-2 1층",
  "combination": "반자동",
  "lat": 37.148174,
  "lng": 128.21466
 }
]