[
 {
  "name": "세븐일레븐",
  "address": "서울 양천구 중앙로36길 15 목동힐스테이트 104호",
  "combination": "자동",
  "lat": 37.520966,
  "lng": 126.85539
 },
 {
  "name": "간이매점",
  "address": "경기 시흥시 삼미시장4길 26",
  "combination": "수동",
  "lat": 37.44011,
  "lng": 126.782
 },
 {
  "name": "오뚜기로또",
  "address": "경기 안산시 단원구 원초로 30 보성프라자 143호",
  "combination": "자동",
  "lat": 37.328346,
  "lng": 126.80174
 },
 {
  "name": "CU(원주무실대로점)",
  "address": "강원 원주시  시청로 84 1층 CU편의점",
  "combination": "자동",
  "lat": 37.33639,
  "lng": 127.92798
 },
 {
  "name": "한성로또복권",
  "address": "강원 정선군  고한9길 40",
  "combination": "수동",
  "lat": 37.196945,
  "lng": 128.85828
 },
 {
  "name": "순창복권방",
  "address": "전북 순창군 순창읍 장류로 369,(남계리)",
  "combination": "자동",
  "lat": 35.376488,
  "lng": 127.1428
 },
 {
  "name": "행운복권방",
  "address": "제주 제주시 우정로11길 12",
  "combination": "자동",
  "lat": 33.48765,
  "lng": 126.4322
 }
]