[
 {
  "name": "연남복권방",
  "address": "서울 마포구 성미산로28길 25 1층 우측상가(연남동, 스퀘어일레븐)",
  "combination": "자동",
  "lat": 37.562843,
  "lng": 126.92321
 },
 {
  "name": "인터넷 복권판매사이트",
  "address": "동행복권(dhlottery.co.kr)",
  "combination": "수동",
  "lat": 37.482063,
  "lng": 127.015785
 },
 {
  "name": "뉴빅마트",
  "address": "부산 기장군 정관중앙로 48 106호",
  "combination": "수동",
  "lat": 35.321114,
  "lng": 129.17929
 },
 {
  "name": "부일카서비스",
  "address": "부산 동구 자성로133번길 35",
  "combination": "자동",
  "lat": 35.140015,
  "lng": 129.06306
 },
 {
  "name": "장산복권방",
  "address": "부산 해운대구 해운대로81번길 8 야후공인중개사 사무소내",
  "combination": "자동",
  "lat": 35.190117,
  "lng": 129.12091
 },
 {
  "name": "복권나라",
  "address": "인천 미추홀구 토금북로 47",
  "combination": "자동",
  "lat": 37.453613,
  "lng": 126.63935
 },
 {
  "name": "로또판매점",
  "address": "인천 부평구 안남로 279",
  "combination": "자동",
  "lat": 37.507828,
  "lng": 126.70886
 },
 {
  "name": "샹제르망베어커리",
  "address": "광주 북구 능안로 27-1",
  "combination": "수동",
  "lat": 35.182335,
  "lng": 126.87081
 },
 {
  "name": "주엽역 로또판매점",
  "address": "경기 고양시 일산서구 중앙로 1437 화성프라자 도로",
  "combination": "자동",
  "lat": 37.670036,
  "lng": 126.76048
 },
 {
  "name": "복권 판매점",
  "address": "경기 구리시 안골로 103",
  "combination": "자동",
  "lat": 37.59766,
  "lng": 127.14259
 },
 {
  "name": "코사마트역전점",
  "address": "경기 평택시 중앙2로 1",
  "combination": "수동",
  "lat": 36.991993,
  "lng": 127.08722
 },
 {
  "name": "해피로또",
  "address": "경기 평택시 비전2로 121 103호",
  "combination": "자동",
  "lat": 37.00236,
  "lng": 127.10425
 },
 {
  "name": "LG25시북부점 로또복권",
  "address": "경남 양산시  중앙로 133 가1-72-13",
  "combination": "반자동",
  "lat": 35.34283,
  "lng": 129.03722
 }
]