[
 {
  "name": "신영슈퍼",
  "address": "서울 강남구 광평로51길 27 삼익아파트상가101호",
  "combination": "반자동",
  "lat": 37.48915,
  "lng": 127.10092
 },
 {
  "name": "월드 복권방",
  "address": "서울 강서구 곰달래로53길 41 1층 102호(화곡동, 재룡빌딩)",
  "combination": "수동",
  "lat": 37.533516,
  "lng": 126.85879
 },
 {
  "name": "현진식품",
  "address": "서울 구로구 중앙로 32",
  "combination": "수동",
  "lat": 37.500774,
  "lng": 126.86386
 },
 {
  "name": "아이러브마트복권방",
  "address": "울산 중구 유곡로 19-1",
  "combination": "수동",
  "lat": 35.55638,
  "lng": 129.30725
 },
 {
  "name": "복권나라",
  "address": "경기 고양시 일산동구 하늘마을1로 9 104호",
  "combination": "자동",
  "lat": 37.690933,
  "lng": 126.77658
 },
 {
  "name": "행운복권",
  "address": "경기 김포시 양도로19번길 7 가나프라자 105호",
  "combination": "자동",
  "lat": 37.60696,
  "lng": 126.724525
 },
 {
  "name": "CU(옥산사랑점)",
  "address": "경북 경산시  경산로40길 11",
  "combination": "자동",
  "lat": 35.826077,
  "lng": 128.7274
 },
 {
  "name": "GS25(양산혜인점)",
  "address": "경남 양산시  웅상대로 955",
  "combination": "수동",
  "lat": 35.384815,
  "lng": 129.15508
 }
]