[
 {
  "name": "GS25(방이중앙점)",
  "address": "서울 송파구  오금로11길 6",
  "combination": "자동",
  "lat": 37.51422,
  "lng": 127.10795
 },
 {
  "name": "갑부복권판매점",
  "address": "서울 용산구 대사관로 80",
  "combination": "자동",
  "lat": 37.53306,
  "lng": 127.006836
 },
 {
  "name": "미화당슈퍼한신태화점",
  "address": "부산 사상구 낙동대로1210번길 53 한신괘법1차아파트상가",
  "combination": "자동",
  "lat": 35.167786,
  "lng": 128.98055
 },
 {
  "name": "복권방",
  "address": "대구 달서구 성지로 66",
  "combination": "자동",
  "lat": 35.85494,
  "lng": 128.52121
 },
 {
  "name": "해피+24시편의점",
  "address": "광주 북구 하서로 330",
  "combination": "자동",
  "lat": 35.2045,
  "lng": 126.8739
 },
 {
  "name": "현암꽃플라워",
  "address": "대전 동구 태전로 167",
  "combination": "자동",
  "lat": 36.342148,
  "lng": 127.419106
 },
 {
  "name": "영화모음",
  "address": "경기 수원시 장안구 금당로39번길 6 뉴타운프라자A-107",
  "combination": "자동",
  "lat": 37.30316,
  "lng": 127.0161
 },
 {
  "name": "명지나눔로또",
  "address": "경기 용인시 처인구 명지로 41 에이치탑용인빌딩5 제지1층 제비111호",
  "combination": "자동",
  "lat": 37.230343,
  "lng": 127.18772
 },
 {
  "name": "행운복권",
  "address": "경기 의정부시 평화로 359 회룡한주아파트 상가동 110호",
  "combination": "수동",
  "lat": 37.723663,
  "lng": 127.04769
 },
 {
  "name": "팡팡복권방",
  "address": "경남 창원시 성산구 신촌로 101",
  "combination": "자동",
  "lat": 35.200634,
  "lng": 128.62883
 }
]