[
 {
  "name": "복권방",
  "address": "서울 마포구 백범로 127",
  "combination": "자동",
  "lat": 37.54653,
  "lng": 126.94544
 },
 {
  "name": "재원마트",
  "address": "서울 성북구 종암로21길 81",
  "combination": "자동",
  "lat": 37.60171,
  "lng": 127.03192
 },
 {
  "name": "가온공인중개사무소",
  "address": "인천 강화군 강화대로 294 (주)하늘환경 가온공인중개사",
  "combination": "자동",
  "lat": 37.742218,
  "lng": 126.496376
 },
 {
  "name": "버스표가판점",
  "address": "경기 안양시 동안구 동안로 125-2 범계역4-1출구앞 버스표가판점",
  "combination": "자동",
  "lat": 37.389736,
  "lng": 126.95106
 },
 {
  "name": "복권마트",
  "address": "강원 홍천군 홍천로 409 1층",
  "combination": "자동",
  "lat": 37.690258,
  "lng": 127.88947
 },
 {
  "name": "이마트24 순천산단점",
  "address": "전남 순천시 산단1길 6 중앙정밀기계,마트",
  "combination": "자동",
  "lat": 34.987934,
  "lng": 127.50839
 },
 {
  "name": "신라슈퍼",
  "address": "경북 포항시 남구 동해면 일월로 112,(약전리)",
  "combination": "자동",
  "lat": 35.987953,
  "lng": 129.4453
 }
]