[
 {
  "name": "명당복권방",
  "address": "서울 동작구 상도로 281 1층",
  "combination": "자동",
  "lat": 37.50238,
  "lng": 126.94859
 },
 {
  "name": "인터넷 복권판매사이트",
  "address": "동행복권(dhlottery.co.kr)",
  "combination": "자동",
  "lat": 37.482063,
  "lng": 127.015785
 },
 {
  "name": "복권천국",
  "address": "서울 성동구 무학봉16길 22-2 1층",
  "combination": "자동",
  "lat": 37.559914,
  "lng": 127.032906
 },
 {
  "name": "부일카서비스",
  "address": "부산 동구 자성로133번길 35",
  "combination": "자동",
  "lat": 35.140015,
  "lng": 129.06306
 },
 {
  "name": "로또타운점",
  "address": "대전 대덕구 우암로 466",
  "combination": "수동",
  "lat": 36.358532,
  "lng": 127.450584
 },
 {
  "name": "로또복권",
  "address": "울산 울주군 해맞이로 1578",
  "combination": "자동",
  "lat": 35.382607,
  "lng": 129.34232
 },
 {
  "name": "로또판매 김포운양점",
  "address": "경기 김포시 김포한강11로 276 풍경마을반도유보라아파트 718동 지1층 101호,풍경마을반도유보라아파트",
  "combination": "수동",
  "lat": 37.653603,
  "lng": 126.679825
 },
 {
  "name": "대운",
  "address": "경기 김포시 대명항로 209",
  "combination": "자동",
  "lat": 37.653645,
  "lng": 126.595695
 },
 {
  "name": "대박찬스",
  "address": "충북 청주시 흥덕구 가경로161번길 3",
  "combination": "자동",
  "lat": 36.628975,
  "lng": 127.43644
 },
 {
  "name": "마니마니 행복쇼핑",
  "address": "경남 고성군 남일로  411-3",
  "combination": "자동",
  "lat": 34.929325,
  "lng": 128.12009
 }
]