[
 {
  "name": "투데이",
  "address": "서울 동대문구 천호대로 67 1층",
  "combination": "자동",
  "lat": 37.574116,
  "lng": 127.03101
 },
 {
  "name": "프로토베팅샵",
  "address": "부산 중구 국제시장2길 5 4호",
  "combination": "자동",
  "lat": 35.099678,
  "lng": 129.0284
 },
 {
  "name": "일등복권편의점",
  "address": "대구 달서구 대명천로 220 1층",
  "combination": "자동",
  "lat": 35.84214,
  "lng": 128.53621
 },
 {
  "name": "복권명당",
  "address": "대구 수성구 들안로 243",
  "combination": "수동",
  "lat": 35.851864,
  "lng": 128.6167
 },
 {
  "name": "대박찬스",
  "address": "경기 남양주시 진접읍 장현로 111 1층1호",
  "combination": "수동",
  "lat": 37.719795,
  "lng": 127.18393
 },
 {
  "name": "공원슈퍼",
  "address": "경기 수원시 장안구 팔달로 257-1 1층(영화동)",
  "combination": "자동",
  "lat": 37.288837,
  "lng": 127.01324
 },
 {
  "name": "로또명당",
  "address": "경기 시흥시 신현로 21-1 101호",
  "combination": "반자동",
  "lat": 37.40707,
  "lng": 126.78708
 },
 {
  "name": "날개복권#",
  "address": "충남 서산시 율지5로 16",
  "combination": "자동",
  "lat": 36.77752,
  "lng": 126.46427
 },
 {
  "name": "로또명당인주점",
  "address": "충남 아산시 서해로 519-2",
  "combination": "자동",
  "lat": 36.87784,
  "lng": 126.89828
 },
 {
  "name": "천하명당복권방",
  "address": "경북 포항시 남구 중섬로 26",
  "combination": "자동",
  "lat": 36.013783,
  "lng": 129.34744
 }
]