[
 {
  "name": "인터넷 복권판매사이트",
  "address": "동행복권(dhlottery.co.kr)",
  "combination": "반자동",
  "lat": 37.482063,
  "lng": 127.015785
 },
 {
  "name": "세진전자통신",
  "address": "대구 서구 서대구로 156",
  "combination": "자동",
  "lat": 35.8719,
  "lng": 128.5552
 },
 {
  "name": "천하명당복권방역전점",
  "address": "대전 동구 대전로 815",
  "combination": "자동",
  "lat": 36.332386,
  "lng": 127.43188
 },
 {
  "name": "대박로또",
  "address": "울산 남구 번영로75번길 38",
  "combination": "수동",
  "lat": 35.531364,
  "lng": 129.3259
 },
 {
  "name": "로또명당 대박복권방",
  "address": "경기 광명시 소하로 78 109호(소하동, 신성프라자)",
  "combination": "자동",
  "lat": 37.44792,
  "lng": 126.883354
 },
 {
  "name": "대운",
  "address": "경기 김포시 대명항로 209",
  "combination": "자동",
  "lat": 37.653645,
  "lng": 126.595695
 },
 {
  "name": "매탄동슈퍼",
  "address": "경기 수원시 영통구 매봉로49번길 51",
  "combination": "수동",
  "lat": 37.27264,
  "lng": 127.05042
 },
 {
  "name": "복드림로또복권방",
  "address": "경기 의왕시 부곡시장4길 17 1층",
  "combination": "자동",
  "lat": 37.31737,
  "lng": 126.9523
 },
 {
  "name": "남운유통",
  "address": "충북 충주시 애향로 40 1층",
  "combination": "수동",
  "lat": 36.973705,
  "lng": 127.91414
 },
 {
  "name": "복권명당",
  "address": "경북 김천시 용암로 2",
  "combination": "수동",
  "lat": 36.11986,
  "lng": 128.1277
 }
]