[
 {
  "name": "로또복권판매",
  "address": "서울 강북구 솔샘로67길 71",
  "combination": "자동",
  "lat": 37.620274,
  "lng": 127.02744
 },
 {
  "name": "지에스25 신매태왕점로또",
  "address": "대구 수성구 욱수천로 70 편의점_GS25",
  "combination": "자동",
  "lat": 35.83531,
  "lng": 128.7119
 },
 {
  "name": "GS25(수성시지점)",
  "address": "대구 수성구  고산로18길 9",
  "combination": "자동",
  "lat": 35.8397,
  "lng": 128.70555
 },
 {
  "name": "행운생활건강",
  "address": "인천 서구 고래울로 42",
  "combination": "수동",
  "lat": 37.486103,
  "lng": 126.68637
 },
 {
  "name": "맑은샘",
  "address": "광주 동구 중앙로 161-1 NC웨이브 정문앞 가판",
  "combination": "자동",
  "lat": 35.148766,
  "lng": 126.9131
 },
 {
  "name": "로데오복권방",
  "address": "경기 고양시 일산동구 무궁화로 40 우림보보카운티108",
  "combination": "자동",
  "lat": 37.662975,
  "lng": 126.76896
 },
 {
  "name": "금손로또",
  "address": "경기 의왕시 부곡중앙남1길 37",
  "combination": "자동",
  "lat": 37.317547,
  "lng": 126.95031
 },
 {
  "name": "복권나라",
  "address": "경기 포천시 죽엽산로35번길 1",
  "combination": "자동",
  "lat": 37.826786,
  "lng": 127.152664
 },
 {
  "name": "나나 복권판매소",
  "address": "경남 양산시 상북중앙로 319 복권판매점",
  "combination": "자동",
  "lat": 35.4122,
  "lng": 129.05919
 }
]