[
 {
  "name": "오케이상사",
  "address": "서울 서초구 신반포로 176 센트럴시티내100호매점",
  "combination": "자동",
  "lat": 37.504353,
  "lng": 127.00359
 },
 {
  "name": "인터넷 복권판매사이트",
  "address": "동행복권(dhlottery.co.kr)",
  "combination": "자동",
  "lat": 37.482063,
  "lng": 127.015785
 },
 {
  "name": "복권방",
  "address": "대구 달서구 성지로 66",
  "combination": "자동",
  "lat": 35.85494,
  "lng": 128.52121
 },
 {
  "name": "황금대박점",
  "address": "대구 수성구 지범로 62 1층 복권판매점",
  "combination": "자동",
  "lat": 35.826054,
  "lng": 128.62749
 },
 {
  "name": "세븐일레븐인천인하대점",
  "address": "인천 미추홀구 한나루로477번길 78",
  "combination": "수동",
  "lat": 37.45025,
  "lng": 126.663
 },
 {
  "name": "세븐일레븐 주안역 지하상가점",
  "address": "인천 미추홀구 주안로 86 주안역지하도상가 28,29,46,47호",
  "combination": "자동",
  "lat": 37.464413,
  "lng": 126.68042
 },
 {
  "name": "로또",
  "address": "경기 고양시 일산동구 무궁화로 20-18 101호",
  "combination": "자동",
  "lat": 37.66127,
  "lng": 126.76728
 },
 {
  "name": "로또25시",
  "address": "경기 수원시 권선구 금곡로102번길 15 비즈웍스 비즈웍스 111호",
  "combination": "수동",
  "lat": 37.27328,
  "lng": 126.94183
 },
 {
  "name": "세븐일레븐 오산양산점 로또판매점",
  "address": "경기 오산시 양산로410번길 10 세븐일레븐",
  "combination": "수동",
  "lat": 37.19544,
  "lng": 127.02996
 },
 {
  "name": "GS25송탄터미널점",
  "address": "경기 평택시 송탄로 412-1",
  "combination": "자동",
  "lat": 37.080376,
  "lng": 127.05801
 },
 {
  "name": "대박슈퍼",
  "address": "세종   행복10길 3 1층 101호",
  "combination": "자동",
  "lat": 36.603516,
  "lng": 127.29121
 },
 {
  "name": "빛가람나눔슈퍼",
  "address": "전남 나주시 호수로 74 103호",
  "combination": "자동",
  "lat": 35.013306,
  "lng": 126.79055
 },
 {
  "name": "옥좌로또점",
  "address": "경북 경주시 내외로 10 좌측4번째상가",
  "combination": "자동",
  "lat": 35.727047,
  "lng": 129.32066
 },
 {
  "name": "목화휴게소",
  "address": "경남 사천시 사천대로 912",
  "combination": "자동",
  "lat": 35.0018,
  "lng": 128.05415
 }
]