[
 {
  "name": "아현역3번출구앞가판점",
  "address": "서울 마포구 마포대로 249 아현산업정보학교 아현역3번출구앞",
  "combination": "자동",
  "lat": 37.556522,
  "lng": 126.95708
 },
 {
  "name": "인터넷 복권판매사이트",
  "address": "동행복권(dhlottery.co.kr)",
  "combination": "자동",
  "lat": 37.482063,
  "lng": 127.015785
 },
 {
  "name": "노다지복권방",
  "address": "부산 북구 덕천로 287",
  "combination": "자동",
  "lat": 35.20986,
  "lng": 129.03535
 },
 {
  "name": "한꿈복권방",
  "address": "울산 중구 번영로 586",
  "combination": "수동",
  "lat": 35.568794,
  "lng": 129.34589
 },
 {
  "name": "마이더스로또복권방",
  "address": "경기 안양시 동안구 안양판교로 12-2,(관양동)",
  "combination": "자동",
  "lat": 37.400826,
  "lng": 126.977646
 },
 {
  "name": "명당로또복권판매점",
  "address": "경기 용인시 기흥구 구성2로 18-5 102호",
  "combination": "수동",
  "lat": 37.27392,
  "lng": 127.15018
 },
 {
  "name": "금손로또판매점",
  "address": "충남 당진시 서해로 5760 에이동 1층 101호",
  "combination": "수동",
  "lat": 36.897835,
  "lng": 126.6277
 },
 {
  "name": "로또판매점(무지개점)",
  "address": "경북 포항시 남구 중앙로 110 중간 상가",
  "combination": "자동",
  "lat": 36.02301,
  "lng": 129.36882
 }
]