[
 {
  "name": "우일",
  "address": "서울 송파구 마천로 235",
  "combination": "수동",
  "lat": 37.49996,
  "lng": 127.14397
 },
 {
  "name": "로또",
  "address": "서울 중구  퇴계로86길 42",
  "combination": "자동",
  "lat": 37.56378,
  "lng": 127.0194
 },
 {
  "name": "이마트24백석동문점",
  "address": "경기 고양시 일산동구 호수로 358-26 203동1층 101호",
  "combination": "자동",
  "lat": 37.63942,
  "lng": 126.78701
 },
 {
  "name": "성공복권방",
  "address": "경기 여주시  청심로 96 장터마트 1층",
  "combination": "수동",
  "lat": 37.299427,
  "lng": 127.630905
 },
 {
  "name": "복권나라",
  "address": "강원 원주시 평원로 23 1층",
  "combination": "자동",
  "lat": 37.348927,
  "lng": 127.952644
 },
 {
  "name": "해적책대여점 복권방",
  "address": "충북 청주시 서원구 대원로 28",
  "combination": "자동",
  "lat": 36.639973,
  "lng": 127.479355
 },
 {
  "name": "나래복권",
  "address": "충북 충주시 충원대로 952 1층",
  "combination": "자동",
  "lat": 37.0107,
  "lng": 127.91579
 },
 {
  "name": "황실복권방",
  "address": "충남 천안시 동남구 충절로 799",
  "combination": "자동",
  "lat": 36.769257,
  "lng": 127.20064
 },
 {
  "name": "로또복권판매도통점",
  "address": "전북 남원시 용성로 232,(도통동)",
  "combination": "자동",
  "lat": 35.41778,
  "lng": 127.39722
 },
 {
  "name": "나이스로또복권",
  "address": "전남 여수시 이순신광장로 210",
  "combination": "자동",
  "lat": 34.73967,
  "lng": 127.745186
 },
 {
  "name": "삼삼마트",
  "address": "경남 진주시 진주대로 1165-1",
  "combination": "자동",
  "lat": 35.19521,
  "lng": 128.07565
 },
 {
  "name": "CU(통영북신에이스점)",
  "address": "경남 통영시 무전8길 14-12",
  "combination": "수동",
  "lat": 34.859547,
  "lng": 128.4269
 }
]