[
 {
  "name": "개미식품",
  "address": "서울 동작구 노량진로 110 건설상가 115호",
  "combination": "수동",
  "lat": 37.513187,
  "lng": 126.937996
 },
 {
  "name": "드림",
  "address": "서울 서대문구 증가로 247 1층",
  "combination": "자동",
  "lat": 37.58294,
  "lng": 126.912254
 },
 {
  "name": "팬레코드",
  "address": "부산 남구 수영로 253",
  "combination": "자동",
  "lat": 35.135506,
  "lng": 129.09416
 },
 {
  "name": "드림마트",
  "address": "인천 서구 검단로 490",
  "combination": "수동",
  "lat": 37.60223,
  "lng": 126.65863
 },
 {
  "name": "금곡로",
  "address": "경기 수원시 권선구 금곡로197번길 18-23 해피라움블루 105호(금곡동, 해피라움블루)",
  "combination": "자동",
  "lat": 37.27511,
  "lng": 126.95279
 },
 {
  "name": "복권나라",
  "address": "충북 청주시 청원구 율봉로176번길 8-2",
  "combination": "자동",
  "lat": 36.668503,
  "lng": 127.488235
 },
 {
  "name": "드림통신(구)굿타임24아산석정점",
  "address": "충남 아산시 충무로 230",
  "combination": "수동",
  "lat": 36.8013,
  "lng": 127.00762
 },
 {
  "name": "씨유 충효그린점",
  "address": "경북 경주시 충효녹지길 52  CU충효그린점",
  "combination": "수동",
  "lat": 35.84221,
  "lng": 129.18536
 },
 {
  "name": "운수대통복권판매점",
  "address": "경남 거제시 능포로 108 동헌하이츠 102동 109호",
  "combination": "자동",
  "lat": 34.873497,
  "lng": 128.73126
 },
 {
  "name": "부강 돈벼락",
  "address": "경남 양산시 물금로 41 양산물금양우내안애5차리버파크 상가108호 양우대산부동산 내",
  "combination": "자동",
  "lat": 35.309055,
  "lng": 128.9885
 },
 {
  "name": "GS25(양산혜인점)",
  "address": "경남 양산시  웅상대로 955",
  "combination": "자동",
  "lat": 35.384815,
  "lng": 129.15508
 },
 {
  "name": "행복을주는가게",
  "address": "제주 서귀포시 태평로 505 가나노블휘닉스 1층 세븐일레븐",
  "combination": "자동",
  "lat": 33.250343,
  "lng": 126.57151
 }
]