[
 {
  "name": "로또판매",
  "address": "서울 노원구 한글비석로15길 27",
  "combination": "자동",
  "lat": 37.657005,
  "lng": 127.07414
 },
 {
  "name": "스파",
  "address": "서울 노원구 동일로 1493 상계주공아파트(10단지) 주공10단지종합상가111",
  "combination": "자동",
  "lat": 37.66166,
  "lng": 127.05787
 },
 {
  "name": "일등다방 복권판매점",
  "address": "인천 계양구 오조산로45번길  16 107호",
  "combination": "자동",
  "lat": 37.535168,
  "lng": 126.7368
 },
 {
  "name": "수퍼복권대박",
  "address": "인천 연수구 용담로 60 1층",
  "combination": "자동",
  "lat": 37.418648,
  "lng": 126.67362
 },
 {
  "name": "행복드림로또",
  "address": "광주 광산구 왕버들로 265 1층 103-1호",
  "combination": "자동",
  "lat": 35.196247,
  "lng": 126.8377
 },
 {
  "name": "노다지복권방",
  "address": "대전 서구 조달청길 62",
  "combination": "수동",
  "lat": 36.31912,
  "lng": 127.3753
 },
 {
  "name": "대박나라행운잔치",
  "address": "경기 고양시 일산서구 일산로 593 백암빌딩101호",
  "combination": "수동",
  "lat": 37.67969,
  "lng": 126.762474
 },
 {
  "name": "금나와라뚝딱",
  "address": "경기 용인시 처인구 지삼로 612",
  "combination": "자동",
  "lat": 37.24143,
  "lng": 127.16845
 },
 {
  "name": "행운슈퍼",
  "address": "경기 평택시 서동대로 2623 1층",
  "combination": "자동",
  "lat": 37.016075,
  "lng": 127.03121
 },
 {
  "name": "예인기획",
  "address": "경기 화성시 3.1만세로 1127",
  "combination": "자동",
  "lat": 37.13382,
  "lng": 126.90975
 },
 {
  "name": "드림복권전문점",
  "address": "강원 춘천시 춘주로 195",
  "combination": "수동",
  "lat": 37.860355,
  "lng": 127.72782
 },
 {
  "name": "원동슈퍼",
  "address": "충남 보령시 대천로 28",
  "combination": "자동",
  "lat": 36.35113,
  "lng": 126.59745
 },
 {
  "name": "서산로또명당점",
  "address": "충남 서산시 서해로 3207 세븐일레븐편의점 옆",
  "combination": "수동",
  "lat": 36.77128,
  "lng": 126.43668
 },
 {
  "name": "성호로또",
  "address": "전남 광양시 대림오성로 37 1층",
  "combination": "자동",
  "lat": 34.96818,
  "lng": 127.5671
 },
 {
  "name": "복권왕국",
  "address": "전남 여수시 화산로 134",
  "combination": "자동",
  "lat": 34.77723,
  "lng": 127.651146
 },
 {
  "name": "복권나라",
  "address": "경북 포항시 북구 장량로140번길 9",
  "combination": "자동",
  "lat": 36.08086,
  "lng": 129.39603
 },
 {
  "name": "코사할인마트",
  "address": "경남 거제시 연초면 거제북로 46",
  "combination": "수동",
  "lat": 34.91474,
  "lng": 128.65558
 },
 {
  "name": "삼호판매점",
  "address": "경남 양산시 서창로 176 복권판매점",
  "combination": "자동",
  "lat": 35.415054,
  "lng": 129.17163
 }
]