[
 {
  "name": "베스토아",
  "address": "서울 강남구 역삼로 166 세현빌딩",
  "combination": "수동",
  "lat": 37.494987,
  "lng": 127.03726
 },
 {
  "name": "삼익마트",
  "address": "서울 강동구 상암로 211 1층",
  "combination": "수동",
  "lat": 37.546654,
  "lng": 127.14613
 },
 {
  "name": "복권나라",
  "address": "서울 관악구 남부순환로 1739-9",
  "combination": "자동",
  "lat": 37.482788,
  "lng": 126.943474
 },
 {
  "name": "가로판매소",
  "address": "서울 구로구 새말로 117-24 (신도림역2번출구)(구로동)",
  "combination": "수동",
  "lat": 37.50696,
  "lng": 126.8903
 },
 {
  "name": "다모아복권",
  "address": "서울 구로구 경인로19길 4",
  "combination": "자동",
  "lat": 37.495926,
  "lng": 126.84278
 },
 {
  "name": "노다지 노원역점 복권방",
  "address": "서울 노원구 상계로 78,(상계동)",
  "combination": "자동",
  "lat": 37.656223,
  "lng": 127.06374
 },
 {
  "name": "복다방",
  "address": "서울 성동구 동일로 135 1층 102호",
  "combination": "수동",
  "lat": 37.54469,
  "lng": 127.06504
 },
 {
  "name": "그린마트",
  "address": "서울 송파구 백제고분로19길 26 1층",
  "combination": "반자동",
  "lat": 37.506878,
  "lng": 127.08749
 },
 {
  "name": "뉴빅마트",
  "address": "부산 기장군 정관중앙로 48 106호",
  "combination": "수동",
  "lat": 35.321114,
  "lng": 129.17929
 },
 {
  "name": "서원탑훼미리",
  "address": "부산 동구 수정공원로 55 4동 1층 101호",
  "combination": "자동",
  "lat": 35.131424,
  "lng": 129.03888
 },
 {
  "name": "로또구포점",
  "address": "부산 북구 덕천2길 23-3 1층",
  "combination": "자동",
  "lat": 35.209282,
  "lng": 129.00656
 },
 {
  "name": "대박로또복권",
  "address": "대구 동구 메디밸리로 5-21",
  "combination": "자동",
  "lat": 35.87418,
  "lng": 128.74846
 },
 {
  "name": "복권광장",
  "address": "인천 부평구 백범로 500 1층(십정동)",
  "combination": "자동",
  "lat": 37.47005,
  "lng": 126.696396
 },
 {
  "name": "포시즌마전점",
  "address": "인천 서구 완정로10번길 6-6 검단2지구37블록1롯트",
  "combination": "자동",
  "lat": 37.59451,
  "lng": 126.67347
 },
 {
  "name": "모닝마트(학성점)",
  "address": "울산 중구 학성로 189",
  "combination": "자동",
  "lat": 35.557095,
  "lng": 129.33168
 },
 {
  "name": "홈돌이로또복권",
  "address": "경기 김포시 중봉로 14 삼성홈플러스2층",
  "combination": "수동",
  "lat": 37.623863,
  "lng": 126.69863
 },
 {
  "name": "가판점",
  "address": "경기 부천시 자유로 33 이마트앞 지하도입구",
  "combination": "자동",
  "lat": 37.483967,
  "lng": 126.77988
 },
 {
  "name": "로또복권판매점",
  "address": "경기 평택시 서정로 237",
  "combination": "자동",
  "lat": 37.06594,
  "lng": 127.059685
 },
 {
  "name": "금강복권",
  "address": "경남 거제시 거제남서로 3239 금강오일뱅크",
  "combination": "자동",
  "lat": 34.835403,
  "lng": 128.59909
 }
]