[
 {
  "name": "행운복권방",
  "address": "서울 서대문구 북아현로 34-3",
  "combination": "자동",
  "lat": 37.560616,
  "lng": 126.95637
 },
 {
  "name": "인터넷 복권판매사이트",
  "address": "동행복권(dhlottery.co.kr)",
  "combination": "자동",
  "lat": 37.482063,
  "lng": 127.015785
 },
 {
  "name": "복드림",
  "address": "서울 영등포구 양평로 117",
  "combination": "수동",
  "lat": 37.537376,
  "lng": 126.89446
 },
 {
  "name": "금집복권",
  "address": "광주 북구 첨단연신로108번길 134",
  "combination": "자동",
  "lat": 35.2088,
  "lng": 126.86471
 },
 {
  "name": "지오",
  "address": "경기 남양주시 금강로 1617 1층",
  "combination": "자동",
  "lat": 37.73454,
  "lng": 127.195114
 },
 {
  "name": "로또휴게실",
  "address": "경기 용인시 기흥구 용구대로 1885",
  "combination": "자동",
  "lat": 37.256386,
  "lng": 127.10432
 },
 {
  "name": "황금복권마트",
  "address": "경기 이천시 증신로325번길 5 1층",
  "combination": "자동",
  "lat": 37.297546,
  "lng": 127.438866
 },
 {
  "name": "로또명당인주점",
  "address": "충남 아산시 서해로 519-2",
  "combination": "자동",
  "lat": 36.87784,
  "lng": 126.89828
 },
 {
  "name": "Letsgo복권유통",
  "address": "전북 전주시 덕진구 무삼지로 29",
  "combination": "자동",
  "lat": 35.82817,
  "lng": 127.16468
 },
 {
  "name": "싹쓰리복권방",
  "address": "전북 전주시 완산구 솟대로 13",
  "combination": "자동",
  "lat": 35.795097,
  "lng": 127.12594
 },
 {
  "name": "새론마트내로또복권",
  "address": "전남 순천시 북문5길 5 새론마트",
  "combination": "자동",
  "lat": 34.961628,
  "lng": 127.48701
 },
 {
  "name": "폭스일레븐(창원점)",
  "address": "경남 창원시 성산구 가양로136번길 14 대양빌딩102호",
  "combination": "자동",
  "lat": 35.208366,
  "lng": 128.7081
 }
]