[
 {
  "name": "복권천하",
  "address": "서울 강북구 월계로7나길 23,(미아동)",
  "combination": "자동",
  "lat": 37.61254,
  "lng": 127.0325
 },
 {
  "name": "굿타임",
  "address": "서울 서대문구 연희로 36,(연희동)",
  "combination": "자동",
  "lat": 37.561817,
  "lng": 126.927475
 },
 {
  "name": "로또방",
  "address": "서울 영등포구 영중로 12 에쉐르아이 시네마 쇼핑몰",
  "combination": "자동",
  "lat": 37.517628,
  "lng": 126.90648
 },
 {
  "name": "케이(k)복권방",
  "address": "부산 사하구 장평로 300",
  "combination": "수동",
  "lat": 35.09296,
  "lng": 128.97366
 },
 {
  "name": "부산슈퍼",
  "address": "부산 중구 흑교로31번길 13",
  "combination": "자동",
  "lat": 35.102238,
  "lng": 129.02374
 },
 {
  "name": "노다지복권방",
  "address": "부산 해운대구 신반송로 179",
  "combination": "자동",
  "lat": 35.229137,
  "lng": 129.1601
 },
 {
  "name": "네잎클로버",
  "address": "울산 북구 당수골6길 20 1층",
  "combination": "수동",
  "lat": 35.58589,
  "lng": 129.36163
 },
 {
  "name": "복권닷컴",
  "address": "경기 성남시 수정구 탄리로 79",
  "combination": "수동",
  "lat": 37.442997,
  "lng": 127.135574
 },
 {
  "name": "농협앞 가판점",
  "address": "경기 성남시 수정구 수정로 128",
  "combination": "자동",
  "lat": 37.44143,
  "lng": 127.13456
 },
 {
  "name": "복권방",
  "address": "경기 수원시 팔달구 권광로 213",
  "combination": "수동",
  "lat": 37.26662,
  "lng": 127.0332
 },
 {
  "name": "행운이가득한집",
  "address": "경기 안산시 상록구 건건로 28 동호상가B-14호",
  "combination": "자동",
  "lat": 37.303696,
  "lng": 126.90144
 },
 {
  "name": "나눔로또",
  "address": "경기 화성시 상신하길로274번길 21 서봉마을사랑으로부영7단지아파트 상가1동 104,105,106호",
  "combination": "자동",
  "lat": 37.11338,
  "lng": 126.91072
 },
 {
  "name": "전우사",
  "address": "강원 춘천시 금강로 44",
  "combination": "자동",
  "lat": 37.880596,
  "lng": 127.72703
 },
 {
  "name": "썬마트",
  "address": "충북 청주시 흥덕구 진재로23번길 25",
  "combination": "수동",
  "lat": 36.632607,
  "lng": 127.42811
 },
 {
  "name": "신천하명당",
  "address": "충남 예산군 발연로 1 이마트 24 내",
  "combination": "자동",
  "lat": 36.698784,
  "lng": 126.8296
 },
 {
  "name": "CU노서점",
  "address": "경북 경주시 금성로259번길 38 1층 CU 노서점 내",
  "combination": "자동",
  "lat": 35.841015,
  "lng": 129.20303
 }
]